Node,Eigenvector Centrality,Degree Centrality,Closeness Centrality,Betweenness Centrality,stop_id,clust,stop_lat,stop_lon,stop_name
1.0,7.182866105133724e-05,0.009302325581395349,0.09576845880054594,0.006561490936778183,2521113,1,51.914311,4.458813,"Rotterdam, Claes de Vrieselaan / Mathenesserlaan"
1.0,7.182866105133724e-05,0.009302325581395349,0.09576845880054594,0.006561490936778183,2522415,1,51.91424,4.45896,"Rotterdam, Claes de Vrieselaan / Mathenesserlaan"
1.0,7.182866105133724e-05,0.009302325581395349,0.09576845880054594,0.006561490936778183,2807351,1,51.914311,4.458813,"Rotterdam, Claes de Vrieselaan / Mathenesserlaan"
1.0,7.182866105133724e-05,0.009302325581395349,0.09576845880054594,0.006561490936778183,2807354,1,51.914258,4.458959,"Rotterdam, Claes de Vrieselaan / Mathenesserlaan"
78.0,0.00011911119445613983,0.009302325581395349,0.10436768334295764,0.014648314248691147,2548181,78,51.913903,4.464127,"Rotterdam, 's-Gravendijkwal"
78.0,0.00011911119445613983,0.009302325581395349,0.10436768334295764,0.014648314248691147,2548186,78,51.913698,4.463201,"Rotterdam, 's-Gravendijkwal"
78.0,0.00011911119445613983,0.009302325581395349,0.10436768334295764,0.014648314248691147,2685261,78,51.914041,4.463397,"Rotterdam, 's-Gravendijkwal"
78.0,0.00011911119445613983,0.009302325581395349,0.10436768334295764,0.014648314248691147,2685262,78,51.914278,4.463785,"Rotterdam, 's-Gravendijkwal"
79.0,5.243191227256027e-05,0.004651162790697674,0.09643428817807001,0.0019328191622290309,2807355,79,51.914829,4.465285,"Rotterdam, Nieuwe Binnenweg"
263.0,3.0073124961662696e-05,0.0069767441860465115,0.08898929715320189,0.005220682535693108,2521114,263,51.913604,4.45361,"Rotterdam, Heemraadsplein"
263.0,3.0073124961662696e-05,0.0069767441860465115,0.08898929715320189,0.005220682535693108,2522414,263,51.91356,4.453669,"Rotterdam, Heemraadsplein"
263.0,3.0073124961662696e-05,0.0069767441860465115,0.08898929715320189,0.005220682535693108,2548183,263,51.912426,4.455785,"Rotterdam, Heemraadsplein"
263.0,3.0073124961662696e-05,0.0069767441860465115,0.08898929715320189,0.005220682535693108,2548184,263,51.912448,4.456293,"Rotterdam, Heemraadsplein"
263.0,3.0073124961662696e-05,0.0069767441860465115,0.08898929715320189,0.005220682535693108,2548190,263,51.91262,4.455316,"Rotterdam, Heemraadsplein"
263.0,3.0073124961662696e-05,0.0069767441860465115,0.08898929715320189,0.005220682535693108,2807350,263,51.913604,4.45361,"Rotterdam, Heemraadsplein"
263.0,3.0073124961662696e-05,0.0069767441860465115,0.08898929715320189,0.005220682535693108,2807353,263,51.913569,4.453654,"Rotterdam, Heemraadsplein"
2.0,3.7628394025641575e-05,0.004651162790697674,0.09568037560091334,0.0027276554348206164,2548182,2,51.91329,4.460476,"Rotterdam, Claes de Vrieselaan / Nieuwe Binnenweg"
2.0,3.7628394025641575e-05,0.004651162790697674,0.09568037560091334,0.0027276554348206164,2548185,2,51.913076,4.459551,"Rotterdam, Claes de Vrieselaan / Nieuwe Binnenweg"
3.0,0.3658640928605592,0.009302325581395349,0.0835402436234435,0.014215209889255408,2521057,3,51.8856,4.548404,"Rotterdam, Keizerswaard/Gr.v.Zoelenlaan"
3.0,0.3658640928605592,0.009302325581395349,0.0835402436234435,0.014215209889255408,2521397,3,51.885723,4.547952,"Rotterdam, Keizerswaard/Gr.v.Zoelenlaan"
3.0,0.3658640928605592,0.009302325581395349,0.0835402436234435,0.014215209889255408,2522341,3,51.885723,4.547952,"Rotterdam, Keizerswaard/Gr.v.Zoelenlaan"
241.0,0.24637511079428018,0.009302325581395349,0.08372514154695615,0.039548299627891706,2522328,241,51.885796,4.544348,"Rotterdam, Klein Nieuwland"
241.0,0.24637511079428018,0.009302325581395349,0.08372514154695615,0.039548299627891706,2522329,241,51.88595,4.544621,"Rotterdam, Klein Nieuwland"
249.0,0.39991077808174014,0.013953488372093023,0.08593844557793724,0.04906101223948209,2521586,249,51.884192,4.557683,"Rotterdam, Akkeroord"
249.0,0.39991077808174014,0.013953488372093023,0.08593844557793724,0.04906101223948209,2521587,249,51.884265,4.557841,"Rotterdam, Akkeroord"
249.0,0.39991077808174014,0.013953488372093023,0.08593844557793724,0.04906101223948209,2521896,249,51.884613,4.558794,"Rotterdam, Akkeroord"
249.0,0.39991077808174014,0.013953488372093023,0.08593844557793724,0.04906101223948209,2521897,249,51.884971,4.55732,"Rotterdam, Akkeroord"
249.0,0.39991077808174014,0.013953488372093023,0.08593844557793724,0.04906101223948209,2522609,249,51.884567,4.558635,"Rotterdam, Akkeroord"
249.0,0.39991077808174014,0.013953488372093023,0.08593844557793724,0.04906101223948209,2522620,249,51.884836,4.557235,"Rotterdam, Akkeroord"
4.0,1.3893246504884043e-06,0.004651162790697674,0.08000652826155971,0.007918902802623737,2521192,4,51.921564,4.436217,"Rotterdam, Beukelsbrug / Van Nellefabriek"
4.0,1.3893246504884043e-06,0.004651162790697674,0.08000652826155971,0.007918902802623737,2521193,4,51.921487,4.436771,"Rotterdam, Beukelsbrug / Van Nellefabriek"
112.0,3.3087208125830868e-06,0.009302325581395349,0.08404644586717272,0.05761045156393993,2521920,112,51.917922,4.428329,"Rotterdam, Spaanseweg"
112.0,3.3087208125830868e-06,0.009302325581395349,0.08404644586717272,0.05761045156393993,2521928,112,51.918059,4.428573,"Rotterdam, Spaanseweg"
364.0,2.154977500301024e-06,0.004651162790697674,0.08122466396415617,0.008764207368858535,2521919,364,51.920182,4.443253,"Rotterdam, Beukelsweg"
364.0,2.154977500301024e-06,0.004651162790697674,0.08122466396415617,0.008764207368858535,2521929,364,51.920075,4.443343,"Rotterdam, Beukelsweg"
5.0,0.00018064779901936088,0.002325581395348837,0.06182052495741674,0.0,2521355,5,51.897967,4.574995,"Rotterdam, Limbrichthoek spoor 1"
5.0,0.00018064779901936088,0.002325581395348837,0.06182052495741674,0.0,2522229,5,51.897985,4.575009,"Rotterdam, Limbrichthoek spoor 2"
97.0,0.0007669698787321095,0.0069767441860465115,0.06595561158477922,0.004575269691548761,2521831,97,51.898194,4.574105,"Rotterdam, Limbrichthoek"
97.0,0.0007669698787321095,0.0069767441860465115,0.06595561158477922,0.004575269691548761,2521833,97,51.898344,4.573623,"Rotterdam, Limbrichthoek"
97.0,0.0007669698787321095,0.0069767441860465115,0.06595561158477922,0.004575269691548761,2522614,97,51.898201,4.57377,"Rotterdam, Limbrichthoek"
97.0,0.0007669698787321095,0.0069767441860465115,0.06595561158477922,0.004575269691548761,2522615,97,51.898306,4.573376,"Rotterdam, Limbrichthoek"
6.0,0.04649608539867347,0.013953488372093023,0.08825322449382228,0.07373172250761133,2521780,6,51.88085,4.532894,"Rotterdam, Station Lombardijen"
6.0,0.04649608539867347,0.013953488372093023,0.08825322449382228,0.07373172250761133,2521899,6,51.880805,4.532938,"Rotterdam, Station Lombardijen"
6.0,0.04649608539867347,0.013953488372093023,0.08825322449382228,0.07373172250761133,2521900,6,51.88095,4.534315,"Rotterdam, Station Lombardijen"
6.0,0.04649608539867347,0.013953488372093023,0.08825322449382228,0.07373172250761133,2522605,6,51.880809,4.53349,"Rotterdam, Station Lombardijen"
6.0,0.04649608539867347,0.013953488372093023,0.08825322449382228,0.07373172250761133,2522606,6,51.880606,4.532768,"Rotterdam, Station Lombardijen"
6.0,0.04649608539867347,0.013953488372093023,0.08825322449382228,0.07373172250761133,2522833,6,51.880906,4.534403,"Rotterdam, Station Lombardijen"
6.0,0.04649608539867347,0.013953488372093023,0.08825322449382228,0.07373172250761133,2750138,6,51.880888,4.533111,"Rotterdam, Station Lombardijen"
6.0,0.04649608539867347,0.013953488372093023,0.08825322449382228,0.07373172250761133,2750139,6,51.880905,4.5342,"Rotterdam, Station Lombardijen"
6.0,0.04649608539867347,0.013953488372093023,0.08825322449382228,0.07373172250761133,2867599,6,51.88076,4.532923,"Rotterdam, Station Lombardijen"
6.0,0.04649608539867347,0.013953488372093023,0.08825322449382228,0.07373172250761133,2867600,6,51.880971,4.534318,"Rotterdam, Station Lombardijen"
6.0,0.04649608539867347,0.013953488372093023,0.08825322449382228,0.07373172250761133,2876086,6,51.88076,4.532923,"Rotterdam, Station Lombardijen"
6.0,0.04649608539867347,0.013953488372093023,0.08825322449382228,0.07373172250761133,2876087,6,51.880971,4.534318,"Rotterdam, Station Lombardijen"
80.0,0.016968619446693006,0.0069767441860465115,0.08157497617886142,0.0007392349252814369,2521398,80,51.879077,4.528861,"Rotterdam, Homerusstraat"
80.0,0.016968619446693006,0.0069767441860465115,0.08157497617886142,0.0007392349252814369,2521399,80,51.879077,4.528861,"Rotterdam, Homerusstraat"
80.0,0.016968619446693006,0.0069767441860465115,0.08157497617886142,0.0007392349252814369,2522787,80,51.879236,4.52848,"Rotterdam, Homerusstraat"
240.0,0.11482790421374175,0.013953488372093023,0.08507747975636314,0.05903967821912392,2521351,240,51.882756,4.539147,"Rotterdam, Kreekhuizenlaan"
240.0,0.11482790421374175,0.013953488372093023,0.08507747975636314,0.05903967821912392,2521352,240,51.88247,4.539341,"Rotterdam, Kreekhuizenlaan"
240.0,0.11482790421374175,0.013953488372093023,0.08507747975636314,0.05903967821912392,2522342,240,51.884193,4.538931,"Rotterdam, Kreekhuizenlaan"
240.0,0.11482790421374175,0.013953488372093023,0.08507747975636314,0.05903967821912392,2522343,240,51.883914,4.538936,"Rotterdam, Kreekhuizenlaan"
240.0,0.11482790421374175,0.013953488372093023,0.08507747975636314,0.05903967821912392,2522828,240,51.884352,4.53733,"Rotterdam, Kreekhuizenlaan"
240.0,0.11482790421374175,0.013953488372093023,0.08507747975636314,0.05903967821912392,2522883,240,51.883906,4.537789,"Rotterdam, Kreekhuizenlaan"
240.0,0.11482790421374175,0.013953488372093023,0.08507747975636314,0.05903967821912392,2522926,240,51.88298,4.538983,"Rotterdam, Kreekhuizenlaan"
240.0,0.11482790421374175,0.013953488372093023,0.08507747975636314,0.05903967821912392,2522927,240,51.88274,4.53938,"Rotterdam, Kreekhuizenlaan"
240.0,0.11482790421374175,0.013953488372093023,0.08507747975636314,0.05903967821912392,2888606,240,51.882461,4.539356,"Rotterdam, Kreekhuizenlaan"
240.0,0.11482790421374175,0.013953488372093023,0.08507747975636314,0.05903967821912392,2888607,240,51.882747,4.539162,"Rotterdam, Kreekhuizenlaan"
258.0,0.01159596032544163,0.004651162790697674,0.0810348497543081,0.004575269691548761,2703578,258,51.873822,4.541799,"Rotterdam, Molgerdijk"
258.0,0.01159596032544163,0.004651162790697674,0.0810348497543081,0.004575269691548761,2703579,258,51.873718,4.542294,"Rotterdam, Molgerdijk"
324.0,0.01596084447468974,0.0069767441860465115,0.08231730039334759,0.00838280582466629,2522625,324,51.877524,4.521789,"Rotterdam, Molenvliet"
324.0,0.01596084447468974,0.0069767441860465115,0.08231730039334759,0.00838280582466629,2522626,324,51.878001,4.521852,"Rotterdam, Molenvliet"
324.0,0.01596084447468974,0.0069767441860465115,0.08231730039334759,0.00838280582466629,2522810,324,51.878567,4.521827,"Rotterdam, Molenvliet"
324.0,0.01596084447468974,0.0069767441860465115,0.08231730039334759,0.00838280582466629,2522811,324,51.877598,4.522136,"Rotterdam, Molenvliet"
326.0,0.023682762746742882,0.013953488372093023,0.091273076000959,0.07654517375887653,2522338,326,51.876978,4.516077,"Rotterdam, Spinozaweg"
326.0,0.023682762746742882,0.013953488372093023,0.091273076000959,0.07654517375887653,2522363,326,51.876878,4.518272,"Rotterdam, Spinozaweg"
326.0,0.023682762746742882,0.013953488372093023,0.091273076000959,0.07654517375887653,2750132,326,51.876886,4.518243,"Rotterdam, Spinozaweg"
326.0,0.023682762746742882,0.013953488372093023,0.091273076000959,0.07654517375887653,2750133,326,51.87696,4.516092,"Rotterdam, Spinozaweg"
326.0,0.023682762746742882,0.013953488372093023,0.091273076000959,0.07654517375887653,2867595,326,51.876869,4.518419,"Rotterdam, Spinozaweg"
326.0,0.023682762746742882,0.013953488372093023,0.091273076000959,0.07654517375887653,2867596,326,51.876967,4.516076,"Rotterdam, Spinozaweg"
326.0,0.023682762746742882,0.013953488372093023,0.091273076000959,0.07654517375887653,2876082,326,51.876869,4.518419,"Rotterdam, Spinozaweg"
326.0,0.023682762746742882,0.013953488372093023,0.091273076000959,0.07654517375887653,2876083,326,51.876967,4.516076,"Rotterdam, Spinozaweg"
329.0,0.014353105445753269,0.004651162790697674,0.08117712709488337,0.0023067512708104696,2522785,329,51.875981,4.524709,"Rotterdam, Catullusweg"
329.0,0.014353105445753269,0.004651162790697674,0.08117712709488337,0.0023067512708104696,2522786,329,51.875793,4.524814,"Rotterdam, Catullusweg"
7.0,0.0001025796279276742,0.004651162790697674,0.10395052547798453,0.000935524423896517,2685258,7,51.911925,4.468644,"Rotterdam, Erasmus MC Hoofdingang"
7.0,0.0001025796279276742,0.004651162790697674,0.10395052547798453,0.000935524423896517,2685259,7,51.911935,4.468847,"Rotterdam, Erasmus MC Hoofdingang"
314.0,0.00012658359313874127,0.004651162790697674,0.10476182111993255,0.0011348103082177907,2521103,314,51.914478,4.469856,"Rotterdam, Breitnerstraat"
314.0,0.00012658359313874127,0.004651162790697674,0.10476182111993255,0.0011348103082177907,2685226,314,51.914375,4.469262,"Rotterdam, Breitnerstraat"
385.0,0.00028192553081118774,0.013953488372093023,0.11613562754350323,0.32155042695373387,2521648,385,51.912171,4.466778,"Rotterdam, Dijkzigt"
385.0,0.00028192553081118774,0.013953488372093023,0.11613562754350323,0.32155042695373387,2521649,385,51.912171,4.466778,"Rotterdam, Dijkzigt"
385.0,0.00028192553081118774,0.013953488372093023,0.11613562754350323,0.32155042695373387,2669754,385,51.911413,4.464091,"Rotterdam, Dijkzigt"
385.0,0.00028192553081118774,0.013953488372093023,0.11613562754350323,0.32155042695373387,2669755,385,51.911185,4.463746,"Rotterdam, Dijkzigt"
385.0,0.00028192553081118774,0.013953488372093023,0.11613562754350323,0.32155042695373387,2685256,385,51.91209,4.464454,"Rotterdam, Dijkzigt"
385.0,0.00028192553081118774,0.013953488372093023,0.11613562754350323,0.32155042695373387,2685257,385,51.911837,4.464358,"Rotterdam, Dijkzigt"
8.0,0.01089996510498068,0.002325581395348837,0.08649219569494328,0.0,2867590,8,51.921846,4.532538,"Rotterdam, Kralingse Zoom (Perron D)"
8.0,0.01089996510498068,0.002325581395348837,0.08649219569494328,0.0,2876077,8,51.921846,4.532538,"Rotterdam, Kralingse Zoom (Perron D)"
19.0,0.046277501136622975,0.013953488372093023,0.09480837400054046,0.14833848535213187,2522359,19,51.916302,4.529269,"Rotterdam, HES"
19.0,0.046277501136622975,0.013953488372093023,0.09480837400054046,0.14833848535213187,2522360,19,51.916255,4.528936,"Rotterdam, HES"
19.0,0.046277501136622975,0.013953488372093023,0.09480837400054046,0.14833848535213187,2867591,19,51.916303,4.52919,"Rotterdam, HES"
19.0,0.046277501136622975,0.013953488372093023,0.09480837400054046,0.14833848535213187,2867592,19,51.916292,4.528967,"Rotterdam, HES"
19.0,0.046277501136622975,0.013953488372093023,0.09480837400054046,0.14833848535213187,2876078,19,51.916303,4.52919,"Rotterdam, HES"
19.0,0.046277501136622975,0.013953488372093023,0.09480837400054046,0.14833848535213187,2876079,19,51.916292,4.528967,"Rotterdam, HES"
9.0,8.092936406710949e-07,0.002325581395348837,0.08175126787590807,0.0,2521686,9,51.956378,4.462264,"Rotterdam, Meijersplein / Airport"
9.0,8.092936406710949e-07,0.002325581395348837,0.08175126787590807,0.0,2521687,9,51.955685,4.462191,"Rotterdam, Meijersplein / Airport"
169.0,3.1700178353023354e-06,0.011627906976744186,0.08914180665989119,0.1563977938259745,2521632,169,51.948671,4.465245,"Rotterdam, Melanchthonweg"
169.0,3.1700178353023354e-06,0.011627906976744186,0.08914180665989119,0.1563977938259745,2521633,169,51.948405,4.464537,"Rotterdam, Melanchthonweg"
169.0,3.1700178353023354e-06,0.011627906976744186,0.08914180665989119,0.1563977938259745,2521690,169,51.948799,4.464413,"Rotterdam, Melanchthonweg"
169.0,3.1700178353023354e-06,0.011627906976744186,0.08914180665989119,0.1563977938259745,2522197,169,51.948182,4.464731,"Rotterdam, Melanchthonweg"
169.0,3.1700178353023354e-06,0.011627906976744186,0.08914180665989119,0.1563977938259745,2522712,169,51.948474,4.465307,"Rotterdam, Melanchthonweg"
169.0,3.1700178353023354e-06,0.011627906976744186,0.08914180665989119,0.1563977938259745,2522713,169,51.948486,4.465758,"Rotterdam, Melanchthonweg"
10.0,7.454109396589776e-09,0.004651162790697674,0.06432430877853951,0.005640844943170527,2522378,10,51.963767,4.485466,"Rotterdam, Humanitas-Akropolis"
10.0,7.454109396589776e-09,0.004651162790697674,0.06432430877853951,0.005640844943170527,2522402,10,51.963679,4.485643,"Rotterdam, Humanitas-Akropolis"
155.0,2.2907600613099455e-09,0.004651162790697674,0.06148255813953488,0.00212888904220828,2522380,155,51.962306,4.487154,"Rotterdam, Achillesstraat"
155.0,2.2907600613099455e-09,0.004651162790697674,0.06148255813953488,0.00212888904220828,2522400,155,51.962027,4.487087,"Rotterdam, Achillesstraat"
176.0,2.673957806798267e-08,0.009302325581395349,0.068767799287452,0.0712996017510378,2522381,176,51.961415,4.47997,"Rotterdam, Abeelweg"
176.0,2.673957806798267e-08,0.009302325581395349,0.068767799287452,0.0712996017510378,2522399,176,51.961121,4.480354,"Rotterdam, Abeelweg"
11.0,1.7077567230665536e-10,0.0069767441860465115,0.05471583872299436,0.026376887631706765,2521264,11,51.959776,4.503253,"Rotterdam, Burg. van Kempensingel"
11.0,1.7077567230665536e-10,0.0069767441860465115,0.05471583872299436,0.026376887631706765,2521265,11,51.959929,4.503207,"Rotterdam, Burg. van Kempensingel"
11.0,1.7077567230665536e-10,0.0069767441860465115,0.05471583872299436,0.026376887631706765,2522667,11,51.959481,4.50339,"Rotterdam, Burg. Van Kempensingel"
154.0,3.08643356005523e-10,0.0069767441860465115,0.05715065972920919,0.018579564323253007,2522287,154,51.958015,4.500902,"Rotterdam, De Montignyplein"
154.0,3.08643356005523e-10,0.0069767441860465115,0.05715065972920919,0.018579564323253007,2522668,154,51.958086,4.500857,"Rotterdam, De Montignyplein"
158.0,4.7536123394025923e-11,0.004651162790697674,0.05245354260536646,0.022878258784240543,2522526,158,51.957448,4.508071,"Rotterdam, Jeroen Boschlaan"
158.0,4.7536123394025923e-11,0.004651162790697674,0.05245354260536646,0.022878258784240543,2522531,158,51.956969,4.508866,"Rotterdam, Jeroen Boschlaan"
167.0,3.0669759425876606e-10,0.004651162790697674,0.05716636261689409,0.014967414199474957,2522527,167,51.962417,4.498167,"Rotterdam, Plevierlaan"
167.0,3.0669759425876606e-10,0.004651162790697674,0.05716636261689409,0.014967414199474957,2522530,167,51.962096,4.49861,"Rotterdam, Plevierlaan"
12.0,5.275640711545422e-05,0.004651162790697674,0.07214180885720736,0.04539213194604276,2521289,12,51.93451,4.54246,"Rotterdam, Zeldenrust-Noordanuslaan"
12.0,5.275640711545422e-05,0.004651162790697674,0.07214180885720736,0.04539213194604276,2521290,12,51.934043,4.542541,"Rotterdam, Zeldenrust-Noordanuslaan"
192.0,1.3204541065911622e-05,0.004651162790697674,0.06766080544526376,0.041403046096491786,2521286,192,51.936782,4.540948,"Rotterdam, Huslystraat"
192.0,1.3204541065911622e-05,0.004651162790697674,0.06766080544526376,0.041403046096491786,2521602,192,51.937403,4.539802,"Rotterdam, Huslystraat"
217.0,0.00021077914799511732,0.004651162790697674,0.07725843919204829,0.04953734074241467,2521285,217,51.931257,4.543873,"Rotterdam, Klapwiek"
217.0,0.00021077914799511732,0.004651162790697674,0.07725843919204829,0.04953734074241467,2521603,217,51.930889,4.54388,"Rotterdam, Klapwiek"
13.0,0.01307914331145037,0.009302325581395349,0.08878044665849628,0.006902232894024956,2522324,13,51.875874,4.517464,"Rotterdam, Van de Woestijnestraat"
13.0,0.01307914331145037,0.009302325581395349,0.08878044665849628,0.006902232894024956,2522325,13,51.87559,4.518021,"Rotterdam, Van de Woestijnestraat"
328.0,0.014432487042956903,0.011627906976744186,0.08372514154695615,0.007622871953179132,2522340,328,51.87407,4.523903,"Rotterdam, Pascalweg"
328.0,0.014432487042956903,0.011627906976744186,0.08372514154695615,0.007622871953179132,2522366,328,51.873881,4.52395,"Rotterdam, Pascalweg"
14.0,7.058012503425984e-06,0.004651162790697674,0.08738218258890636,0.012669088017925226,2521918,14,51.919913,4.448914,"Rotterdam, Burgemeester Meineszplein"
14.0,7.058012503425984e-06,0.004651162790697674,0.08738218258890636,0.012669088017925226,2521930,14,51.919779,4.446838,"Rotterdam, Burgemeester Meineszplein"
365.0,2.5537691685356184e-05,0.0069767441860465115,0.09476519095613119,0.06122278238557309,2470539,365,51.921394,4.45541,"Rotterdam, Beukelsdijk"
365.0,2.5537691685356184e-05,0.0069767441860465115,0.09476519095613119,0.06122278238557309,2521917,365,51.921394,4.455468,"Rotterdam, Beukelsdijk"
365.0,2.5537691685356184e-05,0.0069767441860465115,0.09476519095613119,0.06122278238557309,2521931,365,51.921126,4.454558,"Rotterdam, Beukelsdijk"
365.0,2.5537691685356184e-05,0.0069767441860465115,0.09476519095613119,0.06122278238557309,2521937,365,51.921543,4.454913,"Rotterdam, Beukelsdijk"
365.0,2.5537691685356184e-05,0.0069767441860465115,0.09476519095613119,0.06122278238557309,stoparea:378848,365,51.921394,4.45541,"Rotterdam, Beukelsdijk"
15.0,6.919954643926542e-05,0.009302325581395349,0.10276956124681948,0.07447625487727404,2522466,15,51.923913,4.468326,"Rotterdam, Rotterdam Centraal perron AA"
15.0,6.919954643926542e-05,0.009302325581395349,0.10276956124681948,0.07447625487727404,2522467,15,51.923789,4.468474,"Rotterdam, Rotterdam Centraal perron BB"
15.0,6.919954643926542e-05,0.009302325581395349,0.10276956124681948,0.07447625487727404,2522468,15,51.923667,4.467895,"Rotterdam, Rotterdam Centraal perron DD"
15.0,6.919954643926542e-05,0.009302325581395349,0.10276956124681948,0.07447625487727404,2548159,15,51.923592,4.467402,"Rotterdam, Rotterdam Centraal perron FF"
266.0,2.0918774058704333e-05,0.004651162790697674,0.09465740525213195,0.060617842409908064,2521140,266,51.925775,4.461557,"Rotterdam, Bentinckplein"
266.0,2.0918774058704333e-05,0.004651162790697674,0.09465740525213195,0.060617842409908064,2521935,266,51.926298,4.460702,"Rotterdam, Bentinckplein"
267.0,8.054065671724012e-05,0.009302325581395349,0.1023398803463778,0.07611559787895979,2521916,267,51.922177,4.461296,"Rotterdam, Henegouwerplein"
267.0,8.054065671724012e-05,0.009302325581395349,0.1023398803463778,0.07611559787895979,2521932,267,51.921938,4.46056,"Rotterdam, Henegouwerplein"
267.0,8.054065671724012e-05,0.009302325581395349,0.1023398803463778,0.07611559787895979,2685254,267,51.922138,4.463143,"Rotterdam, Henegouwerplein"
267.0,8.054065671724012e-05,0.009302325581395349,0.1023398803463778,0.07611559787895979,2685255,267,51.922188,4.462706,"Rotterdam, Henegouwerplein"
395.0,0.0001051146083983881,0.01627906976744186,0.10455124459506837,0.12698476890187954,2521863,395,51.924015,4.475622,"Rotterdam, Weena"
395.0,0.0001051146083983881,0.01627906976744186,0.10455124459506837,0.12698476890187954,2522242,395,51.92415,4.476782,"Rotterdam, Weena"
395.0,0.0001051146083983881,0.01627906976744186,0.10455124459506837,0.12698476890187954,2522729,395,51.924213,4.476738,"Rotterdam, Weena"
395.0,0.0001051146083983881,0.01627906976744186,0.10455124459506837,0.12698476890187954,2548192,395,51.924186,4.475691,"Rotterdam, Weena"
395.0,0.0001051146083983881,0.01627906976744186,0.10455124459506837,0.12698476890187954,2548194,395,51.923678,4.474989,"Rotterdam, Weena"
16.0,8.251345180924422e-05,0.004651162790697674,0.10188882308726055,0.011174605271405132,2521859,16,51.923248,4.471712,"Rotterdam, Rotterdam Centraal Perron E"
16.0,8.251345180924422e-05,0.004651162790697674,0.10188882308726055,0.011174605271405132,2522679,16,51.923456,4.470778,"Rotterdam, Rotterdam Centraal perron A"
16.0,8.251345180924422e-05,0.004651162790697674,0.10188882308726055,0.011174605271405132,2811371,16,51.924067,4.470765,"Rotterdam, Rotterdam Centraal perron C"
16.0,8.251345180924422e-05,0.004651162790697674,0.10188882308726055,0.011174605271405132,2811374,16,51.923475,4.47085,"Rotterdam, Rotterdam Centraal perron B"
16.0,8.251345180924422e-05,0.004651162790697674,0.10188882308726055,0.011174605271405132,2811375,16,51.924059,4.470911,"Rotterdam, Rotterdam Centraal perron D"
362.0,0.00021961158576416437,0.009302325581395349,0.10836300872093023,0.028380399118642336,2522240,362,51.920684,4.470325,"Rotterdam, Kruisplein"
362.0,0.00021961158576416437,0.009302325581395349,0.10836300872093023,0.028380399118642336,2522255,362,51.920705,4.47191,"Rotterdam, Kruisplein"
362.0,0.00021961158576416437,0.009302325581395349,0.10836300872093023,0.028380399118642336,2522257,362,51.920858,4.470743,"Rotterdam, Kruisplein"
362.0,0.00021961158576416437,0.009302325581395349,0.10836300872093023,0.028380399118642336,2522661,362,51.920175,4.471949,"Rotterdam, Kruisplein"
18.0,6.494265069801836e-05,0.0069767441860465115,0.10203873307708977,0.01012700175921132,2699750,18,51.923765,4.467806,"Rotterdam, Rotterdam Centraal Uitstaphalte"
102.0,0.01868430128948654,0.0069767441860465115,0.08681701512379973,0.008841240976547513,2521062,102,51.898616,4.545895,"Rotterdam, IJsselmondseplein"
124.0,0.013442708768317511,0.009302325581395349,0.09848850970138985,0.2612073468816079,2521323,124,51.92123,4.534511,"Rotterdam, Kralingse Zoom"
124.0,0.013442708768317511,0.009302325581395349,0.09848850970138985,0.2612073468816079,2521324,124,51.92123,4.534511,"Rotterdam, Kralingse Zoom"
124.0,0.013442708768317511,0.009302325581395349,0.09848850970138985,0.2612073468816079,2521326,124,51.921644,4.533398,"Rotterdam, Kralingse Zoom"
124.0,0.013442708768317511,0.009302325581395349,0.09848850970138985,0.2612073468816079,2521825,124,51.921755,4.532567,"Rotterdam, Kralingse Zoom"
124.0,0.013442708768317511,0.009302325581395349,0.09848850970138985,0.2612073468816079,2521895,124,51.921798,4.532217,"Rotterdam, Kralingse Zoom"
124.0,0.013442708768317511,0.009302325581395349,0.09848850970138985,0.2612073468816079,2522349,124,51.921738,4.53264,"Rotterdam, Kralingse Zoom"
124.0,0.013442708768317511,0.009302325581395349,0.09848850970138985,0.2612073468816079,2522350,124,51.921712,4.532757,"Rotterdam, Kralingse Zoom"
124.0,0.013442708768317511,0.009302325581395349,0.09848850970138985,0.2612073468816079,2745418,124,51.92122,4.533086,"Rotterdam, Kralingse Zoom"
124.0,0.013442708768317511,0.009302325581395349,0.09848850970138985,0.2612073468816079,2745419,124,51.921157,4.533044,"Rotterdam, Kralingse Zoom"
124.0,0.013442708768317511,0.009302325581395349,0.09848850970138985,0.2612073468816079,2867589,124,51.921807,4.532806,"Rotterdam, Kralingse Zoom"
124.0,0.013442708768317511,0.009302325581395349,0.09848850970138985,0.2612073468816079,2876076,124,51.921807,4.532806,"Rotterdam, Kralingse Zoom"
321.0,0.011590365542077439,0.004651162790697674,0.09081491782810391,0.055613542493116404,2521967,321,51.896365,4.54043,"Rotterdam, Zomerland"
321.0,0.011590365542077439,0.004651162790697674,0.09081491782810391,0.055613542493116404,2521968,321,51.896062,4.540727,"Rotterdam, Zomerland"
20.0,6.468312199823546e-07,0.004651162790697674,0.07795315726646161,0.009631134141308988,2522278,20,51.935144,4.475745,"Rotterdam, Van den Hoonaardstraat"
20.0,6.468312199823546e-07,0.004651162790697674,0.07795315726646161,0.009631134141308988,2522677,20,51.934925,4.475343,"Rotterdam, Van den Hoonaardstraat"
104.0,3.4101716819950227e-07,0.0069767441860465115,0.07664651933843655,0.0197160709785633,2522279,104,51.939604,4.479378,"Rotterdam, Soetendaalseweg"
104.0,3.4101716819950227e-07,0.0069767441860465115,0.07664651933843655,0.0197160709785633,2522676,104,51.939325,4.479369,"Rotterdam, Soetendaalseweg"
265.0,2.1919164544619645e-06,0.004651162790697674,0.08256229235880398,0.012235342783897844,2522277,265,51.93292,4.472969,"Rotterdam, Eudokiaplein"
265.0,2.1919164544619645e-06,0.004651162790697674,0.08256229235880398,0.012235342783897844,2522696,265,51.932445,4.473081,"Rotterdam, Eudokiaplein"
21.0,1.0428126382558126e-12,0.004651162790697674,0.04140849372956235,0.004575269691548761,2522369,21,51.953004,4.451568,"Rotterdam, Gilze-Rijenstraat"
21.0,1.0428126382558126e-12,0.004651162790697674,0.04140849372956235,0.004575269691548761,2522373,21,51.953046,4.451218,"Rotterdam, Gilze-Rijenstraat"
140.0,3.767231702581118e-12,0.004651162790697674,0.043214659205355915,0.009128855640483546,2521141,140,51.950665,4.44462,"Rotterdam, Lutonbaan"
140.0,3.767231702581118e-12,0.004651162790697674,0.043214659205355915,0.009128855640483546,2522071,140,51.950898,4.445633,"Rotterdam, Lutonbaan"
22.0,7.954595833143772e-08,0.004651162790697674,0.07288736267093573,0.07188866658957409,2522521,22,51.951786,4.476237,"Rotterdam, Rijndam Revalidatie"
22.0,7.954595833143772e-08,0.004651162790697674,0.07288736267093573,0.07188866658957409,2522536,22,51.952247,4.476533,"Rotterdam, Rijndam Revalidatie"
185.0,2.8383922583561444e-07,0.004651162790697674,0.07774924392533111,0.07572668903224763,2522528,185,51.949235,4.475285,"Rotterdam, Buitenzorg"
185.0,2.8383922583561444e-07,0.004651162790697674,0.07774924392533111,0.07572668903224763,2522529,185,51.949955,4.47543,"Rotterdam, Buitenzorg"
23.0,1.4253946781219534e-06,0.004651162790697674,0.08282522959561546,0.001565746914584124,2522731,23,51.942593,4.460468,"Rotterdam, Franciscus Gasthuis"
23.0,1.4253946781219534e-06,0.004651162790697674,0.08282522959561546,0.001565746914584124,2522737,23,51.942296,4.460358,"Rotterdam, Franciscus Gasthuis"
367.0,2.406397992409051e-06,0.004651162790697674,0.08325609313492839,0.001795362260478539,2522730,367,51.934376,4.464826,"Rotterdam, Schieweg"
367.0,2.406397992409051e-06,0.004651162790697674,0.08325609313492839,0.001795362260478539,2522738,367,51.934098,4.464977,"Rotterdam, Schieweg"
24.0,2.598780725446671e-08,0.002325581395348837,0.06807033428568168,0.0,2522289,24,51.944929,4.468274,"Rotterdam, Kleiweg RET spoor 2"
161.0,1.0144684745333857e-07,0.009302325581395349,0.07311789729192973,0.019425322152594883,2522389,161,51.945292,4.475656,"Rotterdam, Bergpolderplein"
161.0,1.0144684745333857e-07,0.009302325581395349,0.07311789729192973,0.019425322152594883,2522392,161,51.945328,4.475742,"Rotterdam, Bergpolderplein"
161.0,1.0144684745333857e-07,0.009302325581395349,0.07311789729192973,0.019425322152594883,2522695,161,51.945327,4.475597,"Rotterdam, Bergpolderplein"
161.0,1.0144684745333857e-07,0.009302325581395349,0.07311789729192973,0.019425322152594883,2522710,161,51.945293,4.475845,"Rotterdam, Bergpolderplein"
25.0,2.6946957915261265e-13,0.002325581395348837,0.039739657481460425,0.0,2522371,25,51.955862,4.461809,"Rotterdam, Meijersplein Metro"
26.0,2.7324123757143174e-08,0.004651162790697674,0.051942822804690064,0.018170976310511195,2522759,26,51.886174,4.426173,"Rotterdam, Zaltbommelstraat"
26.0,2.7324123757143174e-08,0.004651162790697674,0.051942822804690064,0.018170976310511195,2522760,26,51.886382,4.426372,"Rotterdam, Zaltbommelstraat"
27.0,1.0825861088111128e-07,0.004651162790697674,0.05477345708679375,0.022659511031604053,2522757,27,51.883432,4.428367,"Rotterdam, Ophemertstraat"
27.0,1.0825861088111128e-07,0.004651162790697674,0.05477345708679375,0.022659511031604053,2522758,27,51.884347,4.428086,"Rotterdam, Ophemertstraat"
41.0,4.293095797603325e-07,0.004651162790697674,0.05791425935815896,0.02712636201008294,2522755,41,51.879915,4.431332,"Rotterdam, Den Hamweg"
41.0,4.293095797603325e-07,0.004651162790697674,0.05791425935815896,0.02712636201008294,2522756,41,51.881008,4.430902,"Rotterdam, Den Hamweg"
28.0,1.7456362310305572e-09,0.004651162790697674,0.047045104973247265,0.009128855640483546,2522762,28,51.891809,4.421738,"Rotterdam, Neptunusstraat"
42.0,6.9033430224785264e-09,0.004651162790697674,0.04937865829932029,0.013660757846804358,2522761,42,51.889986,4.422997,"Rotterdam, Eemhavenweg"
29.0,2.7048553869285667e-05,0.0069767441860465115,0.0969962595543991,0.01801368595806717,2865446,29,51.90836,4.500762,"Rotterdam, Lodewijk Pincoffsbrug"
29.0,2.7048553869285667e-05,0.0069767441860465115,0.0969962595543991,0.01801368595806717,2865447,29,51.908766,4.500914,"Rotterdam, Lodewijk Pincoffsbrug"
30.0,4.277586458130893e-05,0.0069767441860465115,0.09790916552667578,0.012387710814690816,2522894,30,51.905749,4.498982,"Rotterdam, Lodewijk Pincoffsweg"
30.0,4.277586458130893e-05,0.0069767441860465115,0.09790916552667578,0.012387710814690816,2522897,30,51.906104,4.498321,"Rotterdam, Lodewijk Pincoffsweg"
30.0,4.277586458130893e-05,0.0069767441860465115,0.09790916552667578,0.012387710814690816,2865445,30,51.905685,4.498824,"Rotterdam, Lodewijk Pincoffsweg"
63.0,1.0156229779934958e-05,0.009302325581395349,0.089873424079562,0.02211304416297101,2522826,63,51.906889,4.507098,"Rotterdam, Burgdorfferstraat"
63.0,1.0156229779934958e-05,0.009302325581395349,0.089873424079562,0.02211304416297101,2522831,63,51.907541,4.506591,"Rotterdam, Burgdorfferstraat"
337.0,9.246373012925015e-05,0.0069767441860465115,0.09554855418791552,0.026800447343625113,2522895,337,51.9037,4.50376,"Rotterdam, Vuurplaat"
337.0,9.246373012925015e-05,0.0069767441860465115,0.09554855418791552,0.026800447343625113,2522896,337,51.90401,4.503187,"Rotterdam, Vuurplaat"
337.0,9.246373012925015e-05,0.0069767441860465115,0.09554855418791552,0.026800447343625113,2865448,337,51.903946,4.501881,"Rotterdam, Vuurplaat"
359.0,5.7299791899933135e-05,0.009302325581395349,0.10545209160881198,0.07713528236458797,2521372,359,51.908059,4.49183,"Rotterdam, Wilhelminaplein"
359.0,5.7299791899933135e-05,0.009302325581395349,0.10545209160881198,0.07713528236458797,2522577,359,51.907749,4.492519,"Rotterdam, Wilhelminaplein"
359.0,5.7299791899933135e-05,0.009302325581395349,0.10545209160881198,0.07713528236458797,2522578,359,51.907308,4.49356,"Rotterdam, Wilhelminaplein"
359.0,5.7299791899933135e-05,0.009302325581395349,0.10545209160881198,0.07713528236458797,2522898,359,51.907885,4.491398,"Rotterdam, Wilhelminaplein"
359.0,5.7299791899933135e-05,0.009302325581395349,0.10545209160881198,0.07713528236458797,2865449,359,51.906709,4.495141,"Rotterdam, Wilhelminaplein"
31.0,1.1115051774005262e-05,0.004651162790697674,0.08507747975636314,0.0017382301477276239,2737044,31,51.898517,4.506681,"Rotterdam, Christiaan de Wetstraat"
31.0,1.1115051774005262e-05,0.004651162790697674,0.08507747975636314,0.0017382301477276239,2737045,31,51.898317,4.506365,"Rotterdam, Christiaan de Wetstraat"
49.0,6.484775986282158e-06,0.004651162790697674,0.08638446200713558,0.002793763761400771,2737038,49,51.898182,4.50275,"Rotterdam, Martinus Steynstraat"
49.0,6.484775986282158e-06,0.004651162790697674,0.08638446200713558,0.002793763761400771,2737041,49,51.898376,4.503501,"Rotterdam, Martinus Steynstraat"
334.0,4.048053090873558e-05,0.0069767441860465115,0.08778775390050045,0.013530668298110131,2522742,334,51.897236,4.509699,"Rotterdam, Polderlaan"
334.0,4.048053090873558e-05,0.0069767441860465115,0.08778775390050045,0.013530668298110131,2522744,334,51.897443,4.50968,"Rotterdam, Polderlaan"
32.0,5.063980097540926e-06,0.004651162790697674,0.08597395733230828,0.009007390127084373,2522825,32,51.904973,4.509301,"Rotterdam, Station Zuid/Rosestraat"
32.0,5.063980097540926e-06,0.004651162790697674,0.08597395733230828,0.009007390127084373,2522827,32,51.904721,4.509277,"Rotterdam, Station Zuid/Rosestraat"
270.0,1.0788009286949742e-05,0.004651162790697674,0.08551458148137528,0.008440540955584065,2547591,270,51.903044,4.511068,"Rotterdam, Spoorweghaven"
270.0,1.0788009286949742e-05,0.004651162790697674,0.08551458148137528,0.008440540955584065,2737043,270,51.902382,4.511415,"Rotterdam, Spoorweghaven"
33.0,1.7375574983958957e-07,0.002325581395348837,0.06909896271809565,0.0,2522053,33,51.903496,4.512614,"Rotterdam, Station Zuid/Steenplaat"
62.0,6.888143951977801e-07,0.004651162790697674,0.0743060631229236,0.004575269691548761,2522067,62,51.90701,4.510104,"Rotterdam, Rose-Spoorstraat"
62.0,6.888143951977801e-07,0.004651162790697674,0.0743060631229236,0.004575269691548761,2522068,62,51.906528,4.510477,"Rotterdam, Rose-Spoorstraat"
35.0,7.393959597066935e-05,0.009302325581395349,0.07786563500905166,0.013535560047187959,2522643,35,51.917784,4.522933,"Rotterdam, Erasmus Universiteit"
35.0,7.393959597066935e-05,0.009302325581395349,0.07786563500905166,0.013535560047187959,2522644,35,51.917476,4.522619,"Rotterdam, Erasmus Universiteit"
126.0,0.0002449233865827206,0.004651162790697674,0.0841995049551542,0.014966119152165667,2522651,126,51.922552,4.525937,"Rotterdam, 's-Gravenwetering"
126.0,0.0002449233865827206,0.004651162790697674,0.0841995049551542,0.014966119152165667,2522694,126,51.922307,4.525709,"Rotterdam, 's-Gravenwetering"
232.0,2.7584668925891023e-05,0.009302325581395349,0.0801143537713462,0.024755089871368933,2522701,232,51.915463,4.521422,"Rotterdam, Oude Plantage"
232.0,2.7584668925891023e-05,0.009302325581395349,0.0801143537713462,0.024755089871368933,2522705,232,51.915254,4.521164,"Rotterdam, Oude Plantage"
36.0,1.741968091092732e-05,0.002325581395348837,0.0721668320305883,0.0,2521860,36,51.916697,4.522997,"Rotterdam, Burgemeester Oudlaan 2"
36.0,1.741968091092732e-05,0.002325581395348837,0.0721668320305883,0.0,2521866,36,51.916696,4.522983,"Rotterdam, Burgemeester Oudlaan 3"
37.0,2.3923385473052967e-05,0.004651162790697674,0.07590550045391684,0.0,2522652,37,51.916697,4.523026,"Rotterdam, Burgemeester Oudlaan"
38.0,4.34103656912771e-07,0.002325581395348837,0.0645137912385073,0.0,2521368,38,51.907928,4.523558,"Rotterdam, Opstelspoor De Esch"
268.0,1.840715297100951e-06,0.0069767441860465115,0.06903018471937163,0.009139697511790534,2521857,268,51.908599,4.52433,"Rotterdam, Nesserdijk"
268.0,1.840715297100951e-06,0.0069767441860465115,0.06903018471937163,0.009139697511790534,2521858,268,51.908859,4.524339,"Rotterdam, Nesserdijk"
39.0,4.6547988049617836e-10,0.0069767441860465115,0.05221003180531645,0.031571529245947846,2521129,39,51.942725,4.42761,"Rotterdam, Burgemeester Bosstraat"
39.0,4.6547988049617836e-10,0.0069767441860465115,0.05221003180531645,0.031571529245947846,2521133,39,51.942568,4.427133,"Rotterdam, Burgemeester Bosstraat"
151.0,1.4657543542546897e-09,0.004651162790697674,0.055026970839509665,0.035995012739198785,2521128,151,51.941292,4.425997,"Rotterdam, West-Sidelinge"
151.0,1.4657543542546897e-09,0.004651162790697674,0.055026970839509665,0.035995012739198785,2521134,151,51.941345,4.425923,"Rotterdam, West-Sidelinge"
153.0,1.752184477036606e-10,0.0069767441860465115,0.04964967825896338,0.022659511031604053,2521130,153,51.946708,4.42767,"Rotterdam, Vliegveldweg"
153.0,1.752184477036606e-10,0.0069767441860465115,0.04964967825896338,0.022659511031604053,2521949,153,51.947309,4.427512,"Rotterdam, Vliegveldweg"
40.0,1.2757514783175145e-05,0.0069767441860465115,0.09125305997552019,0.10558829831059666,2521943,40,51.925933,4.454284,"Rotterdam, Diergaarde Blijdorp"
40.0,1.2757514783175145e-05,0.0069767441860465115,0.09125305997552019,0.10558829831059666,2521944,40,51.925943,4.454429,"Rotterdam, Diergaarde Blijdorp"
369.0,3.5342507466471866e-06,0.004651162790697674,0.08452446749713023,0.10145754534263435,2685227,369,51.928374,4.454917,"Rotterdam, Vroesenpark"
369.0,3.5342507466471866e-06,0.004651162790697674,0.08452446749713023,0.10145754534263435,2685228,369,51.928385,4.455149,"Rotterdam, Vroesenpark"
416.0,1.703848943544818e-06,0.004651162790697674,0.06141903372522097,0.031571529245947846,2522829,416,51.878891,4.435914,"Rotterdam, Waalhaven Westzijde"
416.0,1.703848943544818e-06,0.004651162790697674,0.06141903372522097,0.031571529245947846,2522830,416,51.878197,4.434505,"Rotterdam, Waalhaven Westzijde"
43.0,1.0489020532049101e-10,0.002325581395348837,0.04295591550411604,0.0,2522823,43,51.896464,4.420504,"Rotterdam, RDM Campus"
44.0,4.403451470824792e-10,0.004651162790697674,0.044912461250768705,0.004575269691548761,2522763,44,51.894247,4.421932,"Rotterdam, Rondoplein"
45.0,7.961500263544439e-12,0.002325581395348837,0.045004753784163104,0.0,2522144,45,51.957191,4.398668,"Rotterdam, Hofwijk"
45.0,7.961500263544439e-12,0.002325581395348837,0.045004753784163104,0.0,2522164,45,51.957261,4.398449,"Rotterdam, Hofwijk"
141.0,3.0852846708830354e-11,0.004651162790697674,0.04715706635181007,0.004575269691548761,2522143,141,51.952724,4.406259,"Rotterdam, De Tempel"
141.0,3.0852846708830354e-11,0.004651162790697674,0.04715706635181007,0.004575269691548761,2522165,141,51.952643,4.406246,"Rotterdam, De Tempel"
46.0,1.0796567989990125e-28,0.002325581395348837,0.003986710963455149,0.0,2854114,46,51.921015,4.557265,"Rotterdam, Metro Capelsebrug"
46.0,1.0796567989990125e-28,0.002325581395348837,0.003986710963455149,0.0,2854115,46,51.92086,4.55689,"Rotterdam, Metro Capelsebrug"
46.0,1.0796567989990125e-28,0.002325581395348837,0.003986710963455149,0.0,2854116,46,51.921315,4.558888,"Rotterdam, Metro Capelsebrug"
429.0,1.9949456374636804e-28,0.004651162790697674,0.005232558139534884,5.420935653493793e-05,2855204,429,51.971067,4.588793,"Rotterdam, Pablo Picassostraat"
429.0,1.9949456374636804e-28,0.004651162790697674,0.005232558139534884,5.420935653493793e-05,2855205,429,51.971195,4.589111,"Rotterdam, Pablo Picassostraat"
259.0,1.598612806679627e-05,0.004651162790697674,0.09271701280935207,0.006032127464880754,2737039,259,51.90006,4.499066,"Rotterdam, Afrikaanderplein"
259.0,1.598612806679627e-05,0.004651162790697674,0.09271701280935207,0.006032127464880754,2737040,259,51.899961,4.499097,"Rotterdam, Afrikaanderplein"
50.0,0.00028702224743253833,0.0069767441860465115,0.09265507759705457,0.026953291915074354,2522899,50,51.900813,4.510792,"Rotterdam, Varkenoordseviaduct"
50.0,0.00028702224743253833,0.0069767441860465115,0.09265507759705457,0.026953291915074354,2522902,50,51.901222,4.510231,"Rotterdam, Varkenoordseviaduct"
125.0,0.00015406917595848309,0.004651162790697674,0.09065663474692202,0.012224596837542026,2701328,125,51.897056,4.51085,"Rotterdam, Beijerlandselaan"
125.0,0.00015406917595848309,0.004651162790697674,0.09065663474692202,0.012224596837542026,2701331,125,51.897381,4.510946,"Rotterdam, Beijerlandselaan"
230.0,0.00097109442157503,0.004651162790697674,0.08692583110264719,0.012975293440409708,2522900,230,51.895518,4.52522,"Rotterdam, Stadion Feyenoord"
230.0,0.00097109442157503,0.004651162790697674,0.08692583110264719,0.012975293440409708,2522901,230,51.895859,4.523935,"Rotterdam, Stadion Feyenoord"
51.0,1.4019831377849224e-06,0.004651162790697674,0.0804862579281184,0.0033286351891003052,2522299,51,51.905275,4.459755,"Rotterdam, Pieter de Hoochweg"
51.0,1.4019831377849224e-06,0.004651162790697674,0.0804862579281184,0.0033286351891003052,2522315,51,51.905359,4.460117,"Rotterdam, Pieter de Hoochweg"
366.0,8.518573889343457e-07,0.004651162790697674,0.07932023512931224,0.001957499864476609,2522300,366,51.903697,4.453379,"Rotterdam, Oostkousdijk"
366.0,8.518573889343457e-07,0.004651162790697674,0.07932023512931224,0.001957499864476609,2522314,366,51.903718,4.4538,"Rotterdam, Oostkousdijk"
384.0,4.658859148781495e-06,0.004651162790697674,0.08602728002653962,0.006409895014546174,2522298,384,51.908361,4.466914,"Rotterdam, Euromast"
384.0,4.658859148781495e-06,0.004651162790697674,0.08602728002653962,0.006409895014546174,2522316,384,51.9084,4.467393,"Rotterdam, Euromast"
52.0,0.00032520763733853995,0.0069767441860465115,0.07944138096379766,0.008646392367322599,2521593,52,51.870858,4.465576,"Rotterdam, Krabbendijkestraat"
52.0,0.00032520763733853995,0.0069767441860465115,0.07944138096379766,0.008646392367322599,2521594,52,51.872093,4.466059,"Rotterdam, Krabbendijkestraat"
280.0,0.0009844441444033399,0.011627906976744186,0.08629488873670098,0.0929022656929634,2521559,280,51.874812,4.468908,"Rotterdam, Plein 1953"
280.0,0.0009844441444033399,0.011627906976744186,0.08629488873670098,0.0929022656929634,2521802,280,51.874659,4.469956,"Rotterdam, Plein 1953"
280.0,0.0009844441444033399,0.011627906976744186,0.08629488873670098,0.0929022656929634,2521803,280,51.874733,4.47026,"Rotterdam, Plein 1953"
280.0,0.0009844441444033399,0.011627906976744186,0.08629488873670098,0.0929022656929634,2521808,280,51.875012,4.469223,"Rotterdam, Plein 1953"
426.0,8.286677321576926e-05,0.004651162790697674,0.07367456683575993,0.004217487938418171,2521806,426,51.869471,4.465198,"Rotterdam, Nieuw-Vossemeerweg"
426.0,8.286677321576926e-05,0.004651162790697674,0.07367456683575993,0.004217487938418171,2737048,426,51.869679,4.465353,"Rotterdam, Nieuw-Vossemeerweg"
53.0,0.00030936426835770776,0.004651162790697674,0.07939590793519788,0.0,2521595,53,51.873372,4.466309,"Rotterdam, Kloosterzandestraat"
54.0,9.53745657888271e-06,0.004651162790697674,0.0878804548021905,0.007190594352539475,2582561,54,51.926712,4.484989,"Rotterdam, Admiraal de Ruyterweg"
54.0,9.53745657888271e-06,0.004651162790697674,0.0878804548021905,0.007190594352539475,2582564,54,51.926782,4.48474,"Rotterdam, Admiraal de Ruyterweg"
389.0,3.1683064471961794e-05,0.0069767441860465115,0.0951117607973422,0.022405980450800906,2470538,389,51.925056,4.480093,"Rotterdam, Pompenburg"
389.0,3.1683064471961794e-05,0.0069767441860465115,0.0951117607973422,0.022405980450800906,2582560,389,51.924927,4.480852,"Rotterdam, Pompenburg"
389.0,3.1683064471961794e-05,0.0069767441860465115,0.0951117607973422,0.022405980450800906,2582562,389,51.925102,4.480136,"Rotterdam, Pompenburg"
389.0,3.1683064471961794e-05,0.0069767441860465115,0.0951117607973422,0.022405980450800906,2834260,389,51.924756,4.479547,"Rotterdam, Pompenburg"
389.0,3.1683064471961794e-05,0.0069767441860465115,0.0951117607973422,0.022405980450800906,2834261,389,51.924668,4.47872,"Rotterdam, Pompenburg"
389.0,3.1683064471961794e-05,0.0069767441860465115,0.0951117607973422,0.022405980450800906,stoparea:376899,389,51.925056,4.480093,"Rotterdam, Pompenburg"
403.0,5.667607990638273e-06,0.0069767441860465115,0.0837082988308936,0.012279844743269907,2548196,403,51.930434,4.486295,"Rotterdam, Noorderbrug"
403.0,5.667607990638273e-06,0.0069767441860465115,0.0837082988308936,0.012279844743269907,2548197,403,51.930651,4.486465,"Rotterdam, Noorderbrug"
403.0,5.667607990638273e-06,0.0069767441860465115,0.0837082988308936,0.012279844743269907,2834263,403,51.929312,4.486449,"Rotterdam, Noorderbrug"
403.0,5.667607990638273e-06,0.0069767441860465115,0.0837082988308936,0.012279844743269907,2834264,403,51.929555,4.486545,"Rotterdam, Noorderbrug"
55.0,0.00011523992339614709,0.004651162790697674,0.10271882337407359,0.021610748623270983,2522306,55,51.921623,4.494162,"Rotterdam, Burg. Van Walsumweg"
55.0,0.00011523992339614709,0.004651162790697674,0.10271882337407359,0.021610748623270983,2522307,55,51.921679,4.494481,"Rotterdam, Burg. Van Walsumweg"
88.0,0.00012882937544832083,0.011627906976744186,0.10699767382061509,0.05514153308428801,2470540,88,51.91903,4.487818,"Rotterdam, Station Blaak"
88.0,0.00012882937544832083,0.011627906976744186,0.10699767382061509,0.05514153308428801,2521106,88,51.91903,4.487818,"Rotterdam, Station Blaak"
88.0,0.00012882937544832083,0.011627906976744186,0.10699767382061509,0.05514153308428801,2521108,88,51.919329,4.488044,"Rotterdam, Station Blaak"
88.0,0.00012882937544832083,0.011627906976744186,0.10699767382061509,0.05514153308428801,2521367,88,51.919886,4.489196,"Rotterdam, Station Blaak"
88.0,0.00012882937544832083,0.011627906976744186,0.10699767382061509,0.05514153308428801,2522686,88,51.91982,4.488863,"Rotterdam, Station Blaak"
88.0,0.00012882937544832083,0.011627906976744186,0.10699767382061509,0.05514153308428801,stoparea:378847,88,51.91903,4.487818,"Rotterdam, Station Blaak"
357.0,0.00034913912791815,0.011627906976744186,0.10907312018043828,0.23796897882460472,2521329,357,51.923267,4.496455,"Rotterdam, Oostplein"
357.0,0.00034913912791815,0.011627906976744186,0.10907312018043828,0.23796897882460472,2521332,357,51.923267,4.496455,"Rotterdam, Oostplein"
357.0,0.00034913912791815,0.011627906976744186,0.10907312018043828,0.23796897882460472,2522304,357,51.923148,4.498508,"Rotterdam, Oostplein"
357.0,0.00034913912791815,0.011627906976744186,0.10907312018043828,0.23796897882460472,2522309,357,51.923043,4.498902,"Rotterdam, Oostplein"
357.0,0.00034913912791815,0.011627906976744186,0.10907312018043828,0.23796897882460472,2759137,357,51.924369,4.496041,"Rotterdam, Oostplein"
357.0,0.00034913912791815,0.011627906976744186,0.10907312018043828,0.23796897882460472,2759144,357,51.923491,4.497541,"Rotterdam, Oostplein"
56.0,1.3055899806335094e-06,0.004651162790697674,0.07674547279387164,0.018170976310511195,2548199,56,51.934386,4.496482,"Rotterdam, Nieuwe Crooswijkseweg"
56.0,1.3055899806335094e-06,0.004651162790697674,0.07674547279387164,0.018170976310511195,2548202,56,51.93436,4.496555,"Rotterdam, Nieuwe Crooswijkseweg"
58.0,5.0720776846364775e-06,0.009302325581395349,0.08308984694256631,0.03764694522693115,2522662,58,51.932741,4.494116,"Rotterdam, Crooswijksestraat"
58.0,5.0720776846364775e-06,0.009302325581395349,0.08308984694256631,0.03764694522693115,2522663,58,51.932847,4.493794,"Rotterdam, Crooswijksestraat"
58.0,5.0720776846364775e-06,0.009302325581395349,0.08308984694256631,0.03764694522693115,2548200,58,51.932814,4.494172,"Rotterdam, Crooswijksestraat"
58.0,5.0720776846364775e-06,0.009302325581395349,0.08308984694256631,0.03764694522693115,2548201,58,51.932724,4.494203,"Rotterdam, Crooswijksestraat"
358.0,3.574743814813846e-07,0.0069767441860465115,0.0712767991586797,0.013682441589418334,2548193,358,51.935815,4.495218,"Rotterdam, Paradijsplein"
358.0,3.574743814813846e-07,0.0069767441860465115,0.0712767991586797,0.013682441589418334,2548203,358,51.936296,4.494641,"Rotterdam, Paradijsplein"
57.0,6.129205798508948e-07,0.004651162790697674,0.07478683563773761,0.01321010624149347,2522638,57,51.935873,4.47938,"Rotterdam, Benthuizerstraat"
57.0,6.129205798508948e-07,0.004651162790697674,0.07478683563773761,0.01321010624149347,2522692,57,51.936127,4.479593,"Rotterdam, Benthuizerstraat"
383.0,2.1609521666700196e-06,0.0069767441860465115,0.07922961795285074,0.015892899657240996,2522293,383,51.934002,4.486122,"Rotterdam, Zwaanshals"
383.0,2.1609521666700196e-06,0.0069767441860465115,0.07922961795285074,0.015892899657240996,2522691,383,51.933987,4.486587,"Rotterdam, Zwaanshals"
312.0,1.4472772780273627e-05,0.004651162790697674,0.08670847124158618,0.03314070211603685,2522714,312,51.932228,4.497586,"Rotterdam, Boezemstraat"
312.0,1.4472772780273627e-05,0.004651162790697674,0.08670847124158618,0.03314070211603685,2522717,312,51.932075,4.497459,"Rotterdam, Boezemstraat"
402.0,3.1911137541958247e-06,0.0069767441860465115,0.0820252224499058,0.011181285553055458,2548210,402,51.932702,4.487791,"Rotterdam, Zaagmolenbrug"
402.0,3.1911137541958247e-06,0.0069767441860465115,0.0820252224499058,0.011181285553055458,2548211,402,51.932773,4.487688,"Rotterdam, Zaagmolenbrug"
402.0,3.1911137541958247e-06,0.0069767441860465115,0.0820252224499058,0.011181285553055458,2834262,402,51.931788,4.48701,"Rotterdam, Zaagmolenbrug"
402.0,3.1911137541958247e-06,0.0069767441860465115,0.0820252224499058,0.011181285553055458,2834265,402,51.932512,4.48762,"Rotterdam, Zaagmolenbrug"
59.0,9.165594217503089e-08,0.004651162790697674,0.06649312136279516,0.004575269691548761,2548198,59,51.935748,4.491206,"Rotterdam, Crooswijksebocht"
61.0,1.2783496280591368e-05,0.0069767441860465115,0.0893523627847052,0.013682441589418334,2522929,61,51.910876,4.492283,"Rotterdam, Sleephellingstraat"
61.0,1.2783496280591368e-05,0.0069767441860465115,0.0893523627847052,0.013682441589418334,2522933,61,51.911851,4.490548,"Rotterdam, Sleephellingstraat"
64.0,3.4429539001530444e-06,0.004651162790697674,0.08196059749623244,0.004575269691548761,2522931,64,51.913536,4.493393,"Rotterdam, Cornelis Trompstraat"
340.0,3.222826343450843e-06,0.002325581395348837,0.08192832319125262,0.0,2522930,340,51.909878,4.488756,"Rotterdam, Meeuwenstraat"
333.0,2.562080368743954e-06,0.009302325581395349,0.08033087905180929,0.01096771445608652,2521471,333,51.910149,4.510362,"Rotterdam, Persoonsdam"
333.0,2.562080368743954e-06,0.009302325581395349,0.08033087905180929,0.01096771445608652,2522062,333,51.909981,4.507067,"Rotterdam, Persoonsdam"
333.0,2.562080368743954e-06,0.009302325581395349,0.08033087905180929,0.01096771445608652,2522066,333,51.909944,4.50698,"Rotterdam, Persoonsdam"
331.0,5.9700169569824715e-06,0.004651162790697674,0.0871807989709558,0.004983796763760988,2522845,331,51.911242,4.501534,"Rotterdam, Vrij Entrepot"
428.0,8.698046848092394e-07,0.002325581395348837,0.07567084078711986,0.0,2522932,428,51.915741,4.500834,"Rotterdam, Olivier van Noortstraat"
65.0,1.993506171507174e-05,0.004651162790697674,0.06944491880647065,0.013660757846804358,2522838,65,51.875628,4.448109,"Rotterdam, Parmentierplein"
65.0,1.993506171507174e-05,0.004651162790697674,0.06944491880647065,0.013660757846804358,2522839,65,51.875209,4.447523,"Rotterdam, Parmentierplein"
278.0,7.929439736060208e-05,0.009302325581395349,0.0746258883587468,0.02696644440830487,2522875,278,51.872978,4.4574,"Rotterdam, Sonneburgh"
278.0,7.929439736060208e-05,0.009302325581395349,0.0746258883587468,0.02696644440830487,2522876,278,51.873291,4.457249,"Rotterdam, Sonneburgh"
420.0,5.0134334562720724e-06,0.004651162790697674,0.064916373399122,0.009128855640483546,2522836,420,51.875041,4.443358,"Rotterdam, Van Maasdijkweg"
420.0,5.0134334562720724e-06,0.004651162790697674,0.064916373399122,0.009128855640483546,2522837,420,51.87509,4.442762,"Rotterdam, Van Maasdijkweg"
66.0,1.4986410555660777e-06,0.0069767441860465115,0.06322959329712385,0.041781934297790806,2521260,66,51.952262,4.551276,"Rotterdam, Station Alexander"
66.0,1.4986410555660777e-06,0.0069767441860465115,0.06322959329712385,0.041781934297790806,2521261,66,51.952001,4.551106,"Rotterdam, Station Alexander"
66.0,1.4986410555660777e-06,0.0069767441860465115,0.06322959329712385,0.041781934297790806,2521271,66,51.952071,4.552123,"Rotterdam, Station Alexander"
66.0,1.4986410555660777e-06,0.0069767441860465115,0.06322959329712385,0.041781934297790806,2854132,66,51.952126,4.552268,"Rotterdam, Station Alexander"
203.0,4.066492859928088e-07,0.004651162790697674,0.05974356834003906,0.016636436150178287,2521267,203,51.95206,4.555673,"Rotterdam, G.H. Betzweg"
203.0,4.066492859928088e-07,0.004651162790697674,0.05974356834003906,0.016636436150178287,2521283,203,51.952106,4.555847,"Rotterdam, G.H. Betzweg"
204.0,4.066492859928088e-07,0.004651162790697674,0.05974356834003906,0.016636436150178287,2854130,204,51.952123,4.555657,"Rotterdam, GH Betzweg"
204.0,4.066492859928088e-07,0.004651162790697674,0.05974356834003906,0.016636436150178287,2854131,204,51.951918,4.555894,"Rotterdam, GH Betzweg"
205.0,5.549324480029528e-06,0.013953488372093023,0.0671259805595051,0.11048335650126484,2521249,205,51.956293,4.549208,"Rotterdam, Graskruid"
205.0,5.549324480029528e-06,0.013953488372093023,0.0671259805595051,0.11048335650126484,2521250,205,51.956869,4.549357,"Rotterdam, Graskruid"
205.0,5.549324480029528e-06,0.013953488372093023,0.0671259805595051,0.11048335650126484,2521310,205,51.957723,4.549327,"Rotterdam, Graskruid"
205.0,5.549324480029528e-06,0.013953488372093023,0.0671259805595051,0.11048335650126484,2521311,205,51.956951,4.549457,"Rotterdam, Graskruid"
67.0,1.1929972581212506e-09,0.002325581395348837,0.04627601795911611,0.0,2548706,67,51.946745,4.566797,"Rotterdam, Port Sadstraat"
67.0,1.1929972581212506e-09,0.002325581395348837,0.04627601795911611,0.0,2548707,67,51.946645,4.56661,"Rotterdam, Port Sadstraat"
195.0,5.064828672553995e-09,0.004651162790697674,0.04855472036037014,0.004575269691548761,2521278,195,51.944305,4.562333,"Rotterdam, Koldingdreef"
195.0,5.064828672553995e-09,0.004651162790697674,0.04855472036037014,0.004575269691548761,2521617,195,51.94433,4.562027,"Rotterdam, Koldingdreef"
68.0,4.827930916686441e-09,0.004651162790697674,0.05064061743803969,0.018170976310511195,2521511,68,51.940385,4.550857,"Rotterdam, Van Heukelomstraat"
68.0,4.827930916686441e-09,0.004651162790697674,0.05064061743803969,0.018170976310511195,2521512,68,51.940817,4.550849,"Rotterdam, Van Heukelomstraat"
69.0,1.928881591861583e-08,0.0069767441860465115,0.05332743220407178,0.02618756390426566,2521478,69,51.944536,4.549238,"Rotterdam, Henri Eversstraat"
69.0,1.928881591861583e-08,0.0069767441860465115,0.05332743220407178,0.02618756390426566,2521514,69,51.944082,4.549887,"Rotterdam, Henri Eversstraat"
69.0,1.928881591861583e-08,0.0069767441860465115,0.05332743220407178,0.02618756390426566,2521748,69,51.943791,4.549412,"Rotterdam, Henri Eversstraat"
189.0,1.2084063906555719e-09,0.004651162790697674,0.04820038844994464,0.013660757846804358,2521532,189,51.938863,4.551627,"Rotterdam, Palladiostraat"
189.0,1.2084063906555719e-09,0.004651162790697674,0.04820038844994464,0.013660757846804358,2521737,189,51.938486,4.551692,"Rotterdam, Palladiostraat"
190.0,5.3403985049926813e-08,0.004651162790697674,0.05560047481138056,0.026916860447515695,2521477,190,51.944561,4.546518,"Rotterdam, Duikerstraat"
190.0,5.3403985049926813e-08,0.004651162790697674,0.05560047481138056,0.026916860447515695,2521479,190,51.944594,4.546066,"Rotterdam, Duikerstraat"
434.0,2.3660015544835364e-08,0.004651162790697674,0.051220329085225516,0.005330225330225327,2521522,434,51.945014,4.555774,"Rotterdam, Oosterflank Metro/Hoeksteen"
434.0,2.3660015544835364e-08,0.004651162790697674,0.051220329085225516,0.005330225330225327,2521755,434,51.94512,4.555583,"Rotterdam, Oosterflank Metro/Hoeksteen"
70.0,8.273173966524904e-07,0.004651162790697674,0.0609422896145829,0.03400238474234234,2522511,70,51.942808,4.537664,"Rotterdam, Jacob van Campenplein"
70.0,8.273173966524904e-07,0.004651162790697674,0.0609422896145829,0.03400238474234234,2522512,70,51.942502,4.537655,"Rotterdam, Jacob van Campenplein"
71.0,3.305024378852792e-06,0.004651162790697674,0.06411617156985702,0.03764706048004119,2522510,71,51.93882,4.539383,"Rotterdam, Jacob van Campenweg"
71.0,3.305024378852792e-06,0.004651162790697674,0.06411617156985702,0.03764706048004119,2522513,71,51.939124,4.53913,"Rotterdam, Jacob van Campenweg"
72.0,2.07443029038083e-07,0.004651162790697674,0.05811647395088996,0.03042456721103644,2521251,72,51.943931,4.542588,"Rotterdam, Hendrick Staetsweg"
72.0,2.07443029038083e-07,0.004651162790697674,0.05811647395088996,0.03042456721103644,2521252,72,51.94388,4.541818,"Rotterdam, Hendrick Staetsweg"
73.0,7.639700439986638e-09,0.002325581395348837,0.0505729160778284,0.0,2522583,73,51.980086,4.58674,"Rotterdam, Nesselande"
73.0,7.639700439986638e-09,0.002325581395348837,0.0505729160778284,0.0,2522584,73,51.979257,4.586348,"Rotterdam, Nesselande"
194.0,3.243472656110741e-08,0.004651162790697674,0.05330693741844378,0.004575269691548761,2521302,194,51.969141,4.579223,"Rotterdam, De Tochten"
194.0,3.243472656110741e-08,0.004651162790697674,0.05330693741844378,0.004575269691548761,2521303,194,51.968755,4.578022,"Rotterdam, De Tochten"
76.0,2.3081798839157305e-10,0.004651162790697674,0.05046864202405968,2.168374261397517e-05,2522022,76,51.944455,4.401974,"Rotterdam, Singaporestraat"
150.0,4.502978411524338e-10,0.004651162790697674,0.053163913822457144,0.0022876348457743804,2522021,150,51.943089,4.397815,"Rotterdam, Kiotoweg"
77.0,8.307992350887556e-09,0.002325581395348837,0.06119322845417236,0.0,2522407,77,51.934617,4.425398,"Rotterdam, Van Noortwijckstraat"
129.0,3.2324468390362336e-08,0.0069767441860465115,0.06524207486490625,0.044783614318498,2521121,129,51.935199,4.428425,"Rotterdam, Baanweg"
129.0,3.2324468390362336e-08,0.0069767441860465115,0.06524207486490625,0.044783614318498,2521171,129,51.935203,4.428949,"Rotterdam, Baanweg"
313.0,8.243380299161552e-05,0.0069767441860465115,0.10019599168995234,0.0019545029048430064,2548180,313,51.915014,4.465964,"Rotterdam, Mathenesserlaan"
313.0,8.243380299161552e-05,0.0069767441860465115,0.10019599168995234,0.0019545029048430064,2548187,313,51.914608,4.465827,"Rotterdam, Mathenesserlaan"
117.0,0.00013497369977807922,0.0069767441860465115,0.10515894705291182,0.009513478856019563,2548179,117,51.916226,4.469181,"Rotterdam, Bloemkwekersstraat"
117.0,0.00013497369977807922,0.0069767441860465115,0.10515894705291182,0.009513478856019563,2548188,117,51.916143,4.469008,"Rotterdam, Bloemkwekersstraat"
327.0,0.009577057789556871,0.004651162790697674,0.08372514154695615,0.001395736046898838,2521969,327,51.877481,4.523358,"Rotterdam, Pythagorasweg"
327.0,0.009577057789556871,0.004651162790697674,0.08372514154695615,0.001395736046898838,2521970,327,51.877259,4.523595,"Rotterdam, Pythagorasweg"
81.0,0.0064825798401338345,0.004651162790697674,0.0815270285047751,0.0,2522326,81,51.874226,4.521881,"Rotterdam, Dumasstraat"
82.0,9.026236497006523e-12,0.004651162790697674,0.04858306520588116,0.015694348809632955,2521604,82,51.951556,4.51834,"Rotterdam, Nico van der Valkweg"
82.0,9.026236497006523e-12,0.004651162790697674,0.04858306520588116,0.015694348809632955,2521607,82,51.951647,4.518397,"Rotterdam, Nico van der Valkweg"
83.0,5.666337069838401e-12,0.004651162790697674,0.04957278454710175,0.017575749063126207,2522524,83,51.95569,4.518144,"Rotterdam, Prinses Irenebrug"
83.0,5.666337069838401e-12,0.004651162790697674,0.04957278454710175,0.017575749063126207,2522533,83,51.955151,4.51942,"Rotterdam, Prinses Irenebrug"
188.0,3.2274695343522794e-11,0.004651162790697674,0.047845688569434525,0.014307750911407163,2521605,188,51.951665,4.524579,"Rotterdam, Terbregseweg"
188.0,3.2274695343522794e-11,0.004651162790697674,0.047845688569434525,0.014307750911407163,2521606,188,51.951699,4.524345,"Rotterdam, Terbregseweg"
187.0,1.3674277714730129e-11,0.004651162790697674,0.05086345843886714,0.01992502769147456,2522525,187,51.955408,4.514047,"Rotterdam, Molenhoek"
187.0,1.3674277714730129e-11,0.004651162790697674,0.05086345843886714,0.01992502769147456,2522532,187,51.955373,4.514251,"Rotterdam, Molenhoek"
84.0,3.378631855427e-09,0.011627906976744186,0.06288559067377544,0.05938041452529676,2522285,84,51.957346,4.494455,"Rotterdam, Bergse Dorpsstraat"
84.0,3.378631855427e-09,0.011627906976744186,0.06288559067377544,0.05938041452529676,2522377,84,51.959092,4.494697,"Rotterdam, Bergse Dorpsstraat"
84.0,3.378631855427e-09,0.011627906976744186,0.06288559067377544,0.05938041452529676,2522403,84,51.958873,4.494309,"Rotterdam, Bergse Dorpsstraat"
84.0,3.378631855427e-09,0.011627906976744186,0.06288559067377544,0.05938041452529676,2522670,84,51.957723,4.494433,"Rotterdam, Bergse Dorpsstraat"
157.0,1.9847519657192114e-09,0.004651162790697674,0.060613831535086975,0.007216891635496287,2522284,157,51.953734,4.492243,"Rotterdam, C.N.A. Looslaan"
157.0,1.9847519657192114e-09,0.004651162790697674,0.060613831535086975,0.007216891635496287,2522671,157,51.953742,4.492112,"Rotterdam, C.N.A. Looslaan"
162.0,9.484752773721792e-10,0.004651162790697674,0.0598638977828186,0.02162613016051655,2522286,162,51.958583,4.497515,"Rotterdam, Liduinaplein"
162.0,9.484752773721792e-10,0.004651162790697674,0.0598638977828186,0.02162613016051655,2522669,162,51.958717,4.496261,"Rotterdam, Liduinaplein"
166.0,1.4581776092496135e-09,0.004651162790697674,0.05914910497347151,0.0010416300479725432,2522379,166,51.961584,4.490355,"Rotterdam, Minervalaan"
166.0,1.4581776092496135e-09,0.004651162790697674,0.05914910497347151,0.0010416300479725432,2522401,166,51.961531,4.490473,"Rotterdam, Minervalaan"
170.0,7.733861217269826e-09,0.004651162790697674,0.06552975645486174,0.05427488971575516,2522519,170,51.960367,4.489885,"Rotterdam, Argonautenweg"
170.0,7.733861217269826e-09,0.004651162790697674,0.06552975645486174,0.05427488971575516,2522538,170,51.960304,4.489828,"Rotterdam, Argonautenweg"
173.0,1.0204454575198292e-09,0.0069767441860465115,0.059881127282828045,0.026696511975084204,2522404,173,51.963073,4.49584,"Rotterdam, Grindweg"
173.0,1.0204454575198292e-09,0.0069767441860465115,0.059881127282828045,0.026696511975084204,2522405,173,51.963081,4.495709,"Rotterdam, Grindweg"
85.0,1.3009582085483712e-07,0.004651162790697674,0.05734756801107664,0.02901623541469323,2548714,85,51.966129,4.550916,"Rotterdam, Selma Lagerlfweg"
85.0,1.3009582085483712e-07,0.004651162790697674,0.05734756801107664,0.02901623541469323,2548715,85,51.966244,4.550565,"Rotterdam, Selma Lagerlfweg"
206.0,3.2562504406171514e-08,0.004651162790697674,0.054838422968947295,0.025437695091966826,2521247,206,51.964878,4.543154,"Rotterdam, Brantingweg"
206.0,3.2562504406171514e-08,0.004651162790697674,0.054838422968947295,0.025437695091966826,2522522,206,51.964759,4.541498,"Rotterdam, Brantingweg"
208.0,5.197689759068739e-07,0.004651162790697674,0.06021909601857773,0.03274800751855836,2521274,208,51.965765,4.55408,"Rotterdam, Leermos"
208.0,5.197689759068739e-07,0.004651162790697674,0.06021909601857773,0.03274800751855836,2521275,208,51.9651,4.554122,"Rotterdam, Leermos"
86.0,1.0719348679619074e-06,0.0069767441860465115,0.07886921028968387,0.09808879522969811,2521184,86,51.930137,4.442652,"Rotterdam, Blijdorpplein"
86.0,1.0719348679619074e-06,0.0069767441860465115,0.07886921028968387,0.09808879522969811,2521185,86,51.929593,4.442125,"Rotterdam, Blijdorpplein"
87.0,2.95800186389176e-07,0.004651162790697674,0.07351836634070177,0.04260186841582191,2521123,87,51.931105,4.435623,"Rotterdam, Kleinpolderplein"
87.0,2.95800186389176e-07,0.004651162790697674,0.07351836634070177,0.04260186841582191,2521138,87,51.931043,4.436831,"Rotterdam, Kleinpolderplein"
132.0,3.5816012358498705e-07,0.0069767441860465115,0.0741207612198739,0.054903092043994885,2521119,132,51.93444,4.439057,"Rotterdam, Abtsweg"
132.0,3.5816012358498705e-07,0.0069767441860465115,0.0741207612198739,0.054903092043994885,2522409,132,51.933598,4.43938,"Rotterdam, Abtsweg"
133.0,8.245767531274354e-08,0.004651162790697674,0.06887023394378883,0.03845485264089915,2521124,133,51.932189,4.431819,"Rotterdam, Van der Sasstraat"
133.0,8.245767531274354e-08,0.004651162790697674,0.06887023394378883,0.03845485264089915,2521188,133,51.932152,4.431733,"Rotterdam, Van der Sasstraat"
330.0,4.4138110301412186e-05,0.009302325581395349,0.09811694258155437,0.04347179455408437,2521164,330,51.91374,4.497807,"Rotterdam, Koninginnebrug"
330.0,4.4138110301412186e-05,0.009302325581395349,0.09811694258155437,0.04347179455408437,2521165,330,51.913134,4.497252,"Rotterdam, Koninginnebrug"
330.0,4.4138110301412186e-05,0.009302325581395349,0.09811694258155437,0.04347179455408437,2522928,330,51.913017,4.496121,"Rotterdam, Koninginnebrug"
338.0,0.00014789457705966503,0.0069767441860465115,0.10705272793629331,0.01296686517616751,2522448,338,51.918758,4.485061,"Rotterdam, Keizerstraat"
338.0,0.00014789457705966503,0.0069767441860465115,0.10705272793629331,0.01296686517616751,2522700,338,51.918588,4.484091,"Rotterdam, Keizerstraat"
338.0,0.00014789457705966503,0.0069767441860465115,0.10705272793629331,0.01296686517616751,2522706,338,51.918576,4.483684,"Rotterdam, Keizerstraat"
376.0,3.745251506797049e-05,0.004651162790697674,0.09656856660208217,0.0020346578486113375,2521194,376,51.917517,4.490929,"Rotterdam, Willemswerf"
376.0,3.745251506797049e-05,0.004651162790697674,0.09656856660208217,0.0020346578486113375,2521195,376,51.917777,4.490837,"Rotterdam, Willemswerf"
89.0,0.006956451086283922,0.020930232558139535,0.10075398389548962,0.19299847003751516,2522170,89,51.887751,4.489169,"Rotterdam, Zuidplein perron E"
89.0,0.006956451086283922,0.020930232558139535,0.10075398389548962,0.19299847003751516,2610823,89,51.887571,4.4891,"Rotterdam, Zuidplein perron B"
89.0,0.006956451086283922,0.020930232558139535,0.10075398389548962,0.19299847003751516,2610824,89,51.887805,4.489212,"Rotterdam, Zuidplein perron F"
89.0,0.006956451086283922,0.020930232558139535,0.10075398389548962,0.19299847003751516,2610828,89,51.887624,4.489085,"Rotterdam, Zuidplein perron C"
89.0,0.006956451086283922,0.020930232558139535,0.10075398389548962,0.19299847003751516,2610829,89,51.887687,4.489098,"Rotterdam, Zuidplein perron D"
89.0,0.006956451086283922,0.020930232558139535,0.10075398389548962,0.19299847003751516,2672079,89,51.887498,4.489044,"Rotterdam, Zuidplein perron A"
89.0,0.006956451086283922,0.020930232558139535,0.10075398389548962,0.19299847003751516,2672080,89,51.888157,4.489379,"Rotterdam, Zuidplein perron M"
89.0,0.006956451086283922,0.020930232558139535,0.10075398389548962,0.19299847003751516,2672081,89,51.888211,4.489407,"Rotterdam, Zuidplein perron N"
105.0,0.0017812613304221765,0.004651162790697674,0.09574642279990153,0.041978838533156294,2470545,105,51.887869,4.492871,"Rotterdam, Ikazia Ziekenhuis"
105.0,0.0017812613304221765,0.004651162790697674,0.09574642279990153,0.041978838533156294,2521911,105,51.886307,4.4919,"Rotterdam, Ikazia Ziekenhuis"
105.0,0.0017812613304221765,0.004651162790697674,0.09574642279990153,0.041978838533156294,2522039,105,51.887842,4.492843,"Rotterdam, Ikazia Ziekenhuis"
105.0,0.0017812613304221765,0.004651162790697674,0.09574642279990153,0.041978838533156294,stoparea:373080,105,51.887869,4.492871,"Rotterdam, Ikazia Ziekenhuis"
228.0,0.0017546212684711416,0.004651162790697674,0.09167524862048294,0.00814745249450079,2521596,228,51.887512,4.49436,"Rotterdam, Motorstraat"
228.0,0.0017546212684711416,0.004651162790697674,0.09167524862048294,0.00814745249450079,2522797,228,51.888057,4.495163,"Rotterdam, Motorstraat"
273.0,0.0030094129769718102,0.011627906976744186,0.09304873736323167,0.09150144128351974,2521800,273,51.874364,4.478284,"Rotterdam, Slinge Metro"
273.0,0.0030094129769718102,0.011627906976744186,0.09304873736323167,0.09150144128351974,2521801,273,51.874622,4.478002,"Rotterdam, Slinge Metro"
273.0,0.0030094129769718102,0.011627906976744186,0.09304873736323167,0.09150144128351974,2522842,273,51.874866,4.47807,"Rotterdam, Slinge Metro"
273.0,0.0030094129769718102,0.011627906976744186,0.09304873736323167,0.09150144128351974,2522843,273,51.874075,4.477026,"Rotterdam, Slinge Metro"
273.0,0.0030094129769718102,0.011627906976744186,0.09304873736323167,0.09150144128351974,2659583,273,51.873833,4.477089,"Rotterdam, Slinge Metro"
284.0,0.003048491610237783,0.0069767441860465115,0.09222383720930233,0.00020328508700601726,2521797,284,51.881169,4.480688,"Rotterdam, Zuiderparkweg"
284.0,0.003048491610237783,0.0069767441860465115,0.09222383720930233,0.00020328508700601726,2521798,284,51.881137,4.480078,"Rotterdam, Zuiderparkweg"
297.0,0.002502212538841445,0.0069767441860465115,0.0961446288096978,0.007293404270148454,2522885,297,51.886063,4.478875,"Rotterdam, Carnissesingel"
297.0,0.002502212538841445,0.0069767441860465115,0.0961446288096978,0.007293404270148454,2522886,297,51.886118,4.480167,"Rotterdam, Carnissesingel"
301.0,0.0017833710276942635,0.004651162790697674,0.10254163466938691,0.13016649815691747,2685266,301,51.890319,4.485356,"Rotterdam, Amelandsestraat"
301.0,0.0017833710276942635,0.004651162790697674,0.10254163466938691,0.13016649815691747,2685267,301,51.890131,4.485374,"Rotterdam, Amelandsestraat"
303.0,0.0017475572785326727,0.004651162790697674,0.0917358803986711,0.005740332019401786,2699738,303,51.887467,4.481403,"Rotterdam, Ebenhaezerstraat"
303.0,0.0017475572785326727,0.004651162790697674,0.0917358803986711,0.005740332019401786,2699739,303,51.887618,4.481197,"Rotterdam, Ebenhaezerstraat"
353.0,0.010909208948219746,0.009302325581395349,0.09485159641859404,0.08254276748187755,2522361,353,51.880097,4.501624,"Rotterdam, Vaanweg"
353.0,0.010909208948219746,0.009302325581395349,0.09485159641859404,0.08254276748187755,2522362,353,51.881374,4.500524,"Rotterdam, Vaanweg"
353.0,0.010909208948219746,0.009302325581395349,0.09485159641859404,0.08254276748187755,2703569,353,51.881356,4.500495,"Rotterdam, Vaanweg"
353.0,0.010909208948219746,0.009302325581395349,0.09485159641859404,0.08254276748187755,2750130,353,51.880204,4.501462,"Rotterdam, Vaanweg"
353.0,0.010909208948219746,0.009302325581395349,0.09485159641859404,0.08254276748187755,2750131,353,51.881356,4.500495,"Rotterdam, Vaanweg"
353.0,0.010909208948219746,0.009302325581395349,0.09485159641859404,0.08254276748187755,2867594,353,51.880214,4.501514,"Rotterdam, Vaanweg"
353.0,0.010909208948219746,0.009302325581395349,0.09485159641859404,0.08254276748187755,2876081,353,51.880214,4.501514,"Rotterdam, Vaanweg"
90.0,0.002571176769311929,0.002325581395348837,0.08652816666424872,0.0,2867597,90,51.887806,4.489136,"Rotterdam, Zuidplein (Perron G)"
90.0,0.002571176769311929,0.002325581395348837,0.08652816666424872,0.0,2876084,90,51.887806,4.489136,"Rotterdam, Zuidplein (Perron G)"
90.0,0.002571176769311929,0.002325581395348837,0.08652816666424872,0.0,2876990,90,51.888094,4.489366,"Rotterdam, Zuidplein (perron L)"
91.0,0.003575381359470247,0.0069767441860465115,0.09099364825899237,0.12379882343195374,2521320,91,51.921436,4.558275,"Rotterdam, Capelsebrug"
91.0,0.003575381359470247,0.0069767441860465115,0.09099364825899237,0.12379882343195374,2521321,91,51.921221,4.557043,"Rotterdam, Capelsebrug"
91.0,0.003575381359470247,0.0069767441860465115,0.09099364825899237,0.12379882343195374,2521322,91,51.921104,4.557133,"Rotterdam, Capelsebrug"
91.0,0.003575381359470247,0.0069767441860465115,0.09099364825899237,0.12379882343195374,2521749,91,51.920943,4.557121,"Rotterdam, Capelsebrug"
91.0,0.003575381359470247,0.0069767441860465115,0.09099364825899237,0.12379882343195374,2522196,91,51.921172,4.5578,"Rotterdam, Capelsebrug"
75.0,0.0008421329360235179,0.002325581395348837,0.08330609679446888,0.0,2521736,75,51.915683,4.553192,"Rotterdam, Damhertstraat"
75.0,0.0008421329360235179,0.002325581395348837,0.08330609679446888,0.0,2521762,75,51.915097,4.552868,"Rotterdam, Damhertstraat"
219.0,0.0008948968660442404,0.004651162790697674,0.08473100254293874,0.11599086911237153,2521318,219,51.932939,4.563007,"Rotterdam, Schenkel"
219.0,0.0008948968660442404,0.004651162790697674,0.08473100254293874,0.11599086911237153,2521319,219,51.930959,4.563915,"Rotterdam, Schenkel"
92.0,9.972352636665084e-08,0.004651162790697674,0.07243062723905519,0.014480133444192642,2521950,92,51.94282,4.481436,"Rotterdam, Station Noord"
92.0,9.972352636665084e-08,0.004651162790697674,0.07243062723905519,0.014480133444192642,2521956,92,51.942583,4.481092,"Rotterdam, Station Noord"
92.0,9.972352636665084e-08,0.004651162790697674,0.07243062723905519,0.014480133444192642,2522280,92,51.942865,4.481479,"Rotterdam, Station Noord"
92.0,9.972352636665084e-08,0.004651162790697674,0.07243062723905519,0.014480133444192642,2522391,92,51.94158,4.481505,"Rotterdam, Station Noord"
92.0,9.972352636665084e-08,0.004651162790697674,0.07243062723905519,0.014480133444192642,2522675,92,51.942565,4.481078,"Rotterdam, Station Noord"
184.0,5.500443831940829e-08,0.0069767441860465115,0.07086409289652114,0.019801988004947833,2521951,184,51.945117,4.480939,"Rotterdam, Kootsekade"
184.0,5.500443831940829e-08,0.0069767441860465115,0.07086409289652114,0.019801988004947833,2521955,184,51.944876,4.482384,"Rotterdam, Kootsekade"
184.0,5.500443831940829e-08,0.0069767441860465115,0.07086409289652114,0.019801988004947833,2522281,184,51.945179,4.483134,"Rotterdam, Kootsekade"
184.0,5.500443831940829e-08,0.0069767441860465115,0.07086409289652114,0.019801988004947833,2522291,184,51.944859,4.482442,"Rotterdam, Kootsekade"
184.0,5.500443831940829e-08,0.0069767441860465115,0.07086409289652114,0.019801988004947833,2522674,184,51.945078,4.482874,"Rotterdam, Kootsekade"
184.0,5.500443831940829e-08,0.0069767441860465115,0.07086409289652114,0.019801988004947833,2522693,184,51.945117,4.480983,"Rotterdam, Kootsekade"
93.0,1.588624714132692e-05,0.0069767441860465115,0.08318951489171773,0.006314486547044687,2522622,93,51.887435,4.46573,"Rotterdam, Van Blommesteynweg"
93.0,1.588624714132692e-05,0.0069767441860465115,0.08318951489171773,0.006314486547044687,2522623,93,51.887661,4.465943,"Rotterdam, Van Blommesteynweg"
295.0,3.966378662745904e-05,0.004651162790697674,0.08946763136709784,0.009756780687013243,2522222,295,51.890934,4.469479,"Rotterdam, Frans Bekkerstraat"
295.0,3.966378662745904e-05,0.004651162790697674,0.08946763136709784,0.009756780687013243,2522223,295,51.890751,4.469178,"Rotterdam, Frans Bekkerstraat"
94.0,0.11168513796809233,0.0069767441860465115,0.08918001574975827,0.06987696631125018,2521058,94,51.885828,4.566702,"Rotterdam, P+R Beverwaard"
94.0,0.11168513796809233,0.0069767441860465115,0.08918001574975827,0.06987696631125018,2521346,94,51.885831,4.568402,"Rotterdam, P+R Beverwaard"
94.0,0.11168513796809233,0.0069767441860465115,0.08918001574975827,0.06987696631125018,2521347,94,51.885819,4.567908,"Rotterdam, P+R Beverwaard"
94.0,0.11168513796809233,0.0069767441860465115,0.08918001574975827,0.06987696631125018,2522323,94,51.886039,4.56988,"Rotterdam, P+R Beverwaard"
94.0,0.11168513796809233,0.0069767441860465115,0.08918001574975827,0.06987696631125018,2703576,94,51.886057,4.569836,"Rotterdam, P+R Beverwaard"
94.0,0.11168513796809233,0.0069767441860465115,0.08918001574975827,0.06987696631125018,2703577,94,51.885828,4.566673,"Rotterdam, P+R Beverwaard"
95.0,0.027988427500778082,0.004651162790697674,0.08199289723908809,0.02267124152959249,2522610,95,51.88853,4.568788,"Rotterdam, Croystraat"
95.0,0.027988427500778082,0.004651162790697674,0.08199289723908809,0.02267124152959249,2522619,95,51.888647,4.568728,"Rotterdam, Croystraat"
101.0,0.007144131613551966,0.004651162790697674,0.07587781792275203,0.018236916165034568,2522611,101,51.89308,4.57026,"Rotterdam, Oude Watering"
101.0,0.007144131613551966,0.004651162790697674,0.07587781792275203,0.018236916165034568,2522618,101,51.892286,4.569926,"Rotterdam, Oude Watering"
96.0,0.002343115181421151,0.009302325581395349,0.07064753030362854,0.014214994933811008,2521829,96,51.898466,4.567997,"Rotterdam, Schinnenbaan"
96.0,0.002343115181421151,0.009302325581395349,0.07064753030362854,0.014214994933811008,2521832,96,51.898838,4.569763,"Rotterdam, Schinnenbaan"
96.0,0.002343115181421151,0.009302325581395349,0.07064753030362854,0.014214994933811008,2522612,96,51.8951,4.567361,"Rotterdam, Schinnenbaan"
96.0,0.002343115181421151,0.009302325581395349,0.07064753030362854,0.014214994933811008,2522617,96,51.894847,4.567206,"Rotterdam, Schinnenbaan"
99.0,0.001304437985060293,0.004651162790697674,0.06970082973004557,0.0004449297472553287,2521830,99,51.899065,4.562378,"Rotterdam, Valkenburgsingel"
99.0,0.001304437985060293,0.004651162790697674,0.06970082973004557,0.0004449297472553287,2521838,99,51.899026,4.561928,"Rotterdam, Valkenburgsingel"
100.0,0.0007325323416742804,0.004651162790697674,0.06594515903143773,0.0,2522613,100,51.898191,4.568482,"Rotterdam, Beverwaardseweg"
100.0,0.0007325323416742804,0.004651162790697674,0.06594515903143773,0.0,2522616,100,51.897956,4.568326,"Rotterdam, Beverwaardseweg"
98.0,0.012260812799171954,0.0069767441860465115,0.08065787041837023,0.008829815552859945,2521839,98,51.902052,4.552616,"Rotterdam, IJsselmondsehoofd"
98.0,0.012260812799171954,0.0069767441860465115,0.08065787041837023,0.008829815552859945,2521840,98,51.902094,4.552136,"Rotterdam, IJsselmondsehoofd"
269.0,0.003195086714708822,0.004651162790697674,0.0747331094627105,0.004390069252648538,2521458,269,51.901358,4.55616,"Rotterdam, Oostdijk"
269.0,0.003195086714708822,0.004651162790697674,0.0747331094627105,0.004390069252648538,2521841,269,51.901438,4.555984,"Rotterdam, Oostdijk"
356.0,0.030175833303846523,0.0069767441860465115,0.08754764432745046,0.016432079391910246,2522367,356,51.89911,4.552148,"Rotterdam, Roelantweg"
103.0,0.02078882375460143,0.004651162790697674,0.08220346769821653,0.00019370810068484486,2669749,103,51.899278,4.550547,"Rotterdam, Van Hoochstratenweg"
243.0,0.06957792901936752,0.0069767441860465115,0.08437022576812087,0.010001167104761172,2521060,243,51.894429,4.54991,"Rotterdam, Koninginneweg"
243.0,0.06957792901936752,0.0069767441860465115,0.08437022576812087,0.010001167104761172,2521061,243,51.894419,4.549823,"Rotterdam, Koninginneweg"
344.0,0.0005926839007490683,0.0069767441860465115,0.09284113196973942,0.041417972924722005,2521598,344,51.889939,4.496738,"Rotterdam, Strevelsweg"
344.0,0.0005926839007490683,0.0069767441860465115,0.09284113196973942,0.041417972924722005,2521600,344,51.890077,4.495965,"Rotterdam, Strevelsweg"
344.0,0.0005926839007490683,0.0069767441860465115,0.09284113196973942,0.041417972924722005,2522038,344,51.889537,4.49586,"Rotterdam, Strevelsweg"
344.0,0.0005926839007490683,0.0069767441860465115,0.09284113196973942,0.041417972924722005,2522040,344,51.889324,4.495108,"Rotterdam, Strevelsweg"
106.0,3.3817142816080225e-06,0.0069767441860465115,0.0841995049551542,0.01594960594960599,2522234,106,51.915734,4.435585,"Rotterdam, P.C. Hooftplein"
106.0,3.3817142816080225e-06,0.0069767441860465115,0.0841995049551542,0.01594960594960599,2522263,106,51.915333,4.434968,"Rotterdam, P.C. Hooftplein"
107.0,9.884218567474028e-06,0.011627906976744186,0.09055798770149556,0.0796938770304024,2470547,107,51.913554,4.43175,"Rotterdam, Marconiplein"
107.0,9.884218567474028e-06,0.011627906976744186,0.09055798770149556,0.0796938770304024,2521361,107,51.913414,4.432233,"Rotterdam, Marconiplein"
107.0,9.884218567474028e-06,0.011627906976744186,0.09055798770149556,0.0796938770304024,2521365,107,51.913467,4.432115,"Rotterdam, Marconiplein"
107.0,9.884218567474028e-06,0.011627906976744186,0.09055798770149556,0.0796938770304024,2521370,107,51.913972,4.43334,"Rotterdam, Marconiplein"
107.0,9.884218567474028e-06,0.011627906976744186,0.09055798770149556,0.0796938770304024,2521654,107,51.913576,4.432258,"Rotterdam, Marconiplein"
107.0,9.884218567474028e-06,0.011627906976744186,0.09055798770149556,0.0796938770304024,2521655,107,51.913576,4.432258,"Rotterdam, Marconiplein"
107.0,9.884218567474028e-06,0.011627906976744186,0.09055798770149556,0.0796938770304024,2522233,107,51.913498,4.432594,"Rotterdam, Marconiplein"
107.0,9.884218567474028e-06,0.011627906976744186,0.09055798770149556,0.0796938770304024,2522264,107,51.913353,4.432379,"Rotterdam, Marconiplein"
107.0,9.884218567474028e-06,0.011627906976744186,0.09055798770149556,0.0796938770304024,2522375,107,51.913554,4.43175,"Rotterdam, Marconiplein"
107.0,9.884218567474028e-06,0.011627906976744186,0.09055798770149556,0.0796938770304024,stoparea:341078,107,51.913554,4.43175,"Rotterdam, Marconiplein"
116.0,2.556737826081321e-06,0.004651162790697674,0.07965427899853983,0.006844081135462802,2522235,116,51.916507,4.442313,"Rotterdam, Mathenesserbrug"
116.0,2.556737826081321e-06,0.004651162790697674,0.07965427899853983,0.006844081135462802,2522262,116,51.916651,4.441176,"Rotterdam, Mathenesserbrug"
120.0,9.168131100293131e-07,0.004651162790697674,0.07760424347041628,0.004575269691548761,2521358,120,51.917324,4.435522,"Rotterdam, Huygensstraat"
120.0,9.168131100293131e-07,0.004651162790697674,0.07760424347041628,0.004575269691548761,2521359,120,51.917619,4.435327,"Rotterdam, Huygensstraat"
108.0,2.6696339358000597e-06,0.004651162790697674,0.0829738690904032,0.004575269691548761,2522232,108,51.913518,4.423989,"Rotterdam, Het Witte Dorp"
108.0,2.6696339358000597e-06,0.004651162790697674,0.0829738690904032,0.004575269691548761,2522265,108,51.913546,4.424163,"Rotterdam, Het Witte Dorp"
121.0,4.393965132250035e-06,0.004651162790697674,0.0829738690904032,0.0002692398041235251,2521362,121,51.911656,4.438258,"Rotterdam, Zeilmakersstraat"
121.0,4.393965132250035e-06,0.004651162790697674,0.0829738690904032,0.0002692398041235251,2521366,121,51.911649,4.438447,"Rotterdam, Zeilmakersstraat"
382.0,2.5425589450308698e-05,0.009302325581395349,0.09720017600756181,0.0935637022955764,2521652,382,51.910072,4.445762,"Rotterdam, Delfshaven"
382.0,2.5425589450308698e-05,0.009302325581395349,0.09720017600756181,0.0935637022955764,2521653,382,51.910072,4.445762,"Rotterdam, Delfshaven"
382.0,2.5425589450308698e-05,0.009302325581395349,0.09720017600756181,0.0935637022955764,2522303,382,51.909633,4.44596,"Rotterdam, Delfshaven"
382.0,2.5425589450308698e-05,0.009302325581395349,0.09720017600756181,0.0935637022955764,2522311,382,51.910007,4.445458,"Rotterdam, Delfshaven"
109.0,9.015305457732222e-07,0.004651162790697674,0.07770568692593316,0.040396812489835746,2522075,109,51.922632,4.427196,"Rotterdam, Schuttevaerweg"
109.0,9.015305457732222e-07,0.004651162790697674,0.07770568692593316,0.040396812489835746,2522077,109,51.922532,4.427096,"Rotterdam, Schuttevaerweg"
139.0,2.461630436882794e-07,0.004651162790697674,0.07222946597611041,0.035995012739198785,2521958,139,51.926121,4.42305,"Rotterdam, Bornissestraat"
139.0,2.461630436882794e-07,0.004651162790697674,0.07222946597611041,0.035995012739198785,2521960,139,51.926613,4.422662,"Rotterdam, Bornissestraat"
110.0,5.249120998248394e-07,0.004651162790697674,0.07443898989058535,0.01046410953387698,2521168,110,51.923268,4.43685,"Rotterdam, Roel Langerakweg"
110.0,5.249120998248394e-07,0.004651162790697674,0.07443898989058535,0.01046410953387698,2521172,110,51.924117,4.436236,"Rotterdam, Roel Langerakweg"
134.0,1.833168878797345e-06,0.004651162790697674,0.0795933346381737,0.014239677331332582,2521117,134,51.919705,4.44322,"Rotterdam, Allard Piersonstraat"
134.0,1.833168878797345e-06,0.004651162790697674,0.0795933346381737,0.014239677331332582,2522411,134,51.919801,4.442854,"Rotterdam, Allard Piersonstraat"
407.0,2.2583850186613918e-07,0.004651162790697674,0.07173141759840926,0.007852158481433447,2521118,407,51.927484,4.439145,"Rotterdam, Abraham van Stolkweg"
407.0,2.2583850186613918e-07,0.004651162790697674,0.07173141759840926,0.007852158481433447,2522410,407,51.92817,4.439552,"Rotterdam, Abraham van Stolkweg"
111.0,6.760550527379304e-07,0.002325581395348837,0.07653374167525695,0.0,2522231,111,51.913874,4.418153,"Rotterdam, Hogenbanweg"
111.0,6.760550527379304e-07,0.002325581395348837,0.07653374167525695,0.0,2522266,111,51.913911,4.418254,"Rotterdam, Hogenbanweg"
113.0,8.968424976893374e-07,0.004651162790697674,0.07747420470831728,0.004575269691548761,2521927,113,51.916953,4.424119,"Rotterdam, Tjalklaan"
113.0,8.968424976893374e-07,0.004651162790697674,0.07747420470831728,0.004575269691548761,2522074,113,51.917056,4.424713,"Rotterdam, Tjalklaan"
114.0,2.2779439804171e-07,0.002325581395348837,0.07183047703924945,0.0,2470551,114,51.91736,4.420142,"Rotterdam, Franselaan"
114.0,2.2779439804171e-07,0.002325581395348837,0.07183047703924945,0.0,2521921,114,51.91736,4.420142,"Rotterdam, Franselaan"
114.0,2.2779439804171e-07,0.002325581395348837,0.07183047703924945,0.0,2521926,114,51.917184,4.4216,"Rotterdam, Franselaan"
114.0,2.2779439804171e-07,0.002325581395348837,0.07183047703924945,0.0,stoparea:341486,114,51.91736,4.420142,"Rotterdam, Franselaan"
115.0,6.679603240597678e-06,0.009302325581395349,0.08556733569573763,0.022707420217307043,2521116,115,51.916906,4.446128,"Rotterdam, Mathenesserplein"
115.0,6.679603240597678e-06,0.009302325581395349,0.08556733569573763,0.022707420217307043,2522236,115,51.916531,4.447575,"Rotterdam, Mathenesserplein"
115.0,6.679603240597678e-06,0.009302325581395349,0.08556733569573763,0.022707420217307043,2522261,115,51.916596,4.446701,"Rotterdam, Mathenesserplein"
115.0,6.679603240597678e-06,0.009302325581395349,0.08556733569573763,0.022707420217307043,2522412,115,51.917031,4.445936,"Rotterdam, Mathenesserplein"
115.0,6.679603240597678e-06,0.009302325581395349,0.08556733569573763,0.022707420217307043,2807348,115,51.91588,4.447065,"Rotterdam, Mathenesserplein"
115.0,6.679603240597678e-06,0.009302325581395349,0.08556733569573763,0.022707420217307043,2807357,115,51.915996,4.44699,"Rotterdam, Mathenesserplein"
118.0,1.2581594554551368e-05,0.004651162790697674,0.09107331002153032,0.01768691101075132,2522237,118,51.917233,4.454406,"Rotterdam, Vierambachtsstraat"
118.0,1.2581594554551368e-05,0.004651162790697674,0.09107331002153032,0.01768691101075132,2522260,118,51.917064,4.453523,"Rotterdam, Vierambachtsstraat"
377.0,9.325683199972354e-06,0.004651162790697674,0.08397859808039801,0.002233244791384326,2521115,377,51.914309,4.449569,"Rotterdam, Hooidrift"
377.0,9.325683199972354e-06,0.004651162790697674,0.08397859808039801,0.002233244791384326,2522413,377,51.914184,4.449688,"Rotterdam, Hooidrift"
377.0,9.325683199972354e-06,0.004651162790697674,0.08397859808039801,0.002233244791384326,2807349,377,51.914327,4.449554,"Rotterdam, Hooidrift"
377.0,9.325683199972354e-06,0.004651162790697674,0.08397859808039801,0.002233244791384326,2807352,377,51.914202,4.449687,"Rotterdam, Hooidrift"
264.0,0.0003981210576479726,0.018604651162790697,0.11714919861722188,0.23820694845173457,2521104,264,51.915912,4.472778,"Rotterdam, Eendrachtsplein"
264.0,0.0003981210576479726,0.018604651162790697,0.11714919861722188,0.23820694845173457,2521110,264,51.916145,4.472627,"Rotterdam, Eendrachtsplein"
264.0,0.0003981210576479726,0.018604651162790697,0.11714919861722188,0.23820694845173457,2521336,264,51.915906,4.473141,"Rotterdam, Eendrachtsplein"
264.0,0.0003981210576479726,0.018604651162790697,0.11714919861722188,0.23820694845173457,2521647,264,51.915906,4.473141,"Rotterdam, Eendrachtsplein"
264.0,0.0003981210576479726,0.018604651162790697,0.11714919861722188,0.23820694845173457,2522728,264,51.916761,4.473225,"Rotterdam, Eendrachtsplein"
264.0,0.0003981210576479726,0.018604651162790697,0.11714919861722188,0.23820694845173457,2522739,264,51.916528,4.473361,"Rotterdam, Eendrachtsplein"
264.0,0.0003981210576479726,0.018604651162790697,0.11714919861722188,0.23820694845173457,2548178,264,51.917314,4.472705,"Rotterdam, Eendrachtsplein"
264.0,0.0003981210576479726,0.018604651162790697,0.11714919861722188,0.23820694845173457,2548189,264,51.916926,4.472481,"Rotterdam, Eendrachtsplein"
119.0,4.299545367759824e-05,0.004651162790697674,0.09788613349526513,0.021191545910735056,2522238,119,51.918594,4.4606,"Rotterdam, 1e Middellandstraat"
119.0,4.299545367759824e-05,0.004651162790697674,0.09788613349526513,0.021191545910735056,2522259,119,51.918434,4.459658,"Rotterdam, 1e Middellandstraat"
363.0,0.0001575884292294982,0.009302325581395349,0.10749520885775564,0.09718619778494923,2522239,363,51.919503,4.46532,"Rotterdam, Tiendplein"
363.0,0.0001575884292294982,0.009302325581395349,0.10749520885775564,0.09718619778494923,2522258,363,51.919281,4.464481,"Rotterdam, Tiendplein"
363.0,0.0001575884292294982,0.009302325581395349,0.10749520885775564,0.09718619778494923,2685229,363,51.9184,4.463278,"Rotterdam, Tiendplein"
363.0,0.0001575884292294982,0.009302325581395349,0.10749520885775564,0.09718619778494923,2685230,363,51.919351,4.463113,"Rotterdam, Tiendplein"
123.0,7.511708512528951e-06,0.004651162790697674,0.0885160505186922,0.001969606620769411,2521363,123,51.910584,4.44235,"Rotterdam, Van Duylstraat"
123.0,7.511708512528951e-06,0.004651162790697674,0.0885160505186922,0.001969606620769411,2521364,123,51.910542,4.442787,"Rotterdam, Van Duylstraat"
122.0,6.894564104447209e-06,0.004651162790697674,0.08866694086690222,0.00778030754774941,2522302,122,51.906808,4.445671,"Rotterdam, Spanjaardstraat"
122.0,6.894564104447209e-06,0.004651162790697674,0.08866694086690222,0.00778030754774941,2522312,122,51.907033,4.445637,"Rotterdam, Spanjaardstraat"
379.0,1.9557953434811966e-06,0.004651162790697674,0.08189607429410985,0.003627870837173162,2522301,379,51.90444,4.446272,"Rotterdam, Schiemond"
379.0,1.9557953434811966e-06,0.004651162790697674,0.08189607429410985,0.003627870837173162,2522313,379,51.904212,4.446975,"Rotterdam, Schiemond"
128.0,0.0033646002183418257,0.004651162790697674,0.09012647898816809,0.05789642352010249,2522514,128,51.924447,4.533068,"Rotterdam, Lichtenauerlaan"
128.0,0.0033646002183418257,0.004651162790697674,0.09012647898816809,0.05789642352010249,2522517,128,51.925193,4.533083,"Rotterdam, Lichtenauerlaan"
223.0,0.003855286795907801,0.009302325581395349,0.10055919610642147,0.20620788467284323,2521325,223,51.925141,4.512614,"Rotterdam, Voorschoterlaan"
223.0,0.003855286795907801,0.009302325581395349,0.10055919610642147,0.20620788467284323,2521328,223,51.925141,4.512614,"Rotterdam, Voorschoterlaan"
223.0,0.003855286795907801,0.009302325581395349,0.10055919610642147,0.20620788467284323,2522654,223,51.925241,4.51395,"Rotterdam, Voorschoterlaan"
223.0,0.003855286795907801,0.009302325581395349,0.10055919610642147,0.20620788467284323,2522660,223,51.925434,4.513321,"Rotterdam, Voorschoterlaan"
348.0,0.0003664514906483408,0.009302325581395349,0.09319461444308445,0.03357839255424234,2522596,348,51.893383,4.510065,"Rotterdam, Randweg"
348.0,0.0003664514906483408,0.009302325581395349,0.09319461444308445,0.03357839255424234,2522597,348,51.893542,4.509756,"Rotterdam, Randweg"
348.0,0.0003664514906483408,0.009302325581395349,0.09319461444308445,0.03357839255424234,2701329,348,51.893455,4.510049,"Rotterdam, Randweg"
348.0,0.0003664514906483408,0.009302325581395349,0.09319461444308445,0.03357839255424234,2701330,348,51.893714,4.509855,"Rotterdam, Randweg"
348.0,0.0003664514906483408,0.009302325581395349,0.09319461444308445,0.03357839255424234,2737046,348,51.893468,4.510644,"Rotterdam, Randweg"
348.0,0.0003664514906483408,0.009302325581395349,0.09319461444308445,0.03357839255424234,2737047,348,51.893089,4.51039,"Rotterdam, Randweg"
319.0,0.0009658187259207649,0.004651162790697674,0.0916550558344432,0.019324551417574682,2522308,319,51.923713,4.520085,"Rotterdam, Essenlaan"
319.0,0.0009658187259207649,0.004651162790697674,0.0916550558344432,0.019324551417574682,2522653,319,51.923769,4.520331,"Rotterdam, Essenlaan"
127.0,0.000842132466550937,0.004651162790697674,0.08318951489171773,0.05369700536719587,2521284,127,51.927378,4.544397,"Rotterdam, Ringvaartplas"
127.0,0.000842132466550937,0.004651162790697674,0.08318951489171773,0.05369700536719587,2521287,127,51.927811,4.544636,"Rotterdam, Ringvaartplas"
131.0,1.0015750880570808e-07,0.004651162790697674,0.06939859130893465,0.048713792667281,2521120,131,51.936394,4.435002,"Rotterdam, Ruggeweg"
131.0,1.0015750880570808e-07,0.004651162790697674,0.06939859130893465,0.048713792667281,2522408,131,51.936352,4.435323,"Rotterdam, Ruggeweg"
152.0,1.7397473184430276e-08,0.009302325581395349,0.06153711231712099,0.07092426952892068,2521126,152,51.936532,4.427597,"Rotterdam, 2e Hogenbanweg"
152.0,1.7397473184430276e-08,0.009302325581395349,0.06153711231712099,0.07092426952892068,2521136,152,51.936888,4.427138,"Rotterdam, 2e Hogenbanweg"
130.0,2.564578747036143e-08,0.004651162790697674,0.0647748993599583,0.034396740210693694,2521125,130,51.934256,4.428503,"Rotterdam, Hoornweg"
130.0,2.564578747036143e-08,0.004651162790697674,0.0647748993599583,0.034396740210693694,2521137,130,51.93352,4.428665,"Rotterdam, Hoornweg"
135.0,5.525248547683063e-09,0.0069767441860465115,0.05952137798431871,0.022681194774218028,2522434,135,51.941466,4.410053,"Rotterdam, Lyonstraat"
135.0,5.525248547683063e-09,0.0069767441860465115,0.05952137798431871,0.022681194774218028,2522447,135,51.941222,4.409855,"Rotterdam, Lyonstraat"
138.0,1.8583185154155372e-08,0.004651162790697674,0.06324881493971304,0.02712636201008294,2521181,138,51.93304,4.415064,"Rotterdam, Amstelstraat"
138.0,1.8583185154155372e-08,0.004651162790697674,0.06324881493971304,0.02712636201008294,2521182,138,51.93278,4.415128,"Rotterdam, Amstelstraat"
148.0,1.5278786183033353e-09,0.004651162790697674,0.05616330860957917,0.0068195370520951915,2521187,148,51.944327,4.413656,"Rotterdam, Innsbruckweg"
136.0,1.5278786183033353e-09,0.004651162790697674,0.05616330860957917,0.0068195370520951915,2548716,136,51.941438,4.404498,"Rotterdam, Carostraat"
137.0,6.737655311413759e-08,0.004651162790697674,0.06745241586778605,0.031571529245947846,2521957,137,51.929922,4.418461,"Rotterdam, Keenstraat"
137.0,6.737655311413759e-08,0.004651162790697674,0.06745241586778605,0.031571529245947846,2521961,137,51.930404,4.418073,"Rotterdam, Keenstraat"
406.0,1.3545219627234052e-11,0.004651162790697674,0.04517576305378049,0.013660757846804358,2521131,406,51.9483,4.434415,"Rotterdam, Rotterdam Airport"
406.0,1.3545219627234052e-11,0.004651162790697674,0.04517576305378049,0.013660757846804358,2522081,406,51.948334,4.434167,"Rotterdam, Rotterdam Airport"
147.0,1.116507966356906e-10,0.004651162790697674,0.04951379741651263,0.009128855640483546,2522142,147,51.949139,4.411777,"Rotterdam, Doenpad"
147.0,1.116507966356906e-10,0.004651162790697674,0.04951379741651263,0.009128855640483546,2522166,147,51.948491,4.41281,"Rotterdam, Doenpad"
142.0,4.8705520366773407e-11,0.004651162790697674,0.04731255866837659,0.018170976310511195,2522453,142,51.948325,4.43085,"Rotterdam, Gatwickbaan"
142.0,4.8705520366773407e-11,0.004651162790697674,0.04731255866837659,0.018170976310511195,2522455,142,51.948522,4.430861,"Rotterdam, Gatwickbaan"
143.0,1.4494250753884203e-09,0.004651162790697674,0.05496881816226844,0.018170976310511195,2522140,143,51.943273,4.419919,"Rotterdam, Schielaan"
143.0,1.4494250753884203e-09,0.004651162790697674,0.05496881816226844,0.018170976310511195,2522168,143,51.943565,4.419302,"Rotterdam, Schielaan"
145.0,5.22672747525617e-09,0.0069767441860465115,0.058148959403070445,0.06256843931262536,2521127,145,51.940512,4.424021,"Rotterdam, De Lugt"
145.0,5.22672747525617e-09,0.0069767441860465115,0.058148959403070445,0.06256843931262536,2521135,145,51.939998,4.423843,"Rotterdam, De Lugt"
145.0,5.22672747525617e-09,0.0069767441860465115,0.058148959403070445,0.06256843931262536,2522139,145,51.93995,4.422463,"Rotterdam, De Lugt"
146.0,4.0222505495422487e-10,0.004651162790697674,0.05210542868624744,0.013660757846804358,2522141,146,51.946243,4.417018,"Rotterdam, Molen"
146.0,4.0222505495422487e-10,0.004651162790697674,0.05210542868624744,0.013660757846804358,2522167,146,51.94626,4.416887,"Rotterdam, Molen"
144.0,1.6522633348176044e-10,0.004651162790697674,0.04962007554118437,0.0,2521132,144,51.945788,4.428475,"Rotterdam, Noorderlaan"
149.0,4.502978411524338e-10,0.004651162790697674,0.053163913822457144,0.0022876348457743804,2522020,149,51.945419,4.406578,"Rotterdam, Vareseweg"
408.0,4.475655733347835e-09,0.002325581395348837,0.05792232091987362,0.0,2522076,408,51.935699,4.424721,"Rotterdam, Rotterdamse Rijweg"
156.0,4.366504919925775e-09,0.004651162790697674,0.06344167609214395,0.009411861335751403,2522283,156,51.951203,4.489239,"Rotterdam, Bergse Plaslaan"
156.0,4.366504919925775e-09,0.004651162790697674,0.06344167609214395,0.009411861335751403,2522672,156,51.951546,4.489421,"Rotterdam, Bergse Plaslaan"
183.0,1.5123436150231844e-08,0.004651162790697674,0.06681341578169109,0.013005941674017783,2522282,183,51.947696,4.485527,"Rotterdam, Lommerrijk"
183.0,1.5123436150231844e-08,0.004651162790697674,0.06681341578169109,0.013005941674017783,2522673,183,51.947649,4.485324,"Rotterdam, Lommerrijk"
159.0,7.247246384397026e-11,0.002325581395348837,0.05340956918089746,0.0,2522472,159,51.970793,4.495672,"Rotterdam, Bosweg"
159.0,7.247246384397026e-11,0.002325581395348837,0.05340956918089746,0.0,2522474,159,51.97092,4.495815,"Rotterdam, Bosweg"
160.0,2.813559913463776e-10,0.004651162790697674,0.056468171188542825,0.004575269691548761,2522005,160,51.967628,4.495473,"Rotterdam, 't Vaantje"
160.0,2.813559913463776e-10,0.004651162790697674,0.056468171188542825,0.004575269691548761,2522473,160,51.967465,4.495375,"Rotterdam, 't Vaantje"
180.0,2.8943402093718234e-07,0.004651162790697674,0.07754639461207084,0.02194894839715136,2521982,180,51.946791,4.474331,"Rotterdam, Erasmussingel"
180.0,2.8943402093718234e-07,0.004651162790697674,0.07754639461207084,0.02194894839715136,2521983,180,51.946556,4.474103,"Rotterdam, Erasmussingel"
163.0,2.896498947894875e-07,0.0069767441860465115,0.07628120137275382,0.016501328129235104,2522387,163,51.956012,4.467131,"Rotterdam, Wilgenplaslaan"
163.0,2.896498947894875e-07,0.0069767441860465115,0.07628120137275382,0.016501328129235104,2522394,163,51.956597,4.467206,"Rotterdam, Wilgenplaslaan"
163.0,2.896498947894875e-07,0.0069767441860465115,0.07628120137275382,0.016501328129235104,2522736,163,51.955682,4.467458,"Rotterdam, Wilgenplaslaan"
168.0,8.201676162007414e-08,0.004651162790697674,0.0715587194305025,0.008579534160929509,2522385,168,51.958399,4.46778,"Rotterdam, Kastanjeplein"
168.0,8.201676162007414e-08,0.004651162790697674,0.0715587194305025,0.008579534160929509,2522395,168,51.958535,4.467952,"Rotterdam, Kastanjeplein"
177.0,9.970259370984051e-08,0.004651162790697674,0.07110628050040535,0.00013552339133734482,2522388,177,51.953242,4.464627,"Rotterdam, Schiehoven"
177.0,9.970259370984051e-08,0.004651162790697674,0.07110628050040535,0.00013552339133734482,2522393,177,51.953656,4.464691,"Rotterdam, Schiehoven"
179.0,9.505485051204526e-07,0.0069767441860465115,0.08204139461521531,0.03306879167344283,2522715,179,51.95289,4.469144,"Rotterdam, Teldersweg"
179.0,9.505485051204526e-07,0.0069767441860465115,0.08204139461521531,0.03306879167344283,2522716,179,51.952657,4.469193,"Rotterdam, Teldersweg"
164.0,1.0286517473553573e-08,0.004651162790697674,0.06396832490213253,0.0018799804846316478,2522383,164,51.962525,4.472439,"Rotterdam, Adrianalaan"
164.0,1.0286517473553573e-08,0.004651162790697674,0.06396832490213253,0.0018799804846316478,2522398,164,51.962438,4.472819,"Rotterdam, Adrianalaan"
174.0,9.508365255480715e-09,0.004651162790697674,0.06445383418345293,0.002394969371713558,2522386,174,51.964016,4.474606,"Rotterdam, Hazelaarweg"
174.0,9.508365255480715e-09,0.004651162790697674,0.06445383418345293,0.002394969371713558,2522397,174,51.963755,4.474553,"Rotterdam, Hazelaarweg"
175.0,3.055034475419629e-08,0.0069767441860465115,0.06745241586778605,0.005549953922046945,2522384,175,51.960146,4.469301,"Rotterdam, Peppelweg"
175.0,3.055034475419629e-08,0.0069767441860465115,0.06745241586778605,0.005549953922046945,2522396,175,51.960522,4.470312,"Rotterdam, Peppelweg"
175.0,3.055034475419629e-08,0.0069767441860465115,0.06745241586778605,0.005549953922046945,2522735,175,51.960481,4.469731,"Rotterdam, Peppelweg"
165.0,2.6800880111641e-08,0.004651162790697674,0.06706107227854506,0.0004976418929907301,2522734,165,51.961543,4.47211,"Rotterdam, Larikslaan"
182.0,1.030086369305355e-06,0.009302325581395349,0.08340628452362639,0.11240016354927451,2522018,182,51.949633,4.472164,"Rotterdam, De Wilgenring"
182.0,1.030086369305355e-06,0.009302325581395349,0.08340628452362639,0.11240016354927451,2522019,182,51.949547,4.471525,"Rotterdam, De Wilgenring"
368.0,8.217346940646826e-06,0.004651162790697674,0.09554855418791552,0.15550171316245193,2521688,368,51.930806,4.457847,"Rotterdam, Blijdorp"
368.0,8.217346940646826e-06,0.004651162790697674,0.09554855418791552,0.15550171316245193,2521689,368,51.930806,4.457847,"Rotterdam, Blijdorp"
171.0,9.95641772845168e-08,0.004651162790697674,0.07160797685224093,0.0004336748522795034,2521238,171,51.953871,4.468048,"Rotterdam, Meidoornsingel"
171.0,9.95641772845168e-08,0.004651162790697674,0.07160797685224093,0.0004336748522795034,2522004,171,51.953893,4.468673,"Rotterdam, Meidoornsingel"
181.0,2.889749291506234e-07,0.004651162790697674,0.0770011016817861,0.004851737409876945,2521239,181,51.951054,4.470011,"Rotterdam, Donkersingel"
181.0,2.889749291506234e-07,0.004651162790697674,0.0770011016817861,0.004851737409876945,2522003,181,51.951129,4.470286,"Rotterdam, Donkersingel"
172.0,7.39598569689546e-08,0.004651162790697674,0.07113059033989266,0.0043374713142155,2522733,172,51.959152,4.47568,"Rotterdam, Meidoornweide"
178.0,2.6201544838492456e-07,0.004651162790697674,0.07583633196434703,0.008393415370159555,2522732,178,51.956392,4.472055,"Rotterdam, Wilgenlei"
186.0,2.598780725446671e-08,0.002325581395348837,0.06807033428568168,0.0,2522288,186,51.94492,4.468289,"Rotterdam, Kleiweg RET"
211.0,1.2788758327645122e-10,0.004651162790697674,0.04774138979903306,0.014089324660149205,2521259,211,51.957013,4.53194,"Rotterdam, Droogbloem"
211.0,1.2788758327645122e-10,0.004651162790697674,0.04774138979903306,0.014089324660149205,2521263,211,51.957114,4.532171,"Rotterdam, Droogbloem"
215.0,3.023947307719874e-10,0.004651162790697674,0.04597436233436881,0.009128855640483546,2521531,215,51.937097,4.552373,"Rotterdam, Bramanteplein"
215.0,3.023947307719874e-10,0.004651162790697674,0.04597436233436881,0.009128855640483546,2521738,215,51.936738,4.552423,"Rotterdam, Bramanteplein"
191.0,7.54116121065919e-11,0.004651162790697674,0.04393558795146997,0.004575269691548761,2521533,191,51.934768,4.55339,"Rotterdam, Beelstraat"
191.0,7.54116121065919e-11,0.004651162790697674,0.04393558795146997,0.004575269691548761,2521739,191,51.93448,4.553396,"Rotterdam, Beelstraat"
193.0,1.3006395500727177e-07,0.004651162790697674,0.05633820112217332,0.009128855640483546,2521304,193,51.96581,4.570712,"Rotterdam, Ambachtsland"
193.0,1.3006395500727177e-07,0.004651162790697674,0.05633820112217332,0.009128855640483546,2521305,193,51.965702,4.569419,"Rotterdam, Ambachtsland"
199.0,5.197614698786092e-07,0.004651162790697674,0.0597178463674472,0.013660757846804358,2521306,199,51.964887,4.562042,"Rotterdam, Nieuw Verlaat"
199.0,5.197614698786092e-07,0.004651162790697674,0.0597178463674472,0.013660757846804358,2521307,199,51.964725,4.560735,"Rotterdam, Nieuw Verlaat"
435.0,2.030971361438383e-08,0.004651162790697674,0.05105692680838921,0.009128855640483546,2522540,435,51.945892,4.556762,"Rotterdam, Oosterflank Metro/Grote Beer"
435.0,2.030971361438383e-08,0.004651162790697674,0.05105692680838921,0.009128855640483546,2522541,435,51.945858,4.556981,"Rotterdam, Oosterflank Metro/Grote Beer"
196.0,7.27781855018857e-08,0.004651162790697674,0.05369212303075769,0.0,2521758,196,51.950224,4.560449,"Rotterdam, Alexandrium III"
196.0,7.27781855018857e-08,0.004651162790697674,0.05369212303075769,0.0,2521759,196,51.950376,4.560388,"Rotterdam, Alexandrium III"
196.0,7.27781855018857e-08,0.004651162790697674,0.05369212303075769,0.0,2854117,196,51.950283,4.559881,"Rotterdam, Alexandrium III"
196.0,7.27781855018857e-08,0.004651162790697674,0.05369212303075769,0.0,2854118,196,51.950056,4.55955,"Rotterdam, Alexandrium III"
197.0,8.116053906062669e-08,0.009302325581395349,0.053817117626535446,0.021466074447046755,2521277,197,51.947906,4.556725,"Rotterdam, Alexandrium I"
197.0,8.116053906062669e-08,0.009302325581395349,0.053817117626535446,0.021466074447046755,2521288,197,51.94768,4.556583,"Rotterdam, Alexandrium I"
198.0,2.278227987253398e-07,0.009302325581395349,0.056637260580968025,0.02932462416606193,2521268,198,51.95069,4.55516,"Rotterdam, Alexandrium II"
198.0,2.278227987253398e-07,0.009302325581395349,0.056637260580968025,0.02932462416606193,2521282,198,51.950038,4.555754,"Rotterdam, Alexandrium II"
198.0,2.278227987253398e-07,0.009302325581395349,0.056637260580968025,0.02932462416606193,2854120,198,51.950029,4.555754,"Rotterdam, Alexandrium II"
198.0,2.278227987253398e-07,0.009302325581395349,0.056637260580968025,0.02932462416606193,2854121,198,51.95078,4.555173,"Rotterdam, Alexandrium II"
207.0,2.076627177026853e-06,0.009302325581395349,0.06350945566061846,0.053394544444165276,2521273,207,51.963973,4.554856,"Rotterdam, Hesseplaats"
207.0,2.076627177026853e-06,0.009302325581395349,0.06350945566061846,0.053394544444165276,2521276,207,51.96295,4.555035,"Rotterdam, Hesseplaats"
207.0,2.076627177026853e-06,0.009302325581395349,0.06350945566061846,0.053394544444165276,2521308,207,51.963309,4.553791,"Rotterdam, Hesseplaats"
207.0,2.076627177026853e-06,0.009302325581395349,0.06350945566061846,0.053394544444165276,2521309,207,51.963093,4.552457,"Rotterdam, Hesseplaats"
200.0,5.618903644735044e-05,0.004651162790697674,0.07474653376834418,0.10888221549208998,2521314,200,51.946315,4.554165,"Rotterdam, Oosterflank"
200.0,5.618903644735044e-05,0.004651162790697674,0.07474653376834418,0.10888221549208998,2521315,200,51.945266,4.554621,"Rotterdam, Oosterflank"
202.0,1.4541674509789362e-05,0.004651162790697674,0.07069554085769147,0.10543269343791667,2521312,202,51.951476,4.551873,"Rotterdam, Alexander"
202.0,1.4541674509789362e-05,0.004651162790697674,0.07069554085769147,0.10543269343791667,2521313,202,51.950696,4.552207,"Rotterdam, Alexander"
216.0,0.00022401562778198765,0.004651162790697674,0.0793656214931093,0.11240040273120744,2521316,216,51.941466,4.556233,"Rotterdam, Prinsenlaan"
216.0,0.00022401562778198765,0.004651162790697674,0.0793656214931093,0.11240040273120744,2521317,216,51.939674,4.556993,"Rotterdam, Prinsenlaan"
201.0,2.227657696074022e-06,0.0069767441860465115,0.06318159026546798,0.0001815411117736699,2521248,201,51.961043,4.556103,"Rotterdam, Barbarakruid"
201.0,2.227657696074022e-06,0.0069767441860465115,0.06318159026546798,0.0001815411117736699,2521257,201,51.96105,4.55587,"Rotterdam, Barbarakruid"
220.0,1.8317768998128265e-06,0.004651162790697674,0.06285709267195953,0.0,2521258,220,51.958505,4.548177,"Rotterdam, Cordell Hullplaats"
209.0,1.3838512066479635e-06,0.004651162790697674,0.06286658913557518,0.004575269691548761,2521300,209,51.961571,4.543231,"Rotterdam, Romeynshof"
209.0,1.3838512066479635e-06,0.004651162790697674,0.06286658913557518,0.004575269691548761,2521301,209,51.961355,4.54194,"Rotterdam, Romeynshof"
210.0,8.150310870036795e-09,0.004651162790697674,0.0526393363046644,0.021991425599185876,2521280,210,51.96362,4.534433,"Rotterdam, Lorentzweg"
210.0,8.150310870036795e-09,0.004651162790697674,0.0526393363046644,0.021991425599185876,2521281,210,51.963506,4.534799,"Rotterdam, Lorentzweg"
213.0,2.0400182237197176e-09,0.004651162790697674,0.050646781096442564,0.018634059451122044,2521254,213,51.962383,4.529931,"Rotterdam, Varenhof"
213.0,2.0400182237197176e-09,0.004651162790697674,0.050646781096442564,0.018634059451122044,2521255,213,51.962148,4.529761,"Rotterdam, Varenhof"
212.0,5.106380733004561e-10,0.004651162790697674,0.04889705681414478,0.015697839770716315,2521253,212,51.959202,4.531272,"Rotterdam, Stamroos"
212.0,5.106380733004561e-10,0.004651162790697674,0.04889705681414478,0.015697839770716315,2521256,212,51.958886,4.531147,"Rotterdam, Stamroos"
214.0,3.259501874021693e-07,0.002325581395348837,0.05909870096412045,0.0,2521298,214,51.960398,4.5364,"Rotterdam, Binnenhof"
214.0,3.259501874021693e-07,0.002325581395348837,0.05909870096412045,0.0,2521299,214,51.960254,4.535093,"Rotterdam, Binnenhof"
218.0,1.776300265832923e-11,0.002325581395348837,0.042061452894811696,0.0,2521740,218,51.934397,4.559504,"Rotterdam, Rietkerkweg"
218.0,1.776300265832923e-11,0.002325581395348837,0.042061452894811696,0.0,2521751,218,51.934106,4.559001,"Rotterdam, Rietkerkweg"
221.0,2.3974370335470624e-05,0.004651162790697674,0.09008745474959343,0.025343958367214182,2522247,221,51.920507,4.510684,"Rotterdam, Avenue Concordia"
221.0,2.3974370335470624e-05,0.004651162790697674,0.09008745474959343,0.025343958367214182,2522250,221,51.920273,4.511924,"Rotterdam, Avenue Concordia"
222.0,8.86570919532986e-05,0.004651162790697674,0.0986753506019379,0.02970239063262321,2522246,222,51.921629,4.505705,"Rotterdam, Willem Ruyslaan"
222.0,8.86570919532986e-05,0.004651162790697674,0.0986753506019379,0.02970239063262321,2522251,222,51.921491,4.506478,"Rotterdam, Willem Ruyslaan"
322.0,1.2206850611654182e-05,0.004651162790697674,0.08287471688675006,0.021573155526643892,2522248,322,51.916727,4.518621,"Rotterdam, Woudestein"
322.0,1.2206850611654182e-05,0.004651162790697674,0.08287471688675006,0.021573155526643892,2522249,322,51.916434,4.519063,"Rotterdam, Woudestein"
224.0,0.0009674648747205269,0.004651162790697674,0.09246976744186046,0.012334132009641166,2522649,224,51.927074,4.510207,"Rotterdam, Mecklenburglaan"
224.0,0.0009674648747205269,0.004651162790697674,0.09246976744186046,0.012334132009641166,2522655,224,51.926598,4.511524,"Rotterdam, Mecklenburglaan"
371.0,0.0009910784537434606,0.004651162790697674,0.10410656829831676,0.17906551180844935,2521327,371,51.925972,4.505867,"Rotterdam, Gerdesiaweg"
371.0,0.0009910784537434606,0.004651162790697674,0.10410656829831676,0.17906551180844935,2521330,371,51.925972,4.505867,"Rotterdam, Gerdesiaweg"
360.0,0.00025180797875821537,0.004651162790697674,0.09042024195749068,0.011239464403345651,2522648,360,51.92878,4.506364,"Rotterdam, Jericholaan"
360.0,0.00025180797875821537,0.004651162790697674,0.09042024195749068,0.011239464403345651,2522656,360,51.928958,4.506157,"Rotterdam, Jericholaan"
225.0,1.7242763752645863e-05,0.004651162790697674,0.09171566089670974,0.004575269691548761,2522558,225,51.886557,4.488147,"Rotterdam, Zuidplein"
225.0,1.7242763752645863e-05,0.004651162790697674,0.09171566089670974,0.004575269691548761,2522559,225,51.887297,4.488597,"Rotterdam, Zuidplein"
225.0,1.7242763752645863e-05,0.004651162790697674,0.09171566089670974,0.004575269691548761,2811278,225,51.888103,4.489351,"Rotterdam, Zuidplein"
225.0,1.7242763752645863e-05,0.004651162790697674,0.09171566089670974,0.004575269691548761,2811341,225,51.888049,4.489338,"Rotterdam, Zuidplein"
225.0,1.7242763752645863e-05,0.004651162790697674,0.09171566089670974,0.004575269691548761,2811342,225,51.88794,4.489267,"Rotterdam, Zuidplein"
225.0,1.7242763752645863e-05,0.004651162790697674,0.09171566089670974,0.004575269691548761,2811343,225,51.887977,4.48931,"Rotterdam, Zuidplein"
225.0,1.7242763752645863e-05,0.004651162790697674,0.09171566089670974,0.004575269691548761,2811344,225,51.887977,4.489325,"Rotterdam, Zuidplein"
225.0,1.7242763752645863e-05,0.004651162790697674,0.09171566089670974,0.004575269691548761,2811351,225,51.887404,4.488435,"Rotterdam, Zuidplein"
225.0,1.7242763752645863e-05,0.004651162790697674,0.09171566089670974,0.004575269691548761,2867598,225,51.88707,4.488179,"Rotterdam, Zuidplein"
225.0,1.7242763752645863e-05,0.004651162790697674,0.09171566089670974,0.004575269691548761,2876085,225,51.88707,4.488179,"Rotterdam, Zuidplein"
225.0,1.7242763752645863e-05,0.004651162790697674,0.09171566089670974,0.004575269691548761,2876989,225,51.887313,4.48835,"Rotterdam, Zuidplein"
317.0,6.828454219521495e-05,0.009302325581395349,0.1010721286102434,0.04614374100388086,2470543,317,51.897905,4.49581,"Rotterdam, Maashaven"
317.0,6.828454219521495e-05,0.009302325581395349,0.1010721286102434,0.04614374100388086,2522556,317,51.896816,4.494451,"Rotterdam, Maashaven"
317.0,6.828454219521495e-05,0.009302325581395349,0.1010721286102434,0.04614374100388086,2522557,317,51.897503,4.494961,"Rotterdam, Maashaven"
317.0,6.828454219521495e-05,0.009302325581395349,0.1010721286102434,0.04614374100388086,2522590,317,51.896991,4.493896,"Rotterdam, Maashaven"
317.0,6.828454219521495e-05,0.009302325581395349,0.1010721286102434,0.04614374100388086,2522591,317,51.896962,4.493533,"Rotterdam, Maashaven"
317.0,6.828454219521495e-05,0.009302325581395349,0.1010721286102434,0.04614374100388086,stoparea:341205,317,51.897905,4.49581,"Rotterdam, Maashaven"
226.0,0.0007005184411271293,0.009302325581395349,0.08563777598031942,0.021504346710071204,2522630,226,51.883205,4.504918,"Rotterdam, Groene Hilledijk"
226.0,0.0007005184411271293,0.009302325581395349,0.08563777598031942,0.021504346710071204,2522631,226,51.883512,4.505115,"Rotterdam, Groene Hilledijk"
226.0,0.0007005184411271293,0.009302325581395349,0.08563777598031942,0.021504346710071204,2522815,226,51.883432,4.505189,"Rotterdam, Groene Hilledijk"
226.0,0.0007005184411271293,0.009302325581395349,0.08563777598031942,0.021504346710071204,2522816,226,51.883339,4.504828,"Rotterdam, Groene Hilledijk"
315.0,0.0005553013984339689,0.009302325581395349,0.09216255891215328,0.05398003922316814,2521912,315,51.889857,4.506182,"Rotterdam, Sandelingplein"
315.0,0.0005553013984339689,0.009302325581395349,0.09216255891215328,0.05398003922316814,2521913,315,51.889603,4.507015,"Rotterdam, Sandelingplein"
315.0,0.0005553013984339689,0.009302325581395349,0.09216255891215328,0.05398003922316814,2522628,315,51.889283,4.507559,"Rotterdam, Sandelingplein"
315.0,0.0005553013984339689,0.009302325581395349,0.09216255891215328,0.05398003922316814,2522629,315,51.889509,4.507743,"Rotterdam, Sandelingplein"
351.0,0.0018996712740759676,0.009302325581395349,0.08299041752859436,0.011812968056259641,2522632,351,51.878553,4.507885,"Rotterdam, Paasweide"
351.0,0.0018996712740759676,0.009302325581395349,0.08299041752859436,0.011812968056259641,2522633,351,51.8787,4.508289,"Rotterdam, Paasweide"
351.0,0.0018996712740759676,0.009302325581395349,0.08299041752859436,0.011812968056259641,2522781,351,51.878598,4.507811,"Rotterdam, Paasweide"
351.0,0.0018996712740759676,0.009302325581395349,0.08299041752859436,0.011812968056259641,2522782,351,51.87851,4.508147,"Rotterdam, Paasweide"
354.0,0.00023857901090846477,0.004651162790697674,0.07892905035818894,0.003810375670840787,2522802,354,51.88461,4.510134,"Rotterdam, Molenwei"
354.0,0.00023857901090846477,0.004651162790697674,0.07892905035818894,0.003810375670840787,2522803,354,51.884726,4.509914,"Rotterdam, Molenwei"
355.0,0.00027837518985206634,0.004651162790697674,0.08500795781172055,0.004025199606594956,2811390,355,51.883965,4.501954,"Rotterdam, Rondewei"
355.0,0.00027837518985206634,0.004651162790697674,0.08500795781172055,0.004025199606594956,2811391,355,51.884615,4.501201,"Rotterdam, Rondewei"
227.0,0.004292091353053106,0.0069767441860465115,0.0813358001345528,0.010100945566061855,2522602,227,51.882122,4.521192,"Rotterdam, Smeetslandsedijk"
227.0,0.004292091353053106,0.0069767441860465115,0.0813358001345528,0.010100945566061855,2522603,227,51.882644,4.521342,"Rotterdam, Smeetslandsedijk"
227.0,0.004292091353053106,0.0069767441860465115,0.0813358001345528,0.010100945566061855,2522808,227,51.882411,4.521419,"Rotterdam, Smeetslandsedijk"
227.0,0.004292091353053106,0.0069767441860465115,0.0813358001345528,0.010100945566061855,2522809,227,51.882476,4.521665,"Rotterdam, Smeetslandsedijk"
349.0,0.0010845300431708354,0.004651162790697674,0.07543762753596303,0.0011197846081567012,2522806,349,51.886235,4.521941,"Rotterdam, Hovendaal"
349.0,0.0010845300431708354,0.004651162790697674,0.07543762753596303,0.0011197846081567012,2522807,349,51.886288,4.52178,"Rotterdam, Hovendaal"
350.0,0.0011749652881771354,0.004651162790697674,0.08461040127864418,0.009561175258849686,2522624,350,51.88729,4.521165,"Rotterdam, Beukendaal"
350.0,0.0011749652881771354,0.004651162790697674,0.08461040127864418,0.009561175258849686,2522627,350,51.887699,4.520518,"Rotterdam, Beukendaal"
345.0,0.00047976077292898305,0.004651162790697674,0.08732716757363528,0.005337626661419149,2522798,345,51.88626,4.498743,"Rotterdam, Valkeniersweg"
345.0,0.00047976077292898305,0.004651162790697674,0.08732716757363528,0.005337626661419149,2522799,345,51.886643,4.498328,"Rotterdam, Valkeniersweg"
229.0,0.0038356423401483338,0.004651162790697674,0.08322279069767441,0.010656939959265543,2522936,229,51.894483,4.532533,"Rotterdam, Noorderhelling"
229.0,0.0038356423401483338,0.004651162790697674,0.08322279069767441,0.010656939959265543,2522943,229,51.894386,4.531562,"Rotterdam, Noorderhelling"
320.0,0.01531365746629714,0.004651162790697674,0.08047069299717116,0.008999037138572023,2522937,320,51.893209,4.539066,"Rotterdam, Dwarsdijk"
320.0,0.01531365746629714,0.004651162790697674,0.08047069299717116,0.008999037138572023,2522942,320,51.893435,4.539207,"Rotterdam, Dwarsdijk"
231.0,0.0008542804734997939,0.004651162790697674,0.08778775390050045,0.05446147105034729,2522042,231,51.892094,4.521727,"Rotterdam, Stadionviaduct"
231.0,0.0008542804734997939,0.004651162790697674,0.08778775390050045,0.05446147105034729,2522043,231,51.892367,4.523406,"Rotterdam, Stadionviaduct"
262.0,0.002931174199882425,0.004651162790697674,0.0878618989629164,0.054207893878165464,2521966,262,51.894959,4.531159,"Rotterdam, Stadionweg"
262.0,0.002931174199882425,0.004651162790697674,0.0878618989629164,0.054207893878165464,2522044,262,51.893907,4.52743,"Rotterdam, Stadionweg"
318.0,0.0006954019045951903,0.009302325581395349,0.09131313440605049,0.06532087650277607,2522028,318,51.890477,4.513288,"Rotterdam, Breeplein"
318.0,0.0006954019045951903,0.009302325581395349,0.09131313440605049,0.06532087650277607,2522029,318,51.890492,4.515365,"Rotterdam, Breeplein"
318.0,0.0006954019045951903,0.009302325581395349,0.09131313440605049,0.06532087650277607,2522598,318,51.890839,4.513644,"Rotterdam, Breeplein"
318.0,0.0006954019045951903,0.009302325581395349,0.09131313440605049,0.06532087650277607,2522599,318,51.890246,4.51492,"Rotterdam, Breeplein"
318.0,0.0006954019045951903,0.009302325581395349,0.09131313440605049,0.06532087650277607,2737042,318,51.891235,4.513695,"Rotterdam, Breeplein"
233.0,6.937808219038415e-06,0.004651162790697674,0.07417361024748165,0.013660757846804358,2522687,233,51.912845,4.522373,"Rotterdam, Lage Filterweg"
233.0,6.937808219038415e-06,0.004651162790697674,0.07417361024748165,0.013660757846804358,2522688,233,51.912576,4.52248,"Rotterdam, Lage Filterweg"
234.0,0.00016316430805451398,0.0069767441860465115,0.09837209302325582,0.05065412623552156,2685264,234,51.894764,4.464984,"Rotterdam, Charloisse Hoofd"
234.0,0.00016316430805451398,0.0069767441860465115,0.09837209302325582,0.05065412623552156,2685265,234,51.89461,4.464828,"Rotterdam, Charloisse Hoofd"
289.0,0.0005993695235398672,0.011627906976744186,0.10794136277259976,0.20788667173901984,2522586,289,51.891409,4.478549,"Rotterdam, Pleinweg"
289.0,0.0005993695235398672,0.011627906976744186,0.10794136277259976,0.20788667173901984,2522587,289,51.891325,4.478173,"Rotterdam, Pleinweg"
289.0,0.0005993695235398672,0.011627906976744186,0.10794136277259976,0.20788667173901984,2685268,289,51.891387,4.480438,"Rotterdam, Pleinweg"
289.0,0.0005993695235398672,0.011627906976744186,0.10794136277259976,0.20788667173901984,2685269,289,51.89132,4.479917,"Rotterdam, Pleinweg"
294.0,4.133428848004713e-05,0.004651162790697674,0.08952537725653445,0.006521204893297917,2522788,294,51.894873,4.461757,"Rotterdam, Dokhaven"
294.0,4.133428848004713e-05,0.004651162790697674,0.08952537725653445,0.006521204893297917,2522824,294,51.894652,4.462212,"Rotterdam, Dokhaven"
235.0,1.089360517006625e-06,0.0069767441860465115,0.07818751474790907,0.009139697511790534,2521799,235,51.899969,4.478972,"Rotterdam, Katendrechtsestraat"
235.0,1.089360517006625e-06,0.0069767441860465115,0.07818751474790907,0.009139697511790534,2521811,235,51.900002,4.479712,"Rotterdam, Katendrechtsestraat"
236.0,2.639308273984333e-07,0.002325581395348837,0.07244323702791992,0.0,2521792,236,51.900689,4.476749,"Rotterdam, Katendrechtse Hoofd"
287.0,3.97688397585493e-06,0.004651162790697674,0.0848519481012178,0.013660757846804358,2521781,287,51.899939,4.483216,"Rotterdam, Rechthuislaan"
287.0,3.97688397585493e-06,0.004651162790697674,0.0848519481012178,0.013660757846804358,2521789,287,51.899762,4.48242,"Rotterdam, Rechthuislaan"
237.0,0.061180881584660805,0.004651162790697674,0.07971531676022453,0.008324492045422278,2522938,237,51.891975,4.546222,"Rotterdam, Adriaan Volkerlaan"
237.0,0.061180881584660805,0.004651162790697674,0.07971531676022453,0.008324492045422278,2569680,237,51.892117,4.545871,"Rotterdam, Adriaan Volkerlaan"
244.0,0.24443934796743855,0.009302325581395349,0.08225221456579801,0.014107267722489719,2522321,244,51.891034,4.550337,"Rotterdam, Prinsenplein"
244.0,0.24443934796743855,0.009302325581395349,0.08225221456579801,0.014107267722489719,2522322,244,51.89092,4.550717,"Rotterdam, Prinsenplein"
244.0,0.24443934796743855,0.009302325581395349,0.08225221456579801,0.014107267722489719,2522939,244,51.890462,4.55212,"Rotterdam, Prinsenplein"
244.0,0.24443934796743855,0.009302325581395349,0.08225221456579801,0.014107267722489719,2522940,244,51.890658,4.55184,"Rotterdam, Prinsenplein"
238.0,2.915547153451505e-05,0.004651162790697674,0.10310058312397724,0.15895665615227864,2470537,238,51.923969,4.468485,"Rotterdam, Rotterdam Centraal"
238.0,2.915547153451505e-05,0.004651162790697674,0.10310058312397724,0.15895665615227864,2650861,238,51.923953,4.469997,"Rotterdam, Rotterdam Centraal"
238.0,2.915547153451505e-05,0.004651162790697674,0.10310058312397724,0.15895665615227864,2650862,238,51.923953,4.469997,"Rotterdam, Rotterdam Centraal"
238.0,2.915547153451505e-05,0.004651162790697674,0.10310058312397724,0.15895665615227864,2650863,238,51.923953,4.469997,"Rotterdam, Rotterdam Centraal"
238.0,2.915547153451505e-05,0.004651162790697674,0.10310058312397724,0.15895665615227864,stoparea:341405,238,51.923969,4.468485,"Rotterdam, Rotterdam Centraal"
387.0,0.0001067064357905302,0.0069767441860465115,0.11209966419406575,0.23386773463056612,2522548,387,51.923476,4.478032,"Rotterdam, Stadhuis"
387.0,0.0001067064357905302,0.0069767441860465115,0.11209966419406575,0.23386773463056612,2522549,387,51.923476,4.478032,"Rotterdam, Stadhuis"
387.0,0.0001067064357905302,0.0069767441860465115,0.11209966419406575,0.23386773463056612,2522641,387,51.923272,4.478341,"Rotterdam, Stadhuis"
387.0,0.0001067064357905302,0.0069767441860465115,0.11209966419406575,0.23386773463056612,2522690,387,51.923792,4.478142,"Rotterdam, Stadhuis"
253.0,0.0819105323895622,0.004651162790697674,0.08039295855648611,0.0025678455911013996,2522600,253,51.881572,4.544456,"Rotterdam, Kerstendijk"
253.0,0.0819105323895622,0.004651162790697674,0.08039295855648611,0.0025678455911013996,2522601,253,51.881576,4.543817,"Rotterdam, Kerstendijk"
255.0,0.03871557966621912,0.0069767441860465115,0.08017609893802931,0.006541865644158698,2522924,255,51.877924,4.549666,"Rotterdam, Ruimersdijk"
255.0,0.03871557966621912,0.0069767441860465115,0.08017609893802931,0.006541865644158698,2672078,255,51.877999,4.550114,"Rotterdam, Ruimersdijk"
256.0,0.030909108307138822,0.004651162790697674,0.07834945462029223,0.001541833602331243,2685398,256,51.881069,4.542011,"Rotterdam, Huniadijk"
256.0,0.030909108307138822,0.004651162790697674,0.07834945462029223,0.001541833602331243,2685399,256,51.880412,4.541893,"Rotterdam, Huniadijk"
347.0,0.04310600516642433,0.004651162790697674,0.07834945462029223,0.001140203465784861,2522753,347,51.886669,4.53457,"Rotterdam, Sportlaan"
347.0,0.04310600516642433,0.004651162790697674,0.07834945462029223,0.001140203465784861,2522754,347,51.886506,4.534428,"Rotterdam, Sportlaan"
242.0,0.0681831675550124,0.004651162790697674,0.07720110454329723,0.0007082409407990802,2521573,242,51.887103,4.539849,"Rotterdam, De Twee Heuvels"
242.0,0.0681831675550124,0.004651162790697674,0.07720110454329723,0.0007082409407990802,2521597,242,51.887373,4.541137,"Rotterdam, De Twee Heuvels"
245.0,0.4971463765025946,0.01627906976744186,0.08416544366674193,0.02614674753960907,2521348,245,51.887098,4.54919,"Rotterdam, Keizerswaard"
245.0,0.4971463765025946,0.01627906976744186,0.08416544366674193,0.02614674753960907,2521691,245,51.887628,4.549136,"Rotterdam, Keizerswaard"
245.0,0.4971463765025946,0.01627906976744186,0.08416544366674193,0.02614674753960907,2521898,245,51.887225,4.549362,"Rotterdam, Keizerswaard"
245.0,0.4971463765025946,0.01627906976744186,0.08416544366674193,0.02614674753960907,2522037,245,51.887536,4.548935,"Rotterdam, Keizerswaard"
245.0,0.4971463765025946,0.01627906976744186,0.08416544366674193,0.02614674753960907,2522331,245,51.88725,4.549042,"Rotterdam, Keizerswaard"
245.0,0.4971463765025946,0.01627906976744186,0.08416544366674193,0.02614674753960907,2522621,245,51.887618,4.549035,"Rotterdam, Keizerswaard"
245.0,0.4971463765025946,0.01627906976744186,0.08416544366674193,0.02614674753960907,2522813,245,51.887467,4.549256,"Rotterdam, Keizerswaard"
245.0,0.4971463765025946,0.01627906976744186,0.08416544366674193,0.02614674753960907,2548822,245,51.887225,4.549362,"Rotterdam, Keizerswaard"
246.0,0.4099001223479695,0.011627906976744186,0.08165501442079515,0.002981309270949864,2522320,246,51.888088,4.553137,"Rotterdam, Grote Hagen"
246.0,0.4099001223479695,0.011627906976744186,0.08165501442079515,0.002981309270949864,2522330,246,51.887456,4.552786,"Rotterdam, Grote Hagen"
246.0,0.4099001223479695,0.011627906976744186,0.08165501442079515,0.002981309270949864,2522604,246,51.887193,4.553706,"Rotterdam, Grote Hagen"
251.0,0.23293400797951613,0.0069767441860465115,0.08037742968676301,0.0024043421929256974,2522607,251,51.883526,4.552466,"Rotterdam, Bredenoord"
251.0,0.23293400797951613,0.0069767441860465115,0.08037742968676301,0.0024043421929256974,2522608,251,51.883432,4.551989,"Rotterdam, Bredenoord"
247.0,0.2112882557529241,0.004651162790697674,0.08106642382395715,0.0,2521910,247,51.88564,4.552703,"Rotterdam, De Hagen"
248.0,0.1019993971512949,0.004651162790697674,0.08067350784962624,0.005354832280348621,2521785,248,51.881179,4.558799,"Rotterdam, Nieuwenoord"
248.0,0.1019993971512949,0.004651162790697674,0.08067350784962624,0.005354832280348621,2521786,248,51.880678,4.559084,"Rotterdam, Nieuwenoord"
250.0,0.03314343195013082,0.004651162790697674,0.07953248346490292,0.004342201500275985,2522925,250,51.879241,4.554129,"Rotterdam, Herenoord"
250.0,0.03314343195013082,0.004651162790697674,0.07953248346490292,0.004342201500275985,2685397,250,51.879248,4.553882,"Rotterdam, Herenoord"
250.0,0.03314343195013082,0.004651162790697674,0.07953248346490292,0.004342201500275985,2865444,250,51.879476,4.554371,"Rotterdam, Herenoord"
252.0,0.002731549979827816,0.002325581395348837,0.0748810425568422,0.0,2703580,252,51.870564,4.548757,"Rotterdam, Reijerwaard"
252.0,0.002731549979827816,0.002325581395348837,0.0748810425568422,0.0,2703581,252,51.87079,4.548826,"Rotterdam, Reijerwaard"
254.0,0.0010902068420691048,0.004651162790697674,0.08081451805950128,0.0018238116123951125,2522345,254,51.869963,4.533957,"Rotterdam, Hordijk"
254.0,0.0010902068420691048,0.004651162790697674,0.08081451805950128,0.0018238116123951125,2522365,254,51.869811,4.534004,"Rotterdam, Hordijk"
323.0,0.003657603861090428,0.004651162790697674,0.07821690855044588,0.0017614966663592438,2522339,323,51.871865,4.528476,"Rotterdam, Maeterlinckweg"
323.0,0.003657603861090428,0.004651162790697674,0.07821690855044588,0.0017614966663592438,2522364,323,51.87174,4.528551,"Rotterdam, Maeterlinckweg"
419.0,0.000967405153184818,0.004651162790697674,0.0851819761491038,0.0048156752807915724,2521410,419,51.864117,4.474846,"Rotterdam, Driemanssteeweg"
419.0,0.000967405153184818,0.004651162790697674,0.0851819761491038,0.0048156752807915724,2521413,419,51.864137,4.475107,"Rotterdam, Driemanssteeweg"
257.0,0.016399321536767257,0.004651162790697674,0.07417361024748165,1.626280696048138e-05,2685395,257,51.87653,4.544638,"Rotterdam, Appeldijk"
257.0,0.016399321536767257,0.004651162790697674,0.07417361024748165,1.626280696048138e-05,2685396,257,51.876612,4.544694,"Rotterdam, Appeldijk"
316.0,5.9951238464775584e-05,0.011627906976744186,0.10213891838202556,0.06623017389361516,2470542,316,51.903675,4.49696,"Rotterdam, Rijnhaven"
316.0,5.9951238464775584e-05,0.011627906976744186,0.10213891838202556,0.06623017389361516,2521794,316,51.90362,4.496714,"Rotterdam, Rijnhaven"
316.0,5.9951238464775584e-05,0.011627906976744186,0.10213891838202556,0.06623017389361516,2521795,316,51.903675,4.49696,"Rotterdam, Rijnhaven"
316.0,5.9951238464775584e-05,0.011627906976744186,0.10213891838202556,0.06623017389361516,2522554,316,51.903287,4.496706,"Rotterdam, Rijnhaven"
316.0,5.9951238464775584e-05,0.011627906976744186,0.10213891838202556,0.06623017389361516,2522555,316,51.904089,4.496966,"Rotterdam, Rijnhaven"
316.0,5.9951238464775584e-05,0.011627906976744186,0.10213891838202556,0.06623017389361516,stoparea:341100,316,51.903675,4.49696,"Rotterdam, Rijnhaven"
260.0,6.489096223168004e-06,0.004651162790697674,0.0737137207242466,0.0038443468676026826,2522906,260,51.885263,4.459369,"Rotterdam, Schulpplein"
260.0,6.489096223168004e-06,0.004651162790697674,0.0737137207242466,0.0038443468676026826,2685242,260,51.885263,4.459369,"Rotterdam, Schulpplein"
309.0,7.116676596236404e-06,0.004651162790697674,0.07747420470831728,0.006773459099040492,2699730,309,51.883936,4.460921,"Rotterdam, Wigboldstraat"
309.0,7.116676596236404e-06,0.004651162790697674,0.07747420470831728,0.006773459099040492,2699734,309,51.88407,4.460759,"Rotterdam, Wigboldstraat"
417.0,2.0285987377820184e-05,0.004651162790697674,0.072091814533675,0.00257855839251188,2699732,417,51.881166,4.45848,"Rotterdam, Sportcomplex Schulpweg"
417.0,2.0285987377820184e-05,0.004651162790697674,0.072091814533675,0.00257855839251188,2699733,417,51.881365,4.458621,"Rotterdam, Sportcomplex Schulpweg"
261.0,0.00017453799507339505,0.004651162790697674,0.0898540171644077,0.008845598845598846,2522747,261,51.885983,4.469827,"Rotterdam, Nachtegaalplein"
261.0,0.00017453799507339505,0.004651162790697674,0.0898540171644077,0.008845598845598846,2522748,261,51.88609,4.469651,"Rotterdam, Nachtegaalplein"
290.0,4.4050585110393527e-05,0.004651162790697674,0.08269355196509778,0.004557638743685255,2522749,290,51.886859,4.466846,"Rotterdam, Arendsweg"
290.0,4.4050585110393527e-05,0.004651162790697674,0.08269355196509778,0.004557638743685255,2522750,290,51.886834,4.467137,"Rotterdam, Arendsweg"
304.0,0.0006945690956262217,0.0069767441860465115,0.09855849206261773,0.017797370588068257,2669750,304,51.885786,4.473332,"Rotterdam, Wielewaalstraat"
304.0,0.0006945690956262217,0.0069767441860465115,0.09855849206261773,0.017797370588068257,2669751,304,51.885912,4.472182,"Rotterdam, Wielewaalstraat"
393.0,0.0002871478871852721,0.013953488372093023,0.11892367919073223,0.350903617521285,2521334,393,51.918393,4.480926,"Rotterdam, Beurs"
393.0,0.0002871478871852721,0.013953488372093023,0.11892367919073223,0.350903617521285,2521335,393,51.918393,4.480926,"Rotterdam, Beurs"
393.0,0.0002871478871852721,0.013953488372093023,0.11892367919073223,0.350903617521285,2522294,393,51.918347,4.480708,"Rotterdam, Beurs"
393.0,0.0002871478871852721,0.013953488372093023,0.11892367919073223,0.350903617521285,2522550,393,51.918404,4.481143,"Rotterdam, Beurs"
393.0,0.0002871478871852721,0.013953488372093023,0.11892367919073223,0.350903617521285,2522551,393,51.918404,4.481143,"Rotterdam, Beurs"
393.0,0.0002871478871852721,0.013953488372093023,0.11892367919073223,0.350903617521285,2522689,393,51.918875,4.480465,"Rotterdam, Beurs"
396.0,0.00012595534877338888,0.0069767441860465115,0.10617860512589235,0.028467320792902182,2522727,396,51.914977,4.475093,"Rotterdam, Museumpark"
396.0,0.00012595534877338888,0.0069767441860465115,0.10617860512589235,0.028467320792902182,2522740,396,51.914753,4.47517,"Rotterdam, Museumpark"
397.0,0.00022897203269594714,0.0069767441860465115,0.11176845379757509,0.005944932293788636,2522642,397,51.919486,4.475801,"Rotterdam, Lijnbaan"
397.0,0.00022897203269594714,0.0069767441860465115,0.11176845379757509,0.005944932293788636,2522664,397,51.9196,4.476584,"Rotterdam, Lijnbaan"
398.0,0.00017042763829756477,0.0069767441860465115,0.10870270467303346,0.02539974237648659,2521105,398,51.917087,4.478234,"Rotterdam, Westblaak"
398.0,0.00017042763829756477,0.0069767441860465115,0.10870270467303346,0.02539974237648659,2521109,398,51.917147,4.476692,"Rotterdam, Westblaak"
404.0,7.924749244662178e-06,0.004651162790697674,0.08829067546963125,0.015766178872873512,2522276,404,51.93079,4.478713,"Rotterdam, Noordsingel"
404.0,7.924749244662178e-06,0.004651162790697674,0.08829067546963125,0.015766178872873512,2522678,404,51.929582,4.480627,"Rotterdam, Noordsingel"
271.0,0.00025464130923372825,0.004651162790697674,0.08658217925267835,0.024401438354926728,2522854,271,51.877833,4.470139,"Rotterdam, Kerkwervesingel"
271.0,0.00025464130923372825,0.004651162790697674,0.08658217925267835,0.024401438354926728,2522857,271,51.877868,4.470036,"Rotterdam, Kerkwervesingel"
282.0,9.34271757208525e-05,0.004651162790697674,0.09008745474959343,0.026086471667867015,2522855,282,51.881405,4.469427,"Rotterdam, Pendrechtseweg"
282.0,9.34271757208525e-05,0.004651162790697674,0.09008745474959343,0.026086471667867015,2522856,282,51.882477,4.470915,"Rotterdam, Pendrechtseweg"
272.0,8.13503299648498e-05,0.009302325581395349,0.07486756989715222,0.05228360786500322,2521553,272,51.876554,4.45721,"Rotterdam, Korperweg"
272.0,8.13503299648498e-05,0.009302325581395349,0.07486756989715222,0.05228360786500322,2521554,272,51.877024,4.456387,"Rotterdam, Korperweg"
279.0,0.00027050154460714506,0.0069767441860465115,0.08029987523897571,0.07233923699039982,2521804,279,51.876035,4.463175,"Rotterdam, Slingedael"
279.0,0.00027050154460714506,0.0069767441860465115,0.08029987523897571,0.07233923699039982,2521805,279,51.876029,4.463538,"Rotterdam, Slingedael"
311.0,2.559943326021366e-05,0.004651162790697674,0.06970082973004557,0.0,2522882,311,51.87816,4.452297,"Rotterdam, Pottumstraat"
276.0,0.0007945466756577233,0.004651162790697674,0.08533920293034702,0.010017501216070097,2522775,276,51.873523,4.483514,"Rotterdam, Asterlo"
276.0,0.0007945466756577233,0.004651162790697674,0.08533920293034702,0.010017501216070097,2522776,276,51.873336,4.483648,"Rotterdam, Asterlo"
274.0,4.110916887828176e-06,0.002325581395348837,0.08391085974760477,0.0,2470544,274,51.874364,4.478284,"Rotterdam, Slinge"
274.0,4.110916887828176e-06,0.002325581395348837,0.08391085974760477,0.0,2522560,274,51.874295,4.477544,"Rotterdam, Slinge"
274.0,4.110916887828176e-06,0.002325581395348837,0.08391085974760477,0.0,2522561,274,51.875017,4.477951,"Rotterdam, Slinge"
274.0,4.110916887828176e-06,0.002325581395348837,0.08391085974760477,0.0,2522563,274,51.875017,4.477951,"Rotterdam, Slinge"
274.0,4.110916887828176e-06,0.002325581395348837,0.08391085974760477,0.0,stoparea:373079,274,51.874364,4.478284,"Rotterdam, Slinge"
275.0,0.0007169999480339793,0.009302325581395349,0.08047069299717116,0.008550946171697516,2522634,275,51.87401,4.495398,"Rotterdam, Langenhorst"
275.0,0.0007169999480339793,0.009302325581395349,0.08047069299717116,0.008550946171697516,2522635,275,51.874067,4.495832,"Rotterdam, Langenhorst"
275.0,0.0007169999480339793,0.009302325581395349,0.08047069299717116,0.008550946171697516,2522773,275,51.874082,4.495454,"Rotterdam, Langenhorst"
275.0,0.0007169999480339793,0.009302325581395349,0.08047069299717116,0.008550946171697516,2522774,275,51.874117,4.496557,"Rotterdam, Langenhorst"
277.0,0.0003566085815811745,0.004651162790697674,0.0820252224499058,0.007529317565095741,2522777,277,51.873531,4.489177,"Rotterdam, Larenkamp"
277.0,0.0003566085815811745,0.004651162790697674,0.0820252224499058,0.007529317565095741,2522778,277,51.873393,4.489921,"Rotterdam, Larenkamp"
412.0,0.0006166779012228082,0.004651162790697674,0.07710097340899984,0.0,2522779,412,51.876733,4.503738,"Rotterdam, Zuiderbegraafplaats"
412.0,0.0006166779012228082,0.004651162790697674,0.07710097340899984,0.0,2522780,412,51.876859,4.504926,"Rotterdam, Zuiderbegraafplaats"
424.0,2.4768168420768113e-05,0.004651162790697674,0.06943333113438546,0.0004662004662004662,2699742,424,51.869679,4.455174,"Rotterdam, Charloisse Lagedijk"
424.0,2.4768168420768113e-05,0.004651162790697674,0.06943333113438546,0.0004662004662004662,2699743,424,51.869095,4.455157,"Rotterdam, Charloisse Lagedijk"
281.0,2.3504077033698496e-05,0.0069767441860465115,0.0830401024722355,0.011088523879221551,2522221,281,51.883122,4.464816,"Rotterdam, Kromme Zandweg"
281.0,2.3504077033698496e-05,0.0069767441860465115,0.0830401024722355,0.011088523879221551,2624680,281,51.883521,4.464111,"Rotterdam, Kromme Zandweg"
281.0,2.3504077033698496e-05,0.0069767441860465115,0.0830401024722355,0.011088523879221551,2699746,281,51.88345,4.464243,"Rotterdam, Kromme Zandweg"
298.0,7.608430793257233e-05,0.0069767441860465115,0.08910363029729595,0.013046385139408397,2699744,298,51.88339,4.468093,"Rotterdam, Albatroslaan"
298.0,7.608430793257233e-05,0.0069767441860465115,0.08910363029729595,0.013046385139408397,2699745,298,51.884192,4.468353,"Rotterdam, Albatroslaan"
307.0,0.0001400855567286108,0.009302325581395349,0.0959893779673292,0.048859022114836066,2522812,307,51.884649,4.471539,"Rotterdam, Fuutstraat"
307.0,0.0001400855567286108,0.009302325581395349,0.0959893779673292,0.048859022114836066,2522844,307,51.88551,4.471406,"Rotterdam, Fuutstraat"
283.0,0.0029516161145266393,0.0069767441860465115,0.09159453081408146,3.885003885003884e-05,2610826,283,51.887286,4.488263,"Rotterdam, Zuidplein Hoog"
283.0,0.0029516161145266393,0.0069767441860465115,0.09159453081408146,3.885003885003884e-05,2610827,283,51.887286,4.488263,"Rotterdam, Zuidplein Hoog"
285.0,0.0001582523324320301,0.004651162790697674,0.10009957986249028,0.032131502993431746,2522588,285,51.894491,4.484255,"Rotterdam, Brielselaan"
285.0,0.0001582523324320301,0.004651162790697674,0.10009957986249028,0.032131502993431746,2522589,285,51.894326,4.483837,"Rotterdam, Brielselaan"
286.0,1.5393620664560965e-05,0.004651162790697674,0.09271701280935207,0.018170976310511195,2521790,286,51.900466,4.487462,"Rotterdam, Lombokstraat"
286.0,1.5393620664560965e-05,0.004651162790697674,0.09271701280935207,0.018170976310511195,2521793,286,51.900533,4.486764,"Rotterdam, Lombokstraat"
288.0,2.639308273984333e-07,0.002325581395348837,0.07244323702791992,0.0,2521809,288,51.898187,4.476276,"Rotterdam, ss Rotterdam"
291.0,0.00015140107390289662,0.004651162790697674,0.09763349448342847,0.013963426754124427,2522224,291,51.891231,4.473047,"Rotterdam, Dorpsweg"
291.0,0.00015140107390289662,0.004651162790697674,0.09763349448342847,0.013963426754124427,2522585,291,51.891417,4.472709,"Rotterdam, Dorpsweg"
410.0,0.0002751780659727135,0.0069767441860465115,0.11185858964741185,0.2437841291481048,2659571,410,51.890342,4.473109,"Rotterdam, Katendrechtse Lagedijk"
410.0,0.0002751780659727135,0.0069767441860465115,0.11185858964741185,0.2437841291481048,2659572,410,51.89033,4.472702,"Rotterdam, Katendrechtse Lagedijk"
308.0,1.1798603840016683e-05,0.004651162790697674,0.07731585906510073,0.0008081582500187152,2522751,308,51.888087,4.462899,"Rotterdam, Verboomstraat"
308.0,1.1798603840016683e-05,0.004651162790697674,0.07731585906510073,0.0008081582500187152,2522752,308,51.888196,4.463071,"Rotterdam, Verboomstraat"
292.0,5.820014023599219e-06,0.004651162790697674,0.07691570304775824,0.0008908404257241465,2521578,292,51.892174,4.464892,"Rotterdam, Kaatsbaan"
292.0,5.820014023599219e-06,0.004651162790697674,0.07691570304775824,0.0008908404257241465,2521579,292,51.892354,4.464888,"Rotterdam, Kaatsbaan"
293.0,1.274698202999007e-05,0.004651162790697674,0.0831396510466278,0.004858526486433464,2521583,293,51.893343,4.462602,"Rotterdam, Rietdijk"
293.0,1.274698202999007e-05,0.004651162790697674,0.0831396510466278,0.004858526486433464,2521584,293,51.893199,4.462692,"Rotterdam, Rietdijk"
300.0,1.11552269091807e-05,0.004651162790697674,0.08213856168345283,0.0021203086319365387,2522789,300,51.895806,4.455795,"Rotterdam, Willingestraat"
300.0,1.11552269091807e-05,0.004651162790697674,0.08213856168345283,0.0021203086319365387,2522790,300,51.895611,4.457252,"Rotterdam, Willingestraat"
296.0,0.000157468491489279,0.0069767441860465115,0.090538284048819,0.005091626719533695,2699735,296,51.888331,4.474675,"Rotterdam, Carnissehuis"
296.0,0.000157468491489279,0.0069767441860465115,0.090538284048819,0.005091626719533695,2699736,296,51.888226,4.474953,"Rotterdam, Carnissehuis"
302.0,0.00044969070532025715,0.004651162790697674,0.08797335168887359,0.0036713415783183223,2699740,302,51.888383,4.479003,"Rotterdam, Utenhagestraat"
302.0,0.00044969070532025715,0.004651162790697674,0.08797335168887359,0.0036713415783183223,2699741,302,51.888245,4.478584,"Rotterdam, Utenhagestraat"
299.0,5.669510178959269e-06,0.004651162790697674,0.07666063992048124,0.0001526896875734085,2522791,299,51.896355,4.452573,"Rotterdam, Eekhoutstraat"
299.0,5.669510178959269e-06,0.004651162790697674,0.07666063992048124,0.0001526896875734085,2522792,299,51.89647,4.452251,"Rotterdam, Eekhoutstraat"
378.0,1.2713823684865008e-05,0.004651162790697674,0.08305667734298844,0.0025859670045716553,2522793,378,51.896851,4.448233,"Rotterdam, Kortenoord"
378.0,1.2713823684865008e-05,0.004651162790697674,0.08305667734298844,0.0025859670045716553,2522794,378,51.896927,4.447665,"Rotterdam, Kortenoord"
306.0,0.00026361460142566514,0.0069767441860465115,0.10410656829831676,0.06674883256278605,2669752,306,51.888213,4.472208,"Rotterdam, Gruttostraat"
306.0,0.00026361460142566514,0.0069767441860465115,0.10410656829831676,0.06674883256278605,2669753,306,51.888058,4.471891,"Rotterdam, Gruttostraat"
305.0,1.3302829753530654e-05,0.004651162790697674,0.08396165324624134,0.01910544236125632,2522877,305,51.887458,4.458379,"Rotterdam, Pannerdenstraat"
305.0,1.3302829753530654e-05,0.004651162790697674,0.08396165324624134,0.01910544236125632,2522879,305,51.888408,4.459188,"Rotterdam, Pannerdenstraat"
414.0,8.168825952743474e-06,0.004651162790697674,0.07854170507519292,0.01570935524423897,2522880,414,51.885083,4.457005,"Rotterdam, Waalhaven Oostzijde"
414.0,8.168825952743474e-06,0.004651162790697674,0.07854170507519292,0.01570935524423897,2522881,414,51.885645,4.457618,"Rotterdam, Waalhaven Oostzijde"
310.0,2.1172623164599543e-05,0.004651162790697674,0.07579489134578726,0.01352575073505306,2521561,310,51.88018,4.454201,"Rotterdam, Opijnenstraat"
310.0,2.1172623164599543e-05,0.004651162790697674,0.07579489134578726,0.01352575073505306,2522878,310,51.881238,4.455095,"Rotterdam, Opijnenstraat"
421.0,2.6894728859674563e-05,0.0069767441860465115,0.06980606500392082,0.040396812489835746,2521555,421,51.878373,4.44856,"Rotterdam, Anthony Fokkerweg"
421.0,2.6894728859674563e-05,0.0069767441860465115,0.06980606500392082,0.040396812489835746,2521556,421,51.878731,4.447318,"Rotterdam, Anthony Fokkerweg"
370.0,5.587590722675767e-05,0.0069767441860465115,0.09220340205813696,0.03621834798438041,2522709,370,51.930012,4.496962,"Rotterdam, Boezemsingel"
370.0,5.587590722675767e-05,0.0069767441860465115,0.09220340205813696,0.03621834798438041,2522719,370,51.929706,4.496851,"Rotterdam, Boezemsingel"
335.0,5.155360814365661e-05,0.004651162790697674,0.09610022020516676,0.01687553211622164,2522592,335,51.897334,4.502403,"Rotterdam, Putsebocht"
335.0,5.155360814365661e-05,0.004651162790697674,0.09610022020516676,0.01687553211622164,2522593,335,51.897566,4.502137,"Rotterdam, Putsebocht"
325.0,0.006027471837249811,0.004651162790697674,0.08483464902922978,0.005957037066160502,2522783,325,51.877245,4.51202,"Rotterdam, Victor Hugoweg"
325.0,0.006027471837249811,0.004651162790697674,0.08483464902922978,0.005957037066160502,2522784,325,51.876619,4.513703,"Rotterdam, Victor Hugoweg"
341.0,1.3745522152269398e-05,0.0069767441860465115,0.09139335679516189,0.022157863007594675,2522052,341,51.912313,4.502893,"Rotterdam, Roentgenstraat"
341.0,1.3745522152269398e-05,0.0069767441860465115,0.09139335679516189,0.022157863007594675,2522064,341,51.912248,4.502633,"Rotterdam, Roentgenstraat"
375.0,2.0511398469040015e-05,0.004651162790697674,0.0892756819327123,0.00012194523822430795,2521107,375,51.915403,4.497774,"Rotterdam, Willemsbrug"
375.0,2.0511398469040015e-05,0.004651162790697674,0.0892756819327123,0.00012194523822430795,2522083,375,51.915387,4.498109,"Rotterdam, Willemsbrug"
332.0,4.561503087962627e-06,0.0069767441860465115,0.08380945689594603,0.01143277910719769,2521469,332,51.913956,4.506204,"Rotterdam, Nassauhaven"
332.0,4.561503087962627e-06,0.0069767441860465115,0.08380945689594603,0.01143277910719769,2522063,332,51.913647,4.505745,"Rotterdam, Nassauhaven"
332.0,4.561503087962627e-06,0.0069767441860465115,0.08380945689594603,0.01143277910719769,2522065,332,51.913521,4.505646,"Rotterdam, Nassauhaven"
342.0,1.7963770790676962e-06,0.004651162790697674,0.07827576250721822,0.0,2521468,342,51.912349,4.508808,"Rotterdam, Zinkerstraat"
343.0,3.1521520691616932e-06,0.004651162790697674,0.08252954254033561,0.007396402047564838,2522884,343,51.908536,4.507429,"Rotterdam, Damstraat"
336.0,0.00014952801094066283,0.009302325581395349,0.09526418349092768,0.030568931739853807,2521601,336,51.895642,4.506868,"Rotterdam, Hillevliet"
336.0,0.00014952801094066283,0.009302325581395349,0.09526418349092768,0.030568931739853807,2522594,336,51.895569,4.505504,"Rotterdam, Hillevliet"
336.0,0.00014952801094066283,0.009302325581395349,0.09526418349092768,0.030568931739853807,2522595,336,51.895179,4.506281,"Rotterdam, Hillevliet"
336.0,0.00014952801094066283,0.009302325581395349,0.09526418349092768,0.030568931739853807,2522743,336,51.895902,4.506776,"Rotterdam, Hillevliet"
346.0,0.00017517303756645788,0.004651162790697674,0.08960248783126014,0.005477135619841753,2521599,346,51.892855,4.501954,"Rotterdam, Lange Hilleweg"
346.0,0.00017517303756645788,0.004651162790697674,0.08960248783126014,0.005477135619841753,2522741,346,51.893476,4.502101,"Rotterdam, Lange Hilleweg"
339.0,1.0842596123684003e-05,0.0069767441860465115,0.08758449873466051,0.009139697511790534,2521861,339,51.909662,4.481668,"Rotterdam, Westerstraat"
399.0,3.7114704059065894e-05,0.0069767441860465115,0.09603368416532934,0.018203501924432156,2521356,399,51.90969,4.478296,"Rotterdam, Westplein"
399.0,3.7114704059065894e-05,0.0069767441860465115,0.09603368416532934,0.018203501924432156,2522726,399,51.909869,4.478263,"Rotterdam, Westplein"
352.0,0.00031172498954429225,0.004651162790697674,0.07379215348259835,0.00033501382338591647,2522804,352,51.885554,4.514909,"Rotterdam, Langegeer"
352.0,0.00031172498954429225,0.004651162790697674,0.07379215348259835,0.00033501382338591647,2522805,352,51.885618,4.515068,"Rotterdam, Langegeer"
372.0,0.00012011758811570712,0.0069767441860465115,0.09966801281158612,0.03452912661964987,2759138,372,51.928319,4.496457,"Rotterdam, Boezemweg"
372.0,0.00012011758811570712,0.0069767441860465115,0.09966801281158612,0.03452912661964987,2759139,372,51.92803,4.496347,"Rotterdam, Boezemweg"
391.0,0.00015544571121620695,0.004651162790697674,0.1127680090754396,0.20041751098045438,2521331,391,51.920034,4.489731,"Rotterdam, Blaak"
391.0,0.00015544571121620695,0.004651162790697674,0.1127680090754396,0.20041751098045438,2521333,391,51.920034,4.489731,"Rotterdam, Blaak"
60.0,8.628436791959962e-08,0.002325581395348837,0.06647187755405304,0.0,2548204,60,51.937474,4.492407,"Rotterdam, Kerkhoflaan Buffer"
390.0,0.00010241234866700816,0.0069767441860465115,0.10944606877653132,0.08256227139622815,2522295,390,51.912694,4.482029,"Rotterdam, Leuvehaven"
390.0,0.00010241234866700816,0.0069767441860465115,0.10944606877653132,0.08256227139622815,2522319,390,51.913197,4.482062,"Rotterdam, Leuvehaven"
390.0,0.00010241234866700816,0.0069767441860465115,0.10944606877653132,0.08256227139622815,2522552,390,51.913699,4.481761,"Rotterdam, Leuvehaven"
390.0,0.00010241234866700816,0.0069767441860465115,0.10944606877653132,0.08256227139622815,2522553,390,51.913699,4.481761,"Rotterdam, Leuvehaven"
361.0,0.00010112029661286485,0.0069767441860465115,0.0937193588937775,0.012998506394945793,2522647,361,51.929423,4.502208,"Rotterdam, Vlietlaan"
361.0,0.00010112029661286485,0.0069767441860465115,0.0937193588937775,0.012998506394945793,2522657,361,51.92925,4.501949,"Rotterdam, Vlietlaan"
374.0,7.983614732291903e-06,0.004651162790697674,0.08895125128011373,0.005262050610887817,2547573,374,51.930767,4.469974,"Rotterdam, Walenburgerweg"
374.0,7.983614732291903e-06,0.004651162790697674,0.08895125128011373,0.005262050610887817,2547586,374,51.930491,4.470329,"Rotterdam, Walenburgerweg"
373.0,2.883316152331239e-05,0.004651162790697674,0.09539522088224946,0.019569868723075014,2522275,373,51.927335,4.478332,"Rotterdam, Heer Bokelweg"
373.0,2.883316152331239e-05,0.004651162790697674,0.09539522088224946,0.019569868723075014,2522305,373,51.92726,4.477926,"Rotterdam, Heer Bokelweg"
388.0,2.88482677766032e-05,0.004651162790697674,0.09557049919347085,0.00878927274276111,2547587,388,51.927684,4.474719,"Rotterdam, Schiekade"
388.0,2.88482677766032e-05,0.004651162790697674,0.09557049919347085,0.00878927274276111,2547588,388,51.928271,4.473907,"Rotterdam, Schiekade"
413.0,4.7891424732712264e-05,0.009302325581395349,0.09061715014990682,0.037770911259283356,2521585,413,51.893598,4.460751,"Rotterdam, Waalhaven Noordzijde"
413.0,4.7891424732712264e-05,0.009302325581395349,0.09061715014990682,0.037770911259283356,2669760,413,51.893627,4.461012,"Rotterdam, Waalhaven Noordzijde"
413.0,4.7891424732712264e-05,0.009302325581395349,0.09061715014990682,0.037770911259283356,2685263,413,51.893627,4.461012,"Rotterdam, Waalhaven Noordzijde"
380.0,1.6933073738428075e-05,0.004651162790697674,0.09304873736323167,0.010480114201044435,2522297,380,51.909627,4.471321,"Rotterdam, Kievitslaan"
380.0,1.6933073738428075e-05,0.004651162790697674,0.09304873736323167,0.010480114201044435,2522317,380,51.909738,4.471828,"Rotterdam, Kievitslaan"
392.0,6.210051732567586e-05,0.0069767441860465115,0.10249112154886013,0.017538714515458707,2765233,392,51.91135,4.476824,"Rotterdam, Vasteland"
392.0,6.210051732567586e-05,0.0069767441860465115,0.10249112154886013,0.017538714515458707,2765234,392,51.911407,4.477157,"Rotterdam, Vasteland"
392.0,6.210051732567586e-05,0.0069767441860465115,0.10249112154886013,0.017538714515458707,2834268,392,51.91172,4.47811,"Rotterdam, Vasteland"
392.0,6.210051732567586e-05,0.0069767441860465115,0.10249112154886013,0.017538714515458707,2834269,392,51.911786,4.47853,"Rotterdam, Vasteland"
381.0,7.692218373690764e-05,0.004651162790697674,0.10539867109634551,0.09429372163024688,2521650,381,51.909301,4.458509,"Rotterdam, Coolhaven"
381.0,7.692218373690764e-05,0.004651162790697674,0.10539867109634551,0.09429372163024688,2521651,381,51.909301,4.458509,"Rotterdam, Coolhaven"
394.0,9.53745657888271e-06,0.004651162790697674,0.0878804548021905,0.007190594352539475,2834266,394,51.924858,4.485855,"Rotterdam, Meent"
394.0,9.53745657888271e-06,0.004651162790697674,0.0878804548021905,0.007190594352539475,2834267,394,51.925049,4.485007,"Rotterdam, Meent"
401.0,9.434375441621131e-06,0.002325581395348837,0.08751082092289635,0.0,2521862,401,51.9091,4.482217,"Rotterdam, Willemskade"
400.0,2.761191212337133e-06,0.002325581395348837,0.08043958118855057,0.0,2834270,400,51.909839,4.482551,"Rotterdam, Willemsplein"
405.0,2.2167924189683095e-08,0.002325581395348837,0.06229250800724132,0.0,2548195,405,51.937191,4.491773,"Rotterdam, Kerkhoflaan"
409.0,2.329061697935398e-07,0.002325581395348837,0.07194224645372962,0.0,2888608,409,51.918738,4.433573,"Rotterdam, Spartastraat spoor 1"
411.0,0.00016901201143554927,0.002325581395348837,0.07439906195036153,0.0,2521337,411,51.869193,4.497991,"Rotterdam, Vrijenburgerbos"
411.0,0.00016901201143554927,0.002325581395348837,0.07439906195036153,0.0,2522636,411,51.86912,4.497803,"Rotterdam, Vrijenburgerbos"
415.0,6.7671784178041055e-06,0.004651162790697674,0.06535479087299703,0.035995012739198785,2521557,415,51.87916,4.44134,"Rotterdam, Waalhaven Zuidzijde"
415.0,6.7671784178041055e-06,0.004651162790697674,0.06535479087299703,0.035995012739198785,2521558,415,51.879433,4.440608,"Rotterdam, Waalhaven Zuidzijde"
418.0,3.772849966068561e-06,0.002325581395348837,0.07671717431570281,0.0,2521349,418,51.883167,4.464844,"Rotterdam, Kromme Zandweg spoor 2"
422.0,1.2571242869647208e-06,0.004651162790697674,0.06092444414178215,0.004575269691548761,2522860,422,51.872013,4.436829,"Rotterdam, Albert Plesmanweg"
422.0,1.2571242869647208e-06,0.004651162790697674,0.06092444414178215,0.004575269691548761,2522861,422,51.871936,4.437252,"Rotterdam, Albert Plesmanweg"
423.0,2.977104971605187e-07,0.002325581395348837,0.05737919932272091,0.0,2522834,423,51.875403,4.432531,"Rotterdam, Antonie Bodaanweg"
423.0,2.977104971605187e-07,0.002325581395348837,0.05737919932272091,0.0,2522835,423,51.875354,4.433099,"Rotterdam, Antonie Bodaanweg"
425.0,2.5449223389911664e-05,0.004651162790697674,0.06907602149541368,0.00013010245568385103,2522908,425,51.866087,4.463568,"Rotterdam, Loek Elfferichweg"
425.0,2.5449223389911664e-05,0.004651162790697674,0.06907602149541368,0.00013010245568385103,2699737,425,51.866113,4.463437,"Rotterdam, Loek Elfferichweg"
427.0,2.761191212337133e-06,0.002325581395348837,0.08043958118855057,0.0,2865443,427,51.90983,4.482537,"Rotterdam, Willemsplein Spoor 2"
437.0,2.606522086851739e-28,0.004651162790697674,0.0064400715563506265,8.673497045590068e-05,2855202,437,51.975331,4.589372,"Rotterdam, Laan van Het Surrealisme"
437.0,2.606522086851739e-28,0.004651162790697674,0.0064400715563506265,8.673497045590068e-05,2855203,437,51.974757,4.589615,"Rotterdam, Laan van Het Surrealisme"
430.0,2.606522086851739e-28,0.004651162790697674,0.0064400715563506265,8.673497045590068e-05,2855195,430,51.980884,4.59038,"Rotterdam, Cesar Domelastraat"
430.0,2.606522086851739e-28,0.004651162790697674,0.0064400715563506265,8.673497045590068e-05,2855196,430,51.980729,4.590077,"Rotterdam, Cesar Domelastraat"
431.0,2.8212791766981765e-28,0.004651162790697674,0.0069767441860465115,9.757684176288828e-05,2855199,431,51.978689,4.586169,"Rotterdam, Nesselande Metro"
431.0,2.8212791766981765e-28,0.004651162790697674,0.0069767441860465115,9.757684176288828e-05,2855200,431,51.978654,4.586257,"Rotterdam, Nesselande Metro"
431.0,2.8212791766981765e-28,0.004651162790697674,0.0069767441860465115,9.757684176288828e-05,2855201,431,51.978628,4.586388,"Rotterdam, Nesselande Metro"
436.0,1.9949456374636804e-28,0.004651162790697674,0.005232558139534884,5.420935653493793e-05,2855193,436,51.984948,4.590555,"Rotterdam, Wout van Heusdensingel"
436.0,1.9949456374636804e-28,0.004651162790697674,0.005232558139534884,5.420935653493793e-05,2855198,436,51.985049,4.590932,"Rotterdam, Wout van Heusdensingel"
432.0,1.079656798999013e-28,0.002325581395348837,0.003986710963455149,0.0,2855194,432,51.987668,4.596723,"Rotterdam, Brandingdijk"
432.0,1.079656798999013e-28,0.002325581395348837,0.003986710963455149,0.0,2855197,432,51.987563,4.597104,"Rotterdam, Brandingdijk"
433.0,4.34103656912771e-07,0.002325581395348837,0.0645137912385073,0.0,2521369,433,51.907937,4.523558,"Rotterdam, Opstelspoor De Esch spoor 2"
440.0,7.951056240734715e-11,0.002325581395348837,0.05401972653360666,0.0,2522666,440,51.959508,4.503404,"Rotterdam, Burg. van Kempensingel spoor 2"
