stop_id,stop_name,stop_lat,stop_lon,clust,Node,Eigenvector Centrality,Degree Centrality,Closeness Centrality,Betweenness Centrality
007877,Bíróság,47.519544,18.97806,2120,2120.0,3.2314658460656614e-07,0.000983767830791933,0.05405333546037064,0.006866041031639369
007878,Bíróság,47.519418,18.978021,2120,2120.0,3.2314658460656614e-07,0.000983767830791933,0.05405333546037064,0.006866041031639369
007879,"Római úti lakótelep, Varsa utca",47.570863,19.058543,1752,1752.0,6.2607131788810625e-09,0.0004918839153959665,0.04976500538529326,0.0
007881,Váradi utca,47.543722,19.030125,1947,1947.0,1.9852159987255306e-06,0.001967535661583866,0.06132175067113082,0.0012713912741004947
007883,Perényi út,47.5458,19.029579,1973,1973.0,1.0291452343460439e-06,0.000983767830791933,0.05790208196861382,0.0
007884,Deák Ferenc tér M,47.497413,19.055158,366,366.0,0.002881170524049029,0.004426955238563699,0.09729600382866714,0.2526679187957686
007885,Dorottya utca (Vörösmarty tér M),47.497476,19.049623,369,369.0,0.0006732052278956986,0.0014756517461878996,0.09002745549552742,0.0015807653771373234
007897,Kelenföld vasútállomás M,47.464572,19.022964,1413,1413.0,0.00014721160128550767,0.004426955238563699,0.07229472636108246,0.0676980425782687
007898,Kelenföld vasútállomás M,47.464653,19.023017,1413,1413.0,0.00014721160128550767,0.004426955238563699,0.07229472636108246,0.0676980425782687
007900,Maros utcai rendelőintézet,47.503724,19.022401,1260,1260.0,0.0001389269565136759,0.000983767830791933,0.0738118578223142,0.0001862540294773128
007913,526. sor,47.479281,19.211332,77,77.0,2.2466173401840409e-07,0.0014756517461878996,0.04783529411764706,0.0019704839065554586
007914,526. sor,47.4793,19.211468,77,77.0,2.2466173401840409e-07,0.0014756517461878996,0.04783529411764706,0.0019704839065554586
007919,Pólus Center,47.552544,19.143552,815,815.0,5.195913940675147e-06,0.000983767830791933,0.058478354667050196,0.0037434814352000695
007923,Kele utca,47.431808,19.173804,872,872.0,2.202697033980114e-05,0.0014756517461878996,0.06666666666666667,0.00060310970012281
007924,Ültetvény utca,47.396895,19.175423,922,922.0,1.9319020121020328e-05,0.000983767830791933,0.06521251002405774,0.003889728784863498
007927,Ferihegy vasútállomás,47.438423,19.222716,981,981.0,2.7475716193693066e-05,0.000983767830791933,0.060663026288306034,0.0029483986661037764
007928,Ferihegy vasútállomás,47.437667,19.223377,981,981.0,2.7475716193693066e-05,0.000983767830791933,0.060663026288306034,0.0029483986661037764
007930,Savoyai Jenő tér (Törley tér),47.430333,19.036354,1506,1506.0,2.3539472217099386e-08,0.000983767830791933,0.054537650562008745,0.00044287350139762035
007931,Savoyai Jenő tér (Törley tér),47.430369,19.036792,1506,1506.0,2.3539472217099386e-08,0.000983767830791933,0.054537650562008745,0.00044287350139762035
007949,Kocsis Sándor út,47.574343,19.013009,1683,1683.0,1.0870058105353807e-10,0.0014756517461878996,0.042027577367539745,0.0019670515238718626
007950,Keleti pályaudvar M,47.501104,19.082712,494,494.0,0.02466914550783931,0.005410723069355632,0.09295839048925468,0.29468237449917295
007967,Kelenföld vasútállomás M,47.465732,19.021875,1413,1413.0,0.00014721160128550767,0.004426955238563699,0.07229472636108246,0.0676980425782687
007968,Mogyoród útja,47.570602,19.128267,1808,1808.0,6.718927147493361e-08,0.0014756517461878996,0.050436637888260395,0.0
007973,Hűvösvölgy,47.542892,18.964574,2085,2085.0,6.038759540110586e-10,0.0014756517461878996,0.04501572118152429,0.029095950284866633
007974,Hűvösvölgy,47.542605,18.964773,2085,2085.0,6.038759540110586e-10,0.0014756517461878996,0.04501572118152429,0.029095950284866633
007975,Hűvösvölgy,47.543243,18.964281,2085,2085.0,6.038759540110586e-10,0.0014756517461878996,0.04501572118152429,0.029095950284866633
007976,Hűvösvölgy,47.543264,18.963995,2085,2085.0,6.038759540110586e-10,0.0014756517461878996,0.04501572118152429,0.029095950284866633
007977,Hűvösvölgy,47.542968,18.964195,2085,2085.0,6.038759540110586e-10,0.0014756517461878996,0.04501572118152429,0.029095950284866633
007978,Hűvösvölgy,47.542707,18.964355,2085,2085.0,6.038759540110586e-10,0.0014756517461878996,0.04501572118152429,0.029095950284866633
007979,Vörösmarty utca M,47.507468,19.066509,416,416.0,0.00035861604631543534,0.002459419576979833,0.08310509749417487,0.004046792729408668
007980,Vörösmarty utca M,47.507444,19.066767,416,416.0,0.00035861604631543534,0.002459419576979833,0.08310509749417487,0.004046792729408668
007995,Jókai Mór utca,47.410717,19.020681,1642,1642.0,2.8748077074211547e-10,0.002459419576979833,0.048250818816157975,0.01452725836305127
008020,Örs vezér tere M+H,47.500932,19.136306,726,726.0,0.5442157530461749,0.008853910477127398,0.08362469663938135,0.22770854490374898
008021,Örs vezér tere M+H,47.50194,19.136228,726,726.0,0.5442157530461749,0.008853910477127398,0.08362469663938135,0.22770854490374898
008022,Örs vezér tere M+H,47.501517,19.136333,726,726.0,0.5442157530461749,0.008853910477127398,0.08362469663938135,0.22770854490374898
008023,Örs vezér tere M+H,47.501472,19.136134,726,726.0,0.5442157530461749,0.008853910477127398,0.08362469663938135,0.22770854490374898
008024,Örs vezér tere M+H,47.501148,19.136213,726,726.0,0.5442157530461749,0.008853910477127398,0.08362469663938135,0.22770854490374898
008025,Örs vezér tere M+H,47.501778,19.135922,726,726.0,0.5442157530461749,0.008853910477127398,0.08362469663938135,0.22770854490374898
008026,Örs vezér tere M+H,47.501355,19.136028,726,726.0,0.5442157530461749,0.008853910477127398,0.08362469663938135,0.22770854490374898
008028,Örs vezér tere M+H,47.501112,19.135882,726,726.0,0.5442157530461749,0.008853910477127398,0.08362469663938135,0.22770854490374898
008029,Örs vezér tere M+H,47.502111,19.135697,726,726.0,0.5442157530461749,0.008853910477127398,0.08362469663938135,0.22770854490374898
008030,Örs vezér tere M+H,47.501742,19.135604,726,726.0,0.5442157530461749,0.008853910477127398,0.08362469663938135,0.22770854490374898
008036,Kőbányai út 31.,47.487461,19.104252,610,610.0,0.0016552909751423807,0.001967535661583866,0.07942336992616322,0.00020088774335868148
008037,Kőbányai út 31.,47.487452,19.103721,610,610.0,0.0016552909751423807,0.001967535661583866,0.07942336992616322,0.00020088774335868148
008040,Tas vezér utca,47.478606,19.040827,1312,1312.0,0.00012667972026228694,0.000983767830791933,0.07732684188505572,0.004310135341834742
008041,Tas vezér utca,47.478849,19.040827,1312,1312.0,0.00012667972026228694,0.000983767830791933,0.07732684188505572,0.004310135341834742
008047,Lajosmizsei sorompó,47.450468,19.16141,1029,1029.0,0.00010578199681088264,0.0014756517461878996,0.06846962144685437,0.0018186004411777238
008050,Liptó utca,47.4861,19.007031,1230,1230.0,6.850348063055505e-07,0.000983767830791933,0.055848579748365476,0.0032185518809329057
008051,Liptó utca,47.48601,19.007071,1230,1230.0,6.850348063055505e-07,0.000983767830791933,0.055848579748365476,0.0032185518809329057
008067,Szent Imre tér,47.430889,19.0703,1544,1544.0,2.0428846998477672e-07,0.002459419576979833,0.05849349752560709,0.004058321919892904
008087,Fény utcai piac,47.508464,19.023646,1267,1267.0,0.0008084083617852665,0.005902606984751598,0.08419614014743643,0.18066270762154213
008090,Móricz Zsigmond körtér M,47.477256,19.048786,1301,1301.0,0.0006183761624346146,0.003935071323167732,0.08360062505140226,0.11473166972202992
008093,Dél-pesti autóbuszgarázs,47.426707,19.161776,896,896.0,0.0005381030190523093,0.000983767830791933,0.08070662961492656,0.007491410791391094
008094,Dél-pesti autóbuszgarázs,47.42616,19.16094,897,897.0,0.0005381030190523093,0.000983767830791933,0.08070662961492656,0.007491410791391094
008095,Nagykőrösi út,47.425255,19.157029,895,895.0,0.0025274203150055276,0.005902606984751598,0.08749354449991392,0.08434270893326026
008096,Nagykőrösi út,47.425183,19.157506,895,895.0,0.0025274203150055276,0.005902606984751598,0.08749354449991392,0.08434270893326026
008098,Szabina út,47.43645,19.013416,1580,1580.0,2.1073280328686503e-06,0.002459419576979833,0.06026560739906326,0.015522068909265623
008106,Vihar utca,47.434282,19.035651,1503,1503.0,1.424849206539867e-07,0.001967535661583866,0.05758064972951539,0.0005755872280574548
008109,Damjanich utca,47.402518,18.991053,1652,1652.0,1.37133654302543e-10,0.000983767830791933,0.04338547557566316,0.0016747857085742388
008110,Barosstelep vasútállomás,47.399613,18.990911,1651,1651.0,2.9802694010635404e-11,0.000983767830791933,0.0420336600090973,0.0009453107395612425
008111,Barackos út / Angeli utca,47.402248,18.974427,1625,1625.0,2.11559024683855e-08,0.0014756517461878996,0.05104449131264437,0.005782132300373939
008112,Szakiskola utca,47.40492,18.975841,1624,1624.0,1.3496564161355167e-08,0.001967535661583866,0.048758843986089456,0.006595301288285975
008113,Szilvafa utca,47.405214,18.982168,1650,1650.0,2.87879428065673e-09,0.000983767830791933,0.04677326584608305,0.005729116941243445
008114,Mátyás király utca,47.404326,18.990746,1653,1653.0,6.425637911082787e-10,0.0014756517461878996,0.045012731097088456,0.005018515578895891
008115,Szebeni utca,47.430338,19.016061,1592,1592.0,2.5413590781803036e-08,0.000983767830791933,0.05118070590604703,0.002975192323248394
008116,Szebeni utca,47.430177,19.016896,1592,1592.0,2.5413590781803036e-08,0.000983767830791933,0.05118070590604703,0.002975192323248394
008119,Mátra utca,47.400093,18.997693,1667,1667.0,8.874342335463293e-12,0.000983767830791933,0.041073196355334664,0.0005979452347429798
008124,Zöldike utca,47.430738,19.012823,1604,1604.0,1.1925342667667517e-07,0.000983767830791933,0.05385858478819509,0.003930815615049167
008125,Zöldike utca,47.431205,19.012359,1604,1604.0,1.1925342667667517e-07,0.000983767830791933,0.05385858478819509,0.003930815615049167
008126,Hír utca,47.432896,19.011523,1603,1603.0,5.617123431389207e-07,0.0014756517461878996,0.0568782698710237,0.004900866210667588
008127,Hír utca,47.432914,19.011403,1603,1603.0,5.617123431389207e-07,0.0014756517461878996,0.0568782698710237,0.004900866210667588
008128,Ady Endre út,47.435802,19.036578,1504,1504.0,1.416659907786608e-07,0.002951303492375799,0.0575317655714973,0.0059562874482084706
008132,Puskás Ferenc Stadion M,47.501283,19.107691,591,591.0,0.04757085086684559,0.003935071323167732,0.08939800360582208,0.18143411590341482
008146,Vajda Péter utca,47.481389,19.103174,451,451.0,0.0011485278708018942,0.000983767830791933,0.08764064318661896,0.025989250522139833
008147,Vajda Péter utca,47.48177,19.103619,451,451.0,0.0011485278708018942,0.000983767830791933,0.08764064318661896,0.025989250522139833
008148,Kőbányai út / Könyves Kálmán körút,47.485742,19.107077,608,608.0,0.0038052310934308413,0.003935071323167732,0.08487454598588903,0.03265801703035729
008149,Kőbányai út / Könyves Kálmán körút,47.486236,19.107515,608,608.0,0.0038052310934308413,0.003935071323167732,0.08487454598588903,0.03265801703035729
008152,Mester utca / Könyves Kálmán körút,47.469596,19.083728,1384,1384.0,9.297583477157398e-05,0.001967535661583866,0.08010559911738051,0.056020843129330714
008153,Mester utca / Könyves Kálmán körút,47.469723,19.084482,1384,1384.0,9.297583477157398e-05,0.001967535661583866,0.08010559911738051,0.056020843129330714
008155,Közvágóhíd H,47.468737,19.072756,1393,1393.0,0.00013559432406735897,0.006394490900147565,0.07979746437963653,0.16124845960002956
008156,Új köztemető,47.473586,19.178326,508,508.0,0.0870343112500822,0.004426955238563699,0.08082534886494652,0.08928226841672549
008164,Örs vezér tere M+H,47.501382,19.136585,726,726.0,0.5442157530461749,0.008853910477127398,0.08362469663938135,0.22770854490374898
008165,Örs vezér tere M+H,47.501849,19.136467,726,726.0,0.5442157530461749,0.008853910477127398,0.08362469663938135,0.22770854490374898
008168,I. utca,47.400994,19.002739,1664,1664.0,1.3654308179546389e-11,0.0014756517461878996,0.04276668700170393,0.0022199373394966816
008169,I. utca,47.400904,19.003494,1664,1664.0,1.3654308179546389e-11,0.0014756517461878996,0.04276668700170393,0.0022199373394966816
008170,Angeli utca / Nagytétényi út,47.390622,18.981,1619,1619.0,6.425838200567991e-10,0.0014756517461878996,0.04488255033557047,0.007715590286632764
008206,Mexikói út M,47.519261,19.091048,426,426.0,0.0007571010298928318,0.002459419576979833,0.07680683063206015,0.024794421012924422
008209,Nagy Lajos király útja / Czobor utca,47.52217,19.102815,778,778.0,0.0005329752043655827,0.002459419576979833,0.07185015020321611,0.005639200476430571
008218,Széchenyi István tér,47.499014,19.047022,363,363.0,0.0004014029100379457,0.001967535661583866,0.08603106089458762,0.0017969706734236553
008222,Örs vezér tere M+H,47.503684,19.136443,726,726.0,0.5442157530461749,0.008853910477127398,0.08362469663938135,0.22770854490374898
008238,Széchenyi István tér,47.500543,19.04669,362,362.0,0.000555382092410629,0.001967535661583866,0.08571187655466082,0.0031332421624525233
008239,Müpa - Nemzeti Színház H,47.471165,19.073129,1392,1392.0,9.458906759474942e-05,0.0014756517461878996,0.08026372932212089,0.03177287917709356
008240,Müpa - Nemzeti Színház H,47.471354,19.073301,1392,1392.0,9.458906759474942e-05,0.0014756517461878996,0.08026372932212089,0.03177287917709356
008241,Szőnyi út,47.526625,19.09622,773,773.0,0.0002754924540472486,0.0014756517461878996,0.06861984001080096,0.0005195197685263142
008242,Teleki Blanka utca,47.523865,19.093761,777,777.0,0.00021501618652728624,0.000983767830791933,0.07248288648031945,0.0001681175755147689
008243,Szántóföld utca,47.572244,19.13883,1796,1796.0,4.622052755961191e-08,0.0014756517461878996,0.051740812379110254,0.0028719570015407615
008245,Kolozsvár utcai piac,47.536842,19.114916,831,831.0,2.6489288483362083e-06,0.000983767830791933,0.05755456784531325,0.000379525370955894
008246,Rákospalotai köztemető,47.55124,19.13601,814,814.0,3.915888422728049e-06,0.000983767830791933,0.05900107380213019,0.004084925896937263
008260,Nagybányai út,47.528476,18.996294,1993,1993.0,1.6048401883268742e-07,0.000983767830791933,0.054490873515773676,0.004729502448901929
008261,Nagybányai út,47.528368,18.996467,1993,1993.0,1.6048401883268742e-07,0.000983767830791933,0.054490873515773676,0.004729502448901929
008262,Hidegkuti Nándor Stadion,47.49069,19.10891,605,605.0,0.0028787291558256805,0.001967535661583866,0.083162889634296,0.009446702288019235
008265,Közvágóhíd H,47.468737,19.073486,1393,1393.0,0.00013559432406735897,0.006394490900147565,0.07979746437963653,0.16124845960002956
008269,Delej utca,47.484694,19.096209,452,452.0,8.837059802932909e-06,0.000983767830791933,0.0627198124267292,0.00020741146912773637
008270,Delej utca,47.48446,19.096407,452,452.0,8.837059802932909e-06,0.000983767830791933,0.0627198124267292,0.00020741146912773637
008272,Közvágóhíd,47.466285,19.07717,1393,1393.0,0.00013559432406735897,0.006394490900147565,0.07979746437963653,0.16124845960002956
008280,Infopark (Pázmány Péter sétány),47.469242,19.064333,1363,1363.0,1.3520107282297343e-06,0.0004918839153959665,0.06390670187350685,0.0
008283,Óceán-árok utca,47.589986,19.100345,1785,1785.0,1.6468463754185834e-10,0.000983767830791933,0.047944720892389686,0.0
008284,Óceán-árok utca,47.590345,19.101781,1785,1785.0,1.6468463754185834e-10,0.000983767830791933,0.047944720892389686,0.0
008286,Népliget M,47.476294,19.099288,616,616.0,0.002133208233937117,0.002951303492375799,0.09353577179664137,0.2155050729768478
008287,Népliget M,47.476345,19.098937,616,616.0,0.002133208233937117,0.002951303492375799,0.09353577179664137,0.2155050729768478
008289,Szilágyi utca,47.570877,19.11133,1870,1870.0,3.582984188695912e-08,0.001967535661583866,0.05106885377678414,0.003135928289288748
008336,Növény utca,47.402071,19.01581,1669,1669.0,8.059036393441837e-11,0.001967535661583866,0.0462192515800482,0.005405984433286517
008337,Növény utca,47.402125,19.015254,1669,1669.0,8.059036393441837e-11,0.001967535661583866,0.0462192515800482,0.005405984433286517
008341,Templom tér,47.542367,19.130057,843,843.0,9.508478162183406e-06,0.000983767830791933,0.05765413192671998,0.0001925618776343462
008344,Királyhágó tér,47.495421,19.018729,1250,1250.0,8.954168678138652e-05,0.002459419576979833,0.07046793760831889,0.014488293987694807
008353,Észak-Pesti Kórház,47.539377,19.122388,836,836.0,9.619977071863044e-06,0.000983767830791933,0.05826049577303338,0.0009381457402761713
008379,Kőbánya alsó vasútállomás,47.483885,19.127207,582,582.0,0.004834883902284469,0.000983767830791933,0.07556216316669764,0.0
008380,Kőbánya alsó vasútállomás,47.483256,19.12813,582,582.0,0.004834883902284469,0.000983767830791933,0.07556216316669764,0.0
008382,Örs vezér tere M+H,47.502448,19.136843,726,726.0,0.5442157530461749,0.008853910477127398,0.08362469663938135,0.22770854490374898
008383,Örs vezér tere M+H,47.502623,19.136654,726,726.0,0.5442157530461749,0.008853910477127398,0.08362469663938135,0.22770854490374898
008399,Pestszentimre vasútállomás,47.404251,19.186538,932,932.0,0.0012458426501296299,0.003935071323167732,0.08068420843751241,0.019318687681014912
008402,Kert sor,47.591122,19.045358,1714,1714.0,8.205591113664419e-08,0.000983767830791933,0.05324916839100029,0.0026617032637890263
008403,Kert sor,47.591374,19.045384,1714,1714.0,8.205591113664419e-08,0.000983767830791933,0.05324916839100029,0.0026617032637890263
008404,Csillaghegy H,47.584817,19.042061,1736,1736.0,3.6538788321896867e-07,0.0034431874077717655,0.05622079035424905,0.048273857699740345
008405,Csillaghegy H,47.584781,19.041862,1736,1736.0,3.6538788321896867e-07,0.0034431874077717655,0.05622079035424905,0.048273857699740345
008406,Forrásliget lakópark,47.581093,19.037502,1685,1685.0,7.742361622842061e-08,0.000983767830791933,0.05333578193456988,0.011982486455463045
008407,Forrásliget lakópark,47.581363,19.037795,1685,1685.0,7.742361622842061e-08,0.000983767830791933,0.05333578193456988,0.011982486455463045
008408,Ürömhegyi lejtő,47.577645,19.032198,1687,1687.0,3.707625157597893e-09,0.000983767830791933,0.048434745318530516,0.0026785699750279776
008409,Ürömhegyi lejtő,47.577663,19.032065,1687,1687.0,3.707625157597893e-09,0.000983767830791933,0.048434745318530516,0.0026785699750279776
008410,Aranyhegyi lejtő,47.572593,19.030301,1696,1696.0,1.1148750890457721e-09,0.000983767830791933,0.0463277351138254,0.0017627535617697433
008411,Aranyhegyi lejtő,47.572512,19.030128,1696,1696.0,1.1148750890457721e-09,0.000983767830791933,0.0463277351138254,0.0017627535617697433
008412,Bécsi út / Vörösvári út,47.548471,19.02918,1972,1972.0,3.1273260303524215e-06,0.003935071323167732,0.0613958264125872,0.027386031784028708
008426,"Káposztásmegyer, Szilas-patak",47.577405,19.114927,1761,1761.0,4.596863944793888e-11,0.0004918839153959665,0.04495599486975366,0.0
008440,Gubacsi út / Határ út,47.443626,19.096848,1209,1209.0,3.769598826271856e-05,0.001967535661583866,0.07402956813050761,0.0030913290261311856
008455,Jászai Mari tér,47.512811,19.047938,320,320.0,0.00039429075122992353,0.0014756517461878996,0.08610758153324863,0.0008422790044501462
008458,Tisza István tér,47.51723,19.10735,741,741.0,0.006309718441555499,0.002459419576979833,0.08019407518441087,0.017850495260510916
008459,Uzsoki Utcai Kórház,47.519822,19.103742,779,779.0,0.0014692008689124168,0.0014756517461878996,0.07601705055339515,0.006903319068563941
008460,Uzsoki Utcai Kórház,47.519642,19.103436,779,779.0,0.0014692008689124168,0.0014756517461878996,0.07601705055339515,0.006903319068563941
008461,Erzsébet királyné útja / Róna utca,47.521615,19.101317,778,778.0,0.0005329752043655827,0.002459419576979833,0.07185015020321611,0.005639200476430571
008481,Soroksár felső H,47.40998,19.111405,1133,1133.0,6.1379348637326785e-06,0.002951303492375799,0.06517905806162035,0.021855373239265428
008490,Határ út M,47.464573,19.126164,658,658.0,0.003398837334813613,0.004918839153959666,0.08965426001058388,0.16365702121575013
008491,Jászberényi út,47.485549,19.192668,87,87.0,0.00314278967505356,0.000983767830791933,0.06555526892815684,0.007527707047563474
008498,Aszódi utca,47.463484,19.100991,620,620.0,2.1316279517328846e-05,0.0004918839153959665,0.07241317898486198,0.0
008499,Közterületfenntartó Zrt.,47.467861,19.106659,625,625.0,0.000537901516752953,0.002951303492375799,0.08466247449298296,0.007736158447139112
008500,Ecseri út M,47.470487,19.108771,623,623.0,0.0011336038764219274,0.002951303492375799,0.08993983365775969,0.017117267160769743
008501,Ferencvárosi rendelőintézet,47.476723,19.074856,1388,1388.0,9.07524935414766e-05,0.0014756517461878996,0.07811119222346025,2.5138441020684275e-05
008519,Tímár utca H,47.533299,19.043582,272,272.0,7.006959439601666e-05,0.000983767830791933,0.07507108304715483,0.0006444069953695969
008521,Serfőző utca,47.538309,19.046968,1940,1940.0,2.393982841087531e-05,0.000983767830791933,0.07195696032279758,0.00018886347758076787
008535,Cinkotai autóbuszgarázs,47.498185,19.237392,71,71.0,2.305668890393576e-05,0.0014756517461878996,0.05363408521303258,0.004729367568696419
008544,Szépvölgyi út H,47.527615,19.040037,2036,2036.0,0.00032721635780172924,0.002951303492375799,0.08002361739814998,0.09761886577499394
008545,Puskás Ferenc Stadion M,47.500105,19.107013,591,591.0,0.04757085086684559,0.003935071323167732,0.08939800360582208,0.18143411590341482
008546,Boráros tér H,47.479738,19.067812,461,461.0,0.00022943626497090312,0.002951303492375799,0.08338118283979985,0.06706824772850167
008559,Korompai utca,47.48486,19.012485,1275,1275.0,4.52976679990431e-07,0.000983767830791933,0.05789383756692106,0.0015499561859996444
008560,Korompai utca,47.484789,19.012843,1275,1275.0,4.52976679990431e-07,0.000983767830791933,0.05789383756692106,0.0015499561859996444
008567,Gazdagréti tér,47.473277,18.99278,1343,1343.0,2.337485823463708e-08,0.0014756517461878996,0.05047671069619625,0.0017939126981455517
008569,Cinkotai autóbuszgarázs,47.498194,19.237086,71,71.0,2.305668890393576e-05,0.0014756517461878996,0.05363408521303258,0.004729367568696419
008575,Távíró utca,47.461082,19.119025,663,663.0,0.00031995619263977906,0.000983767830791933,0.07617370452246244,0.0009837678307919333
008577,Rákoshegy vasútállomás,47.467934,19.244806,136,136.0,6.268471897616322e-07,0.0014756517461878996,0.04640069384215091,0.0014470424534152033
008587,Gyáli út,47.456472,19.111009,1185,1185.0,0.0007510621469821444,0.0014756517461878996,0.07846088533827332,0.0031687182662097635
008588,Gyáli út,47.456293,19.110359,1185,1185.0,0.0007510621469821444,0.0014756517461878996,0.07846088533827332,0.0031687182662097635
008589,Gyáli út,47.46601,19.103474,621,621.0,0.00010931450759415244,0.000983767830791933,0.07806919857148344,0.0019665673861598587
008590,Szent Gellért tér - Műegyetem M,47.483337,19.053086,1367,1367.0,0.0011934204126545906,0.003935071323167732,0.08849133803429965,0.1469924478712045
008591,Szent Gellért tér - Műegyetem M,47.483616,19.053537,1367,1367.0,0.0011934204126545906,0.003935071323167732,0.08849133803429965,0.1469924478712045
008593,Móricz Zsigmond körtér M,47.476836,19.047188,1301,1301.0,0.0006183761624346146,0.003935071323167732,0.08360062505140226,0.11473166972202992
008605,Kolosy tér,47.527543,19.036916,2035,2035.0,0.0001223866562559443,0.002459419576979833,0.0743898422920707,0.023026931923196266
008644,Vízművek,47.599539,19.092791,1784,1784.0,4.5644407846114494e-10,0.000983767830791933,0.04567410303071151,0.003929261670623686
008645,Vízművek,47.600312,19.09331,1784,1784.0,4.5644407846114494e-10,0.000983767830791933,0.04567410303071151,0.003929261670623686
008692,Felsőcsatári köz,47.458756,19.177096,1040,1040.0,0.003349706416853786,0.0034431874077717655,0.07933968154854823,0.021834012053666724
008694,Köztelek utca,47.486933,19.067178,474,474.0,0.001123610250598748,0.0014756517461878996,0.08979681978798587,0.0015207473131952666
008697,Újpest-központ M,47.560733,19.090125,1890,1890.0,5.662417567389827e-06,0.004426955238563699,0.0672866882901966,0.06331520618675011
008702,Ferencvárosi rendelőintézet,47.477155,19.075785,1388,1388.0,9.07524935414766e-05,0.0014756517461878996,0.07811119222346025,2.5138441020684275e-05
008708,Vízművek lakótelep,47.597822,19.091606,1783,1783.0,2.1460578648947287e-09,0.000983767830791933,0.04784993056699696,0.004909156399719588
008725,Puskás Ferenc Stadion M,47.499864,19.104836,591,591.0,0.04757085086684559,0.003935071323167732,0.08939800360582208,0.18143411590341482
008731,Budagyöngye,47.516074,18.998922,2133,2133.0,6.158265732000289e-05,0.0034431874077717655,0.06876606683804627,0.06548508009457574
008736,Dániel út,47.512863,18.994978,2132,2132.0,7.836447400169666e-09,0.000983767830791933,0.051061157855079746,0.000979894729095902
008737,Dániel út,47.512881,18.994739,2132,2132.0,7.836447400169666e-09,0.000983767830791933,0.051061157855079746,0.000979894729095902
008750,Batthyány tér M+H,47.505696,19.039323,335,335.0,0.0009194059497574765,0.0034431874077717655,0.08852987284445218,0.1088956053168263
008754,Pestszentimre vasútállomás (Dózsa Gy.u.),47.403586,19.185688,931,931.0,0.0010131362085391003,0.002459419576979833,0.08061062648691515,0.005590250762913227
008782,Blaha Lujza tér M,47.496844,19.069066,479,479.0,0.00877183593238206,0.0034431874077717655,0.09451857362034498,0.1701056050520564
008785,Puskás Ferenc Stadion M,47.499936,19.105237,591,591.0,0.04757085086684559,0.003935071323167732,0.08939800360582208,0.18143411590341482
008788,Kőérberek,47.445299,18.999585,1591,1591.0,5.099825654510787e-09,0.000983767830791933,0.04928365372960655,0.0013957966887193688
008789,Kőérberek,47.445218,19.000036,1591,1591.0,5.099825654510787e-09,0.000983767830791933,0.04928365372960655,0.0013957966887193688
008792,Normafa,47.502258,18.965793,2160,2160.0,4.431397834200064e-12,0.000983767830791933,0.040898026514313304,0.0
008793,Regényes utca,47.429436,19.020658,1593,1593.0,5.749712405549422e-09,0.0014756517461878996,0.04881855729516857,0.0020492466731934196
008832,Szakorvosi rendelőintézet,47.443871,19.181125,961,961.0,5.067756847777125e-05,0.000983767830791933,0.06095586471575917,2.0245025323629902e-05
008841,Íves út,47.592824,19.107979,1787,1787.0,2.542984341046693e-10,0.0014756517461878996,0.04843820733363513,0.0018171965186069806
008842,Íves út,47.592582,19.10665,1787,1787.0,2.542984341046693e-10,0.0014756517461878996,0.04843820733363513,0.0018171965186069806
008844,Egressy út / Vezér utca,47.51926,19.126312,755,755.0,0.0012255035528441916,0.0014756517461878996,0.06402544641451201,0.0030216584066763566
008850,Mikszáth Kálmán utca,47.451162,19.176781,1052,1052.0,1.182498955505583e-05,0.000983767830791933,0.06047715373631604,0.00059754824091688
008863,Gőzmozdony utca,47.470028,19.157173,537,537.0,0.000759602048644383,0.0014756517461878996,0.07357411696583671,0.0009991031797660962
008893,Csepeli átjáró,47.436339,19.092257,1160,1160.0,6.687341384073716e-06,0.000983767830791933,0.06516443361753958,0.0009307063375563054
008894,Vízisport utca,47.433997,19.091263,1155,1155.0,3.2363686209106186e-06,0.0014756517461878996,0.061364322366435256,1.2103442800097603e-06
008895,Teremszeg utca,47.432951,19.092221,1157,1157.0,4.786919005173204e-06,0.000983767830791933,0.06156688168135429,2.604660890581004e-05
008896,Pesterzsébet vasútállomás,47.433417,19.096414,1152,1152.0,2.0826505811049658e-05,0.003935071323167732,0.06559757356737222,0.006718443615755685
008898,Szakorvosi rendelő,47.440886,19.10178,1143,1143.0,3.90150963525493e-05,0.001967535661583866,0.07431642052931715,0.02014736977647808
008903,Szentmihályi út,47.541348,19.15194,845,845.0,4.9508888022195485e-05,0.001967535661583866,0.061458931648477884,0.010295190764988253
008904,Kétújfalu utca,47.419522,19.209134,902,902.0,2.3387676449783234e-06,0.000983767830791933,0.05801443940301915,0.0004916951801477202
008910,"Káposztásmegyer, Mogyoródi-patak",47.598321,19.121429,1793,1793.0,9.865851533048578e-09,0.001967535661583866,0.04949482653682288,0.006874947511538933
008911,Homoktövis iskola,47.597226,19.117132,1794,1794.0,2.1116567730381715e-09,0.000983767830791933,0.04729996975407738,0.0008027996842528447
008918,"Budatétény, benzinkút",47.4301,19.003628,1607,1607.0,3.3129408385944474e-05,0.0014756517461878996,0.06787526709401709,0.043942104244407934
008921,Dél-pesti autóbuszgarázs,47.426582,19.161021,896,896.0,0.0005381030190523093,0.000983767830791933,0.08070662961492656,0.007491410791391094
008922,Gyula vezér út,47.409242,19.003434,1676,1676.0,3.763785771804878e-09,0.000983767830791933,0.049467127354129156,0.011956274527796509
008923,Kabai utca,47.495704,19.160464,547,547.0,0.0021294038675744786,0.000983767830791933,0.06295871914775014,0.0007103913178296404
008924,Kabai utca,47.495533,19.160424,547,547.0,0.0021294038675744786,0.000983767830791933,0.06295871914775014,0.0007103913178296404
008939,Békásmegyer H,47.598408,19.054259,1720,1720.0,1.2289118241119705e-07,0.002951303492375799,0.05378449165321834,0.026886178160391336
008943,"Budatétény, benzinkút",47.431018,19.004423,1606,1606.0,6.2561688390057146e-06,0.001967535661583866,0.060304935927859515,0.01278376319403912
008946,Szénás utca,47.527548,19.181565,690,690.0,6.760742977122323e-05,0.002459419576979833,0.05463585057780167,0.010138120315386256
008947,Szlovák út,47.530956,19.189157,683,683.0,4.03418545879267e-06,0.001967535661583866,0.05006649263655617,0.00575788362095361
008948,Kucorgó tér,47.469303,19.29515,91,91.0,2.061838493843276e-08,0.001967535661583866,0.04247628598888471,0.010803121526311918
008949,Pestszentimre vasútáll. (Nagykőrösi út),47.403412,19.18662,931,931.0,0.0010131362085391003,0.002459419576979833,0.08061062648691515,0.005590250762913227
008950,Pestszentimre vasútáll. (Nagykőrösi út),47.404303,19.185682,932,932.0,0.0012458426501296299,0.003935071323167732,0.08068420843751241,0.019318687681014912
008952,Terv utca,47.408,19.001541,1677,1677.0,8.411373146781402e-10,0.0014756517461878996,0.047390382060187884,0.011110873255095287
008953,Csillag utca,47.409214,19.119,1132,1132.0,7.533395138924568e-07,0.0014756517461878996,0.0578427746322588,0.001742942693579212
008954,Csillag utca,47.409565,19.119053,1132,1132.0,7.533395138924568e-07,0.0014756517461878996,0.0578427746322588,0.001742942693579212
008955,Gombosszeg köz,47.413107,19.118352,1141,1141.0,1.5999929867270726e-07,0.000983767830791933,0.05489550143111735,0.0009435676392467771
008956,Gombosszeg köz,47.413574,19.118578,1141,1141.0,1.5999929867270726e-07,0.000983767830791933,0.05489550143111735,0.0009435676392467771
008957,Előd utca,47.418567,19.117365,1136,1136.0,2.5980828603951453e-08,0.0014756517461878996,0.05445730204650166,0.0008201126075116553
008958,Alsó határút,47.416534,19.116568,1140,1140.0,4.845043552077124e-08,0.0014756517461878996,0.05509933056888094,0.0008666282827313494
008959,Templom utca 6.,47.408876,19.11362,1134,1134.0,1.7446312367641955e-06,0.0014756517461878996,0.06128477979079372,0.0013097465589554176
008960,Gyáli-patak,47.394698,19.11657,1000,1000.0,4.4919951337711527e-07,0.000983767830791933,0.05774255850942968,0.0004911577088279607
008963,Grassalkovich út,47.390505,19.118896,999,999.0,1.8937320128827567e-07,0.000983767830791933,0.05460063382929581,7.262065680058562e-07
008967,Szentlőrinci úti lakótelep,47.416957,19.131198,1124,1124.0,4.457554479051115e-07,0.0004918839153959665,0.0579334321212812,0.0
008971,Gyula vezér út,47.409629,19.004123,1676,1676.0,3.763785771804878e-09,0.000983767830791933,0.049467127354129156,0.011956274527796509
009025,Zichy Jenő utca,47.505192,19.057853,289,289.0,0.00023383827895373104,0.000983767830791933,0.07954145310849407,7.401984440855256e-05
009026,Zichy Jenő utca,47.505246,19.057588,289,289.0,0.00023383827895373104,0.000983767830791933,0.07954145310849407,7.401984440855256e-05
009039,Csanády utca (Lehel tér M),47.51585,19.058891,313,313.0,0.0005886839041015692,0.003935071323167732,0.08775413303405706,0.09264526881250175
009041,Haller utca / Soroksári út,47.475402,19.069615,1359,1359.0,0.00011803891813837663,0.001967535661583866,0.08150910111458584,0.046011985738146965
009042,Haller utca / Soroksári út,47.473909,19.07041,1359,1359.0,0.00011803891813837663,0.001967535661583866,0.08150910111458584,0.046011985738146965
009047,Homoktövis utca,47.594692,19.113273,1786,1786.0,5.311425327272673e-10,0.0014756517461878996,0.04736057401108885,0.00162139624527213
009072,AsiaCenter,47.548412,19.146959,816,816.0,1.0546222353173404e-05,0.000983767830791933,0.05863351887635913,0.003831763589963379
009137,Újmajori utca,47.471697,19.220067,155,155.0,7.466701325727929e-08,0.000983767830791933,0.04594661784979773,0.00011197452076975368
009138,Csillagmotor köz,47.471018,19.221893,156,156.0,7.466701325727929e-08,0.000983767830791933,0.04594661784979773,0.00011197452076975368
009139,Dedics Ferenc utca,47.469097,19.226094,154,154.0,1.6309011292686672e-07,0.0014756517461878996,0.04609768264477802,0.0003703734186448535
009140,Ősrepülő utca,47.469552,19.227168,154,154.0,1.6309011292686672e-07,0.0014756517461878996,0.04609768264477802,0.0003703734186448535
009146,Vágóhíd utca,47.473628,19.079643,1389,1389.0,7.88817389650222e-05,0.001967535661583866,0.07928398720848608,0.002142556244112728
009147,Vörösmarty utca,47.419869,19.120349,1137,1137.0,5.7219304608607204e-08,0.0014756517461878996,0.0567116715018969,0.002644269568797835
009148,Szusza Ferenc Stadion,47.575797,19.083759,1835,1835.0,3.9236347059907566e-08,0.0014756517461878996,0.05819712020152864,0.014508198384951973
009153,Óbudai rendelőintézet,47.545359,19.033751,1950,1950.0,4.2328982552111025e-06,0.002459419576979833,0.06507890777553699,0.02043070366673638
009154,Atlétikai stadion,47.572575,19.114429,1869,1869.0,8.848192049664393e-09,0.000983767830791933,0.050275737567079655,0.004462892184435548
009155,Atlétikai stadion,47.57218,19.11415,1869,1869.0,8.848192049664393e-09,0.000983767830791933,0.050275737567079655,0.004462892184435548
009161,Keleti pályaudvar M,47.499431,19.084012,494,494.0,0.02466914550783931,0.005410723069355632,0.09295839048925468,0.29468237449917295
009162,Keleti pályaudvar M,47.499926,19.083216,494,494.0,0.02466914550783931,0.005410723069355632,0.09295839048925468,0.29468237449917295
009163,Keleti pályaudvar M,47.499926,19.083587,494,494.0,0.02466914550783931,0.005410723069355632,0.09295839048925468,0.29468237449917295
009174,Széll Kálmán tér M,47.507673,19.024894,1267,1267.0,0.0008084083617852665,0.005902606984751598,0.08419614014743643,0.18066270762154213
009179,"Petőfi híd, budai hídfő",47.47678,19.058883,1370,1370.0,0.00016594311855814517,0.001967535661583866,0.07903739989114376,0.005913637190242226
009208,"Pestszentlőrinc, Szarvas csárda tér",47.441357,19.18511,967,967.0,0.0003748895360113172,0.002459419576979833,0.06906509036553879,0.0029253667903329354
009220,Móricz Zsigmond körtér M,47.477499,19.048349,1301,1301.0,0.0006183761624346146,0.003935071323167732,0.08360062505140226,0.11473166972202992
009225,Noszlopy utca,47.471959,19.148362,640,640.0,0.00041918452006679347,0.0014756517461878996,0.07027793141592921,0.0020797723534517923
009230,Deák Ferenc tér M,47.497701,19.053353,366,366.0,0.002881170524049029,0.004426955238563699,0.09729600382866714,0.2526679187957686
009234,Pestszentimre vasútállomás (Nemes utca),47.404518,19.187166,932,932.0,0.0012458426501296299,0.003935071323167732,0.08068420843751241,0.019318687681014912
009243,Alsó határút,47.416223,19.116187,1140,1140.0,4.845043552077124e-08,0.0014756517461878996,0.05509933056888094,0.0008666282827313494
009289,Gergely utca,47.468734,19.154524,536,536.0,0.0013525434236386748,0.0034431874077717655,0.0737690046808665,0.00523433805757186
009290,Közvágóhíd H,47.466702,19.076032,1393,1393.0,0.00013559432406735897,0.006394490900147565,0.07979746437963653,0.16124845960002956
009295,Serfőző utca,47.539095,19.045373,1938,1938.0,4.9693557629822777e-05,0.005410723069355632,0.07425399028452463,0.13436450042941836
009309,Deák Ferenc tér M,47.49744,19.055729,366,366.0,0.002881170524049029,0.004426955238563699,0.09729600382866714,0.2526679187957686
009311,"BILK, bekötőút",47.378957,19.129179,994,994.0,3.899900487635113e-09,0.000983767830791933,0.04926096438090623,0.0029483986661037764
009312,MNB,47.376882,19.124303,991,991.0,8.162584691771834e-10,0.000983767830791933,0.04695366991546954,0.0019665673861598587
009314,"BILK, DF épület",47.375229,19.120911,993,993.0,1.708057030287036e-10,0.000983767830791933,0.04485086480762443,0.0009837678307919333
009315,MNB,47.376675,19.124382,991,991.0,8.162584691771834e-10,0.000983767830791933,0.04695366991546954,0.0019665673861598587
009318,Örs vezér tere M+H,47.503245,19.135293,726,726.0,0.5442157530461749,0.008853910477127398,0.08362469663938135,0.22770854490374898
009321,Keleti pályaudvar M,47.499926,19.084198,494,494.0,0.02466914550783931,0.005410723069355632,0.09295839048925468,0.29468237449917295
009322,Örs vezér tere M+H (Kerepesi út),47.50326,19.137956,726,726.0,0.5442157530461749,0.008853910477127398,0.08362469663938135,0.22770854490374898
009337,Orbánhegyi dűlő,47.386327,19.110228,1003,1003.0,1.2461017588795094e-07,0.000983767830791933,0.054599167449979856,0.0
009338,Orbánhegyi dűlő,47.38639,19.11048,1003,1003.0,1.2461017588795094e-07,0.000983767830791933,0.054599167449979856,0.0
009339,Szent István utca H,47.391083,19.114168,1001,1001.0,4.990587652300445e-07,0.001967535661583866,0.057749119418247924,0.0024577250949878193
009349,Budaörsi repülőtér,47.447079,18.98673,1572,1572.0,3.7903003288120605e-07,0.0014756517461878996,0.0564596756276383,0.012317064654615885
009351,Kőérberek,47.446339,18.998545,1590,1590.0,1.408623538525634e-06,0.000983767830791933,0.059555894070775724,0.012993414539400588
009352,Kőérberek,47.446231,18.998784,1590,1590.0,1.408623538525634e-06,0.000983767830791933,0.059555894070775724,0.012993414539400588
009353,Tippan utca,47.447968,19.000851,1589,1589.0,6.578903877813999e-06,0.000983767830791933,0.06320141760189013,0.013941833505754907
009354,Tippan utca,47.447788,19.000374,1589,1589.0,6.578903877813999e-06,0.000983767830791933,0.06320141760189013,0.013941833505754907
009355,Régi vám (Kánai út),47.446377,19.003968,1587,1587.0,3.112382404896317e-05,0.0014756517461878996,0.06734687116970882,0.014900933367411403
009356,Régi vám (Kánai út),47.446278,19.004075,1587,1587.0,3.112382404896317e-05,0.0014756517461878996,0.06734687116970882,0.014900933367411403
009358,Millenniumtelep H,47.37962,19.104287,997,997.0,1.2461017588795094e-07,0.000983767830791933,0.054599167449979856,0.0
009359,Boráros tér H,47.479684,19.066539,461,461.0,0.00022943626497090312,0.002951303492375799,0.08338118283979985,0.06706824772850167
009365,Zsil utca,47.482716,19.062997,468,468.0,0.00036740828056173054,0.0014756517461878996,0.08768222203053566,0.032183066826000216
009373,Hunyadvár utca,47.508153,19.192136,45,45.0,0.012463870950862084,0.000983767830791933,0.06347570875483952,0.0
009375,Szilas-patak,47.529297,19.185461,684,684.0,1.4564765821519216e-05,0.0014756517461878996,0.05198956628477905,0.008287023543956329
009377,Jókai Mór utca (Rendőrség),47.510358,19.190456,44,44.0,0.051294011823180045,0.002951303492375799,0.06774634276383752,0.01947813034576167
009379,József utca,47.53208,19.155893,667,667.0,0.0002991974548716868,0.001967535661583866,0.058845664003704994,0.0026793307356051724
009381,Rózsa utca,47.516008,19.156232,703,703.0,0.03858820616960617,0.001967535661583866,0.07218691190569186,0.019788929326483917
009382,Jávorfa utca,47.526052,19.177918,687,687.0,0.0001243593922192376,0.0014756517461878996,0.05759043653154301,0.006295990963708737
009383,János utca,47.523533,19.172315,679,679.0,0.0005034113272259671,0.001967535661583866,0.06090473337327741,0.01504617460023287
009392,Csillaghegy H,47.586553,19.045597,1736,1736.0,3.6538788321896867e-07,0.0034431874077717655,0.05622079035424905,0.048273857699740345
009393,Csillaghegy H,47.58468,19.04456,1736,1736.0,3.6538788321896867e-07,0.0034431874077717655,0.05622079035424905,0.048273857699740345
009394,Rómaifürdő H,47.575238,19.048588,1758,1758.0,1.2486111219765549e-06,0.002459419576979833,0.05898566703417861,0.049075756602672924
009413,Ezredes utca,47.510057,19.021771,2013,2013.0,0.00016853964575531388,0.000983767830791933,0.07769921651060577,0.005175572771799979
009415,Sárfű utca,47.55006,19.138067,821,821.0,1.6377872615382312e-05,0.0014756517461878996,0.06106021925213996,0.005251170015261213
009420,Honvédkórház,47.531561,19.070886,253,253.0,1.2784156420101338e-05,0.000983767830791933,0.07225361623485091,0.0003322925633784073
009421,Ezred utca,47.606004,19.097598,1790,1790.0,1.0133059907485822e-10,0.0014756517461878996,0.043685669467305586,0.002949366941527784
009422,Ezred utca,47.606849,19.098223,1790,1790.0,1.0133059907485822e-10,0.0014756517461878996,0.043685669467305586,0.002949366941527784
009429,Keserűvíztelep (Bobpálya),47.454806,19.007542,1397,1397.0,9.058929676033589e-05,0.001967535661583866,0.07176645015532336,0.018981383127537325
009430,Keserűvíztelep (Bobpálya),47.45388,19.007516,1397,1397.0,9.058929676033589e-05,0.001967535661583866,0.07176645015532336,0.018981383127537325
009431,Régi vám,47.446818,19.006063,1588,1588.0,5.6906353805703587e-05,0.001967535661583866,0.06761340960489556,0.007686482019581151
009445,Tatárka utca,47.434041,19.021173,1601,1601.0,9.503090991120644e-08,0.000983767830791933,0.054413575290402014,0.0013757270061009676
009446,Botond utca,47.403953,18.995789,1660,1660.0,1.874736184527648e-12,0.0004918839153959665,0.04038618168815431,0.0
009447,Mátyás király utca,47.404446,18.991589,1653,1653.0,6.425637911082787e-10,0.0014756517461878996,0.045012731097088456,0.005018515578895891
009448,Görgey utca,47.406802,18.991613,1662,1662.0,1.3711334549225362e-10,0.000983767830791933,0.043156151821346696,0.001686808501237735
009449,Török utca,47.411614,18.989898,1655,1655.0,8.40352386550935e-12,0.000983767830791933,0.040223972141980924,0.00024610628453810445
009451,Gyűszű utca,47.417266,19.0224,1646,1646.0,6.464054049963437e-10,0.000983767830791933,0.045702852775217497,0.0004974794928152285
009452,Húr utca,47.416159,19.020426,1644,1644.0,2.9705578514412103e-09,0.000983767830791933,0.047059095854262635,0.0011108558451038669
009453,Dévény utca,47.415224,19.022189,1645,1645.0,2.9705578514412103e-09,0.000983767830791933,0.047059095854262635,0.0011108558451038669
009454,Wesselényi utca,47.415917,19.026059,1511,1511.0,6.464054049963437e-10,0.000983767830791933,0.045702852775217497,0.0004974794928152285
009455,Ostor utca,47.416544,19.029864,1513,1513.0,2.0362509812188395e-10,0.000983767830791933,0.04595388788426763,0.0004715802952312858
009456,Római utca,47.41793,19.017589,1643,1643.0,1.394819455936672e-08,0.0014756517461878996,0.04892900120336943,0.00385941342022482
009457,Római utca,47.417175,19.018319,1643,1643.0,1.394819455936672e-08,0.0014756517461878996,0.04892900120336943,0.00385941342022482
009458,Hűség utca,47.421208,19.013469,1610,1610.0,6.264701792185253e-08,0.000983767830791933,0.05127235126478525,0.004771828573938098
009459,Hűség utca,47.420529,19.014023,1610,1610.0,6.264701792185253e-08,0.000983767830791933,0.05127235126478525,0.004771828573938098
009460,Komáromi út,47.424593,19.010866,1612,1612.0,2.944161749447077e-07,0.000983767830791933,0.053921438612312016,0.005713202847554776
009461,Komáromi út,47.423955,19.011131,1612,1612.0,2.944161749447077e-07,0.000983767830791933,0.053921438612312016,0.005713202847554776
009462,Tanító utca,47.435306,19.008724,1583,1583.0,8.397443397005182e-06,0.0014756517461878996,0.06382845122602115,0.019587024602266117
009463,Tanító utca,47.435297,19.009784,1583,1583.0,8.397443397005182e-06,0.0014756517461878996,0.06382845122602115,0.019587024602266117
009465,Plébánia utca,47.429726,19.032323,1505,1505.0,2.542265818596373e-08,0.0014756517461878996,0.05485254836359712,0.001861824898984671
009466,Plébánia utca,47.42969,19.032217,1505,1505.0,2.542265818596373e-08,0.0014756517461878996,0.05485254836359712,0.001861824898984671
009467,Galamb utca,47.432765,19.028517,1600,1600.0,9.364498599295918e-09,0.000983767830791933,0.052890368905770334,0.0007879532132839167
009468,Galamb utca,47.432711,19.028438,1600,1600.0,9.364498599295918e-09,0.000983767830791933,0.052890368905770334,0.0007879532132839167
009469,Alkotmány utca,47.43343,19.025932,1599,1599.0,2.1196635953592502e-08,0.000983767830791933,0.05258529267220196,0.0007806625383405043
009470,Alkotmány utca,47.433385,19.025919,1599,1599.0,2.1196635953592502e-08,0.000983767830791933,0.05258529267220196,0.0007806625383405043
009471,Széchenyi utca,47.418185,19.032578,1519,1519.0,3.5818068949834636e-10,0.0014756517461878996,0.047473379413413036,0.0022685992466778583
009472,Promontor utca,47.418055,19.027015,1512,1512.0,2.0362509812188395e-10,0.000983767830791933,0.04595388788426763,0.0004715802952312858
009473,Széchenyi utca,47.418464,19.032657,1519,1519.0,3.5818068949834636e-10,0.0014756517461878996,0.047473379413413036,0.0022685992466778583
009474,Komló utca,47.421339,19.035137,1520,1520.0,1.3794524511664487e-09,0.001967535661583866,0.049667741620248215,0.006009968951139392
009475,Méhész utca,47.438572,19.034695,1442,1442.0,3.56291747520127e-08,0.000983767830791933,0.054508405501782986,0.0
009480,Margó Tivadar utca,47.433265,19.177803,870,870.0,1.4037961375146036e-05,0.000983767830791933,0.06592729513247074,0.004620876989114511
009481,Kerékgyártó utca,47.521341,19.105562,780,780.0,0.0001436180759616392,0.000983767830791933,0.06813459347141229,0.0011626145015739644
009482,Kucorgó tér,47.469059,19.295984,91,91.0,2.061838493843276e-08,0.001967535661583866,0.04247628598888471,0.010803121526311918
009483,Rákoscsaba vasútállomás,47.491097,19.281623,116,116.0,3.7195816299706377e-07,0.001967535661583866,0.04450038305789646,0.004047123779403311
009484,Tura utca,47.4892,19.276864,115,115.0,9.940335302960581e-07,0.000983767830791933,0.04647069580323672,0.002872099838532237
009485,Rákoscsaba-Újtelep vasútállomás,47.488137,19.27329,178,178.0,4.79014897392351e-06,0.0014756517461878996,0.04863287323876277,0.004534238618034663
009486,II. utca,47.486369,19.265893,177,177.0,4.808257310682159e-05,0.000983767830791933,0.0536015608521409,0.002395554297384091
009487,Rákosliget vasútállomás,47.486311,19.259071,175,175.0,0.00022704356782474107,0.002459419576979833,0.05651303719352866,0.005413088493752767
009491,Füstifecske utca,47.478911,19.236966,147,147.0,0.0016495025292931412,0.0014756517461878996,0.062157947839911944,0.008357326355658567
009492,Füstifecske utca,47.478776,19.237124,147,147.0,0.0016495025292931412,0.0014756517461878996,0.062157947839911944,0.008357326355658567
009493,Uszoda,47.479619,19.232961,148,148.0,0.00791795518808491,0.000983767830791933,0.06617192331478046,0.009306357305613978
009494,"Újlak utca, lakótelep",47.482307,19.233674,146,146.0,0.03946891129398816,0.0014756517461878996,0.07075488114711308,0.010270033421357542
009495,Rákospatak utca,47.531435,19.10066,760,760.0,0.0004362983528614045,0.0034431874077717655,0.0732665417327375,0.049310379857985594
009498,Csertő utca,47.511107,19.146099,714,714.0,0.1625142786729772,0.002951303492375799,0.07729156369995818,0.004838270683244703
009499,Csertő utca,47.511591,19.147375,714,714.0,0.1625142786729772,0.002951303492375799,0.07729156369995818,0.004838270683244703
009500,Körvasút sor,47.513666,19.15103,700,700.0,0.1435222186844558,0.0014756517461878996,0.07737981958664789,0.020586751773419808
009501,Körvasút sor,47.514609,19.152837,701,701.0,0.038725286608133486,0.000983767830791933,0.0719977334702695,4.091770562619663e-05
009503,Kovácsi Kálmán tér,47.573171,19.12112,1803,1803.0,4.999611727885472e-08,0.0014756517461878996,0.050771689725787925,0.0010156947443907634
009504,Kovácsi Kálmán tér,47.573431,19.1212,1803,1803.0,4.999611727885472e-08,0.0014756517461878996,0.050771689725787925,0.0010156947443907634
009508,Orló utca,47.518254,19.007497,2021,2021.0,5.3161677377855445e-06,0.0014756517461878996,0.06414868105515588,0.008257127911022762
009509,Orló utca,47.518119,19.007404,2021,2021.0,5.3161677377855445e-06,0.0014756517461878996,0.06414868105515588,0.008257127911022762
009510,Pasaréti út,47.516184,19.004033,2123,2123.0,1.0181426184451331e-05,0.001967535661583866,0.06435377164382261,0.002606321316807501
009511,Pasaréti út,47.516355,19.003967,2123,2123.0,1.0181426184451331e-05,0.001967535661583866,0.06435377164382261,0.002606321316807501
009512,Endrődi Sándor utca,47.521143,19.011996,2019,2019.0,2.801117566989185e-07,0.000983767830791933,0.057058658433904015,0.002903442027685324
009513,Bimbó út,47.519325,19.008996,2020,2020.0,1.3114040593713736e-06,0.002459419576979833,0.06040527691942001,0.007410243102046893
009514,Bimbó út,47.519964,19.010576,2020,2020.0,1.3114040593713736e-06,0.002459419576979833,0.06040527691942001,0.007410243102046893
009515,Rákospalota-Újpest vasútállomás,47.566389,19.111644,1861,1861.0,4.326227869115415e-08,0.001967535661583866,0.052649298182006525,0.0057436285939077595
009516,Rákospalota-Újpest vasútállomás,47.566191,19.111737,1861,1861.0,4.326227869115415e-08,0.001967535661583866,0.052649298182006525,0.0057436285939077595
009520,Csörsz utca,47.49017,19.023466,1271,1271.0,0.00025116937019869004,0.002951303492375799,0.0726616390864577,0.028658304477878697
009521,Csörsz utca,47.490044,19.023665,1271,1271.0,0.00025116937019869004,0.002951303492375799,0.0726616390864577,0.028658304477878697
009522,Sirály utca,47.490555,19.018489,1272,1272.0,0.00011635807767522221,0.001967535661583866,0.07126581834753042,0.01094981017629483
009524,Albertfalva vasútállomás,47.441881,19.032202,1446,1446.0,3.769799164491294e-08,0.0014756517461878996,0.05469464622006995,0.0014619022812528168
009534,XIII. utca / Dózsa György út,47.411121,18.993728,1657,1657.0,1.1435626285529046e-11,0.001967535661583866,0.04183816266052025,0.003470209244049471
009536,"Káposztásmegyer, Mogyoródi-patak",47.59869,19.121323,1793,1793.0,9.865851533048578e-09,0.001967535661583866,0.04949482653682288,0.006874947511538933
009537,Március 15. tér,47.491531,19.051322,373,373.0,0.0013306093389916635,0.004426955238563699,0.08986826982583326,0.038100496549351236
009538,Irány utca,47.540469,19.109767,803,803.0,2.3939001354302195e-05,0.0014756517461878996,0.06409811772866286,0.0010510054113791571
009539,Boglár utca,47.594701,19.060994,1717,1717.0,2.238463480134433e-09,0.000983767830791933,0.04635731387527078,0.0011573796143165332
009540,Szilágyi Erzsébet fasor,47.515203,19.002149,2124,2124.0,2.8176696386322278e-05,0.0014756517461878996,0.06450487038740997,0.000619325099119129
009541,Ady Endre út,47.436278,19.035478,1504,1504.0,1.416659907786608e-07,0.002951303492375799,0.0575317655714973,0.0059562874482084706
009543,513. utca,47.484291,19.230112,153,153.0,0.26685911459494394,0.0034431874077717655,0.07940475725500917,0.03838119293266571
009544,Robogó utca,47.487235,19.270088,179,179.0,2.2653042105480806e-05,0.0014756517461878996,0.05100095328884652,0.0055636793557554826
009546,Memento Park,47.425665,19.001313,1609,1609.0,8.327381711985367e-06,0.0014756517461878996,0.06384649205451919,0.023321481774700406
009548,Tatárka utca,47.433933,19.02108,1601,1601.0,9.503090991120644e-08,0.000983767830791933,0.054413575290402014,0.0013757270061009676
009549,Madárdomb köz,47.478138,19.241221,159,159.0,0.00033037814786466267,0.000983767830791933,0.05860647467496901,0.00642549585033485
009550,Madárdomb köz,47.478014,19.241141,159,159.0,0.00033037814786466267,0.000983767830791933,0.05860647467496901,0.00642549585033485
009551,Margó Tivadar utca,47.433123,19.176437,870,870.0,1.4037961375146036e-05,0.000983767830791933,0.06592729513247074,0.004620876989114511
009554,"Óbuda, Bogdáni út",47.550028,19.041176,1959,1959.0,6.043895625697031e-06,0.001967535661583866,0.06528580603725112,0.009239433746695376
009555,Szilágyi utca,47.570571,19.112699,1870,1870.0,3.582984188695912e-08,0.001967535661583866,0.05106885377678414,0.003135928289288748
009557,Vécsey Károly utca,47.571892,19.096021,1859,1859.0,4.125468438750551e-08,0.0014756517461878996,0.054239368230083775,0.0008119361752280132
009558,Szent János Kórház,47.509962,19.009919,2009,2009.0,8.568437246871112e-05,0.001967535661583866,0.07325598155087922,0.04706171012590636
009563,Mészkő utca,47.579237,19.034843,1688,1688.0,1.7173810162782975e-08,0.0014756517461878996,0.05075901328273245,0.011249259890633129
009564,Mészkő utca,47.579129,19.034311,1688,1688.0,1.7173810162782975e-08,0.0014756517461878996,0.05075901328273245,0.011249259890633129
009566,"Soroksár, Auchan áruház",47.417204,19.158231,885,885.0,9.126083105758254e-08,0.0004918839153959665,0.05476536824524541,0.0
009568,Sósmocsár út,47.414781,19.134154,1125,1125.0,2.2673689440105948e-06,0.002459419576979833,0.06149425287356322,0.004913271570271621
009569,Thököly út,47.441995,19.18098,959,959.0,0.00022428741965626378,0.001967535661583866,0.06490438336046994,0.0003768494989056286
009570,Újbuda-központ M,47.474163,19.04705,1297,1297.0,0.0002801780690927492,0.0034431874077717655,0.07957258601119417,0.024841544299465924
009572,Bagaria utca,47.590242,19.08313,1849,1849.0,1.01177122062586e-08,0.001967535661583866,0.05024094896824416,0.010153755812187843
009573,Bagaria utca,47.590307,19.083674,1849,1849.0,1.01177122062586e-08,0.001967535661583866,0.05024094896824416,0.010153755812187843
009574,Ungvári utca,47.587511,19.082244,1848,1848.0,3.363587899028457e-09,0.0014756517461878996,0.05140068770226537,0.00738207416462101
009575,Ungvári utca,47.587265,19.082038,1848,1848.0,3.363587899028457e-09,0.0014756517461878996,0.05140068770226537,0.00738207416462101
009576,Rév utca,47.58481,19.081824,1853,1853.0,1.656850421061086e-09,0.000983767830791933,0.0508313539192399,0.0
009577,Savoya Park,47.436585,19.03968,1501,1501.0,6.611886430138856e-08,0.0004918839153959665,0.057303117424883025,0.0
009578,Savoya Park,47.436656,19.039269,1501,1501.0,6.611886430138856e-08,0.0004918839153959665,0.057303117424883025,0.0
009581,Gábor Áron utca,47.514978,19.002123,2124,2124.0,2.8176696386322278e-05,0.0014756517461878996,0.06450487038740997,0.000619325099119129
009582,János tér,47.442019,19.102563,1143,1143.0,3.90150963525493e-05,0.001967535661583866,0.07431642052931715,0.02014736977647808
009584,Békásmegyer H,47.597444,19.055543,1720,1720.0,1.2289118241119705e-07,0.002951303492375799,0.05378449165321834,0.026886178160391336
009587,Gogol utca,47.520447,19.05698,311,311.0,0.00015428931720118575,0.0014756517461878996,0.08072585768742059,0.0007328088220863398
009588,Kuruclesi út,47.518001,18.985232,2116,2116.0,7.274744545668084e-06,0.002459419576979833,0.060547398516841884,0.010777631675774913
009592,Kőbánya-Kispest P+R,47.46421,19.145941,1066,1066.0,0.0074314231481642365,0.004918839153959666,0.08572271883960196,0.16091189814993376
009625,Szigetcsép utca,47.464407,19.312714,104,104.0,4.178133535062977e-11,0.0014756517461878996,0.03633536487283516,0.0009871567947759606
009631,Gergely utca 80.,47.474086,19.144346,647,647.0,0.00012355898918964522,0.0014756517461878996,0.06569720471804814,0.0009646610216201249
009652,Széchenyi út,47.545721,19.112403,808,808.0,2.2585286749883605e-05,0.001967535661583866,0.0649334057299818,0.008842801922723383
009659,Mélyfúró utca,47.57759,19.129699,1799,1799.0,8.596840575637828e-10,0.0004918839153959665,0.0441093512692558,0.0
009667,Újbuda-központ M,47.474064,19.048204,1297,1297.0,0.0002801780690927492,0.0034431874077717655,0.07957258601119417,0.024841544299465924
009675,Clark Ádám tér,47.497665,19.041541,358,358.0,6.62256389498691e-05,0.000983767830791933,0.0792438121223933,0.0036535590270763796
009676,Clark Ádám tér,47.497359,19.041594,358,358.0,6.62256389498691e-05,0.000983767830791933,0.0792438121223933,0.0036535590270763796
009684,"Városközpont, Posta",47.478941,19.256176,188,188.0,0.0007467164056489655,0.0034431874077717655,0.05964850511985447,0.03483843755915671
009685,Akácvirág utca,47.477351,19.255241,186,186.0,0.0002857121777671536,0.0014756517461878996,0.056373568477386796,0.006604858886774192
009691,Flórián tér,47.539901,19.042054,1942,1942.0,1.2755092939086048e-05,0.000983767830791933,0.06914025302679908,0.000184372821299496
009692,Szentlélek tér H,47.539892,19.046769,1938,1938.0,4.9693557629822777e-05,0.005410723069355632,0.07425399028452463,0.13436450042941836
009693,Kolosy tér,47.527678,19.036823,2035,2035.0,0.0001223866562559443,0.002459419576979833,0.0743898422920707,0.023026931923196266
009698,Galántai utca,47.49837,19.015183,1244,1244.0,2.21001092075187e-05,0.0014756517461878996,0.06908856113640997,0.005338273229277748
009699,Galántai utca,47.498245,19.015329,1244,1244.0,2.21001092075187e-05,0.0014756517461878996,0.06908856113640997,0.005338273229277748
009704,Jászivány utca,47.495409,19.275378,112,112.0,1.609128662686414e-07,0.001967535661583866,0.04450427967864101,0.00057342878647702
009705,Diadal utca (Tura utca),47.49439,19.272268,114,114.0,3.3716128899486243e-07,0.000983767830791933,0.046476007589785796,0.0007274854696897455
009706,XVII. utca,47.491598,19.259995,171,171.0,3.315816678514133e-05,0.001967535661583866,0.05362276791601825,0.008496064452735087
009707,Aranykút utca,47.493794,19.278001,111,111.0,1.0261130654583154e-07,0.000983767830791933,0.0427334258208265,0.00029329673303136013
009708,Rákoscsaba vasútállomás,47.491547,19.281877,116,116.0,3.7195816299706377e-07,0.001967535661583866,0.04450038305789646,0.004047123779403311
009715,Zodony utca,47.430372,19.099913,1153,1153.0,4.14199342442722e-06,0.0004918839153959665,0.06156128875968992,0.0
009716,Pesterzsébet vasútállomás,47.433495,19.09594,1152,1152.0,2.0826505811049658e-05,0.003935071323167732,0.06559757356737222,0.006718443615755685
009717,Zamárdi utca,47.434221,19.093288,1156,1156.0,4.786919005173204e-06,0.000983767830791933,0.06156688168135429,2.604660890581004e-05
009718,Vízisport utca,47.434524,19.091361,1155,1155.0,3.2363686209106186e-06,0.0014756517461878996,0.061364322366435256,1.2103442800097603e-06
009719,Csepeli átjáró,47.436365,19.093238,1160,1160.0,6.687341384073716e-06,0.000983767830791933,0.06516443361753958,0.0009307063375563054
009728,Zsigmond utca,47.464014,19.318341,102,102.0,8.045498519788302e-12,0.0004918839153959665,0.03506200093130745,0.0
009729,Zsigmond utca,47.464016,19.317704,102,102.0,8.045498519788302e-12,0.0004918839153959665,0.03506200093130745,0.0
009730,Széll Kálmán tér M,47.506881,19.023541,1267,1267.0,0.0008084083617852665,0.005902606984751598,0.08419614014743643,0.18066270762154213
009743,Sirály utca,47.490376,19.019617,1272,1272.0,0.00011635807767522221,0.001967535661583866,0.07126581834753042,0.01094981017629483
011313,Szent László utca,47.405823,18.999264,1659,1659.0,9.179035080660903e-12,0.000983767830791933,0.04208499803341131,0.0009837678307919333
011320,Búza utca,47.553437,19.040325,1965,1965.0,1.3266361362701128e-06,0.000983767830791933,0.06138470364443371,0.003655508206120703
011321,Búza utca,47.55189,19.039647,1961,1961.0,1.3266361362701128e-06,0.000983767830791933,0.06138470364443371,0.003655508206120703
011322,"Óbuda, Bogdáni út",47.54983,19.041189,1959,1959.0,6.043895625697031e-06,0.001967535661583866,0.06528580603725112,0.009239433746695376
011495,Kék Golyó utca,47.497895,19.019895,1249,1249.0,0.00010024212363842145,0.0014756517461878996,0.07406193078324226,0.012462542146250597
011715,509. utca,47.484963,19.225442,151,151.0,0.11023725532986545,0.001967535661583866,0.07388965617503816,0.0002987179589720738
011723,"Rákoskeresztúr, városközpont",47.479536,19.255542,188,188.0,0.0007467164056489655,0.0034431874077717655,0.05964850511985447,0.03483843755915671
011725,"Rákoskeresztúr, városközpont",47.479815,19.255331,187,187.0,0.0006797779888362282,0.002459419576979833,0.05955414945660134,0.027974253504288307
011726,"Rákoskeresztúr, városközpont",47.479942,19.254761,187,187.0,0.0006797779888362282,0.002459419576979833,0.05955414945660134,0.027974253504288307
011762,Újpest-városkapu M,47.559059,19.078791,1874,1874.0,2.423523840403442e-06,0.002459419576979833,0.06876606683804627,0.06578011626568621
011773,Keresztúri út,47.484645,19.22775,152,152.0,0.05130687905803032,0.000983767830791933,0.07042887826508695,0.0
016532,Pillangó utca M,47.501627,19.120154,600,600.0,0.12145815079325396,0.0014756517461878996,0.08563966468680231,0.16752521696922193
016725,Rózsaliget,47.466582,19.158453,530,530.0,0.0003874531774031505,0.000983767830791933,0.06872654744599574,1.94253229732607e-05
016727,Újbuda-központ M,47.474649,19.046771,1297,1297.0,0.0002801780690927492,0.0034431874077717655,0.07957258601119417,0.024841544299465924
019313,Rákoskert vasútállomás,47.457296,19.295147,101,101.0,1.6598248343675384e-10,0.0004918839153959665,0.03769212229082077,0.0
019314,Rákoskert sugárút,47.459518,19.299202,100,100.0,8.619663980344608e-10,0.0014756517461878996,0.039167710239861285,0.0029459779775437567
019316,Rákoscsaba vasútállomás,47.491014,19.28287,116,116.0,3.7195816299706377e-07,0.001967535661583866,0.04450038305789646,0.004047123779403311
022005,Tölgy utca,47.41637,19.205427,903,903.0,1.134390066166438e-06,0.000983767830791933,0.05965550632354236,0.0006790023372957879
036678,Széll Kálmán tér M,47.50671,19.02524,1267,1267.0,0.0008084083617852665,0.005902606984751598,0.08419614014743643,0.18066270762154213
038671,Kőbánya-Kispest M,47.462344,19.148344,1066,1066.0,0.0074314231481642365,0.004918839153959666,0.08572271883960196,0.16091189814993376
038673,Kőbánya-Kispest M,47.462694,19.149021,1066,1066.0,0.0074314231481642365,0.004918839153959666,0.08572271883960196,0.16091189814993376
038674,Kőbánya-Kispest M,47.462974,19.147562,1066,1066.0,0.0074314231481642365,0.004918839153959666,0.08572271883960196,0.16091189814993376
038675,Kőbánya-Kispest M,47.463191,19.146979,1066,1066.0,0.0074314231481642365,0.004918839153959666,0.08572271883960196,0.16091189814993376
038678,Kőbánya-Kispest M,47.463037,19.147748,1066,1066.0,0.0074314231481642365,0.004918839153959666,0.08572271883960196,0.16091189814993376
038680,Kőbánya-Kispest M,47.462929,19.148252,1066,1066.0,0.0074314231481642365,0.004918839153959666,0.08572271883960196,0.16091189814993376
038682,Kőbánya-Kispest M,47.462912,19.149201,1066,1066.0,0.0074314231481642365,0.004918839153959666,0.08572271883960196,0.16091189814993376
038683,Kőbánya-Kispest M,47.462976,19.148644,1066,1066.0,0.0074314231481642365,0.004918839153959666,0.08572271883960196,0.16091189814993376
038686,Kőbánya-Kispest M,47.46346,19.147245,1066,1066.0,0.0074314231481642365,0.004918839153959666,0.08572271883960196,0.16091189814993376
038687,Kőbánya-Kispest M,47.463307,19.147921,1066,1066.0,0.0074314231481642365,0.004918839153959666,0.08572271883960196,0.16091189814993376
038692,Kőbánya-Kispest M,47.462517,19.148683,1066,1066.0,0.0074314231481642365,0.004918839153959666,0.08572271883960196,0.16091189814993376
038717,Deák Ferenc tér M,47.499032,19.05403,366,366.0,0.002881170524049029,0.004426955238563699,0.09729600382866714,0.2526679187957686
038791,Kőbánya alsó vasútállomás,47.483103,19.128249,582,582.0,0.004834883902284469,0.000983767830791933,0.07556216316669764,0.0
040525,Hentes utca,47.462276,19.08457,1376,1376.0,1.6206718646743689e-06,0.000983767830791933,0.06642054364871929,0.00046210790916260865
040526,Hentes utca,47.4626,19.084411,1376,1376.0,1.6206718646743689e-06,0.000983767830791933,0.06642054364871929,0.00046210790916260865
040608,Zsivora park,47.509134,19.148798,736,736.0,0.039909562277231324,0.000983767830791933,0.07175378533865104,0.0
040609,Szent Imre tér H,47.43178,19.067901,1542,1542.0,5.793321359834306e-07,0.0034431874077717655,0.06197037127354752,0.06925914486870334
040612,Bányató utca,47.466331,19.165078,532,532.0,0.018192792218180223,0.000983767830791933,0.08286459607075895,0.08164405310192628
040761,Határ út M,47.465789,19.128011,658,658.0,0.003398837334813613,0.004918839153959666,0.08965426001058388,0.16365702121575013
040762,Határ út M,47.465339,19.127838,658,658.0,0.003398837334813613,0.004918839153959666,0.08965426001058388,0.16365702121575013
040763,Határ út M,47.465069,19.128275,658,658.0,0.003398837334813613,0.004918839153959666,0.08965426001058388,0.16365702121575013
040789,Kerékgyártó utca,47.52099,19.106438,780,780.0,0.0001436180759616392,0.000983767830791933,0.06813459347141229,0.0011626145015739644
041071,Nagyvárad tér M,47.479255,19.088352,447,447.0,0.001701410361148987,0.002951303492375799,0.09562558795860772,0.18773431362130386
041092,Csepeli Kórház,47.424622,19.058674,1532,1532.0,6.384080910163863e-09,0.000983767830791933,0.05240636197252081,1.4524131360117124e-06
041093,Duna utca,47.428215,19.059125,1535,1535.0,2.5121089694263857e-08,0.000983767830791933,0.05515463917525773,0.000932610612556854
041094,Színesfém utca,47.430535,19.0646,1541,1541.0,1.1999042750767319e-07,0.000983767830791933,0.05836419487267821,0.0019139577547887677
041095,Szent Imre tér H,47.432046,19.067318,1542,1542.0,5.793321359834306e-07,0.0034431874077717655,0.06197037127354752,0.06925914486870334
041209,Boráros tér H,47.479333,19.066923,461,461.0,0.00022943626497090312,0.002951303492375799,0.08338118283979985,0.06706824772850167
042933,Népliget M,47.475823,19.100289,616,616.0,0.002133208233937117,0.002951303492375799,0.09353577179664137,0.2155050729768478
042934,"Soroksár, BILK",47.378287,19.121299,992,992.0,3.434386217695549e-11,0.0004918839153959665,0.04292652027027027,0.0
043192,Kisvárda utca,47.471587,19.282412,196,196.0,4.598698659464416e-07,0.000983767830791933,0.04621399831783774,0.012454434572338566
043193,Kisvárda utca,47.471324,19.283632,196,196.0,4.598698659464416e-07,0.000983767830791933,0.04621399831783774,0.012454434572338566
043331,Szentlőrinci úti lakótelep,47.417185,19.130752,1124,1124.0,4.457554479051115e-07,0.0004918839153959665,0.0579334321212812,0.0
043341,György utca,47.53094,19.171561,674,674.0,9.23415688475474e-05,0.0014756517461878996,0.058100654454002455,0.00416982394056873
043342,Régi Fóti út,47.559188,19.122464,1815,1815.0,2.0058121690493608e-06,0.002459419576979833,0.06059070723929306,0.03426571990184316
043343,Csörsz utca,47.49062,19.02465,1271,1271.0,0.00025116937019869004,0.002951303492375799,0.0726616390864577,0.028658304477878697
043548,Csaba vezér tér,47.487256,19.286582,123,123.0,7.604763035914801e-07,0.002459419576979833,0.04642188427638489,0.012007718866378345
043554,Enying utca,47.475377,19.297911,92,92.0,2.333471005821428e-09,0.0014756517461878996,0.039205476810336516,0.0019670515238718626
043555,Sport tér,47.477046,19.295809,93,93.0,1.1219306908766104e-08,0.000983767830791933,0.04080117205531138,0.0029483986661037764
043556,Rés utca,47.480202,19.29187,128,128.0,5.5929612593658414e-08,0.000983767830791933,0.04253049099391226,0.003929261670623686
043571,Dukát utca,47.408304,18.991015,1663,1663.0,2.970286571591053e-11,0.000983767830791933,0.04148894920511826,0.0007968993561511868
044076,Déli utca,47.423173,19.061198,1533,1533.0,6.941414807968984e-09,0.000983767830791933,0.052559462254395034,5.164135594708311e-05
044127,Száva kocsiszín,47.46642,19.123095,659,659.0,6.259391031016563e-05,0.0004918839153959665,0.07078444343859894,0.0
044135,Íves út,47.593086,19.107022,1787,1787.0,2.542984341046693e-10,0.0014756517461878996,0.04843820733363513,0.0018171965186069806
044388,"Soroksár, Auchan áruház",47.419788,19.155599,886,886.0,4.637325378469434e-07,0.000983767830791933,0.0579367341122827,0.0009837678307919333
044557,"Újpest, Árpád út hajóállomás",47.562796,19.078314,1877,1877.0,6.423374881369533e-07,0.001967535661583866,0.06470812909796932,0.02312752359255352
044637,Görögkatolikus templom,47.423117,19.078036,1550,1550.0,3.263848971901659e-09,0.000983767830791933,0.05020868835049764,0.0034175281090355588
044638,Görögkatolikus templom,47.424034,19.077997,1550,1550.0,3.263848971901659e-09,0.000983767830791933,0.05020868835049764,0.0034175281090355588
045755,Maros utca,47.418292,19.138131,1131,1131.0,5.085257151420802e-06,0.000983767830791933,0.06549613402061856,0.0029425890135597295
047671,Új köztemető,47.472614,19.177828,508,508.0,0.0870343112500822,0.004426955238563699,0.08082534886494652,0.08928226841672549
048471,Pasaréti tér,47.523609,18.994082,2004,2004.0,7.609174752329518e-07,0.0014756517461878996,0.05750898135837741,0.005892987261441636
048505,Szent István Bazilika,47.500687,19.054694,292,292.0,0.0008564776801610821,0.0014756517461878996,0.08876178833391547,0.0011579123554984595
048506,Szent István Bazilika,47.500273,19.055025,292,292.0,0.0008564776801610821,0.0014756517461878996,0.08876178833391547,0.0011579123554984595
048519,"Rákospalota, Kossuth utca",47.568509,19.125605,1819,1819.0,1.5400561288797045e-07,0.002459419576979833,0.05293168089981254,0.00521109771000217
049170,Szent István utca H,47.391218,19.114446,1001,1001.0,4.990587652300445e-07,0.001967535661583866,0.057749119418247924,0.0024577250949878193
049171,Zsellér dűlő,47.391331,19.118615,999,999.0,1.8937320128827567e-07,0.000983767830791933,0.05460063382929581,7.262065680058562e-07
049172,Gyáli-patak,47.394752,19.116782,1000,1000.0,4.4919951337711527e-07,0.000983767830791933,0.05774255850942968,0.0004911577088279607
049174,"Soroksár, Kertvárosi körút",47.413026,19.136152,1127,1127.0,4.637325378469434e-07,0.000983767830791933,0.0579367341122827,0.0009837678307919333
049177,Kárpát utca,47.527408,19.059105,257,257.0,9.859689225192182e-06,0.0004918839153959665,0.0724415621436716,0.0
049178,Révész utca,47.52685,19.061482,258,258.0,3.605957000731884e-05,0.0004918839153959665,0.07802425544980043,0.0
049180,Dagály fürdő,47.5391,19.061698,246,246.0,1.65375320952182e-07,0.0014756517461878996,0.0616639873820862,0.0005725512386820143
049182,Úszódaru utca,47.546042,19.069019,215,215.0,2.039775880840468e-07,0.0014756517461878996,0.06244816464444786,0.0010024916394320343
049183,Úszódaru utca,47.545898,19.068806,215,215.0,2.039775880840468e-07,0.0014756517461878996,0.06244816464444786,0.0010024916394320343
049185,Szántóföld utca,47.572636,19.139461,1796,1796.0,4.622052755961191e-08,0.0014756517461878996,0.051740812379110254,0.0028719570015407615
049892,Május 9. park,47.550437,19.050992,1956,1956.0,2.741999040588142e-06,0.0014756517461878996,0.06166959898076806,0.0029483986661037764
049893,Sporttelep,47.547649,19.05442,1953,1953.0,5.763264764628247e-07,0.000983767830791933,0.05809567354403612,0.0019665673861598587
049894,Óbudai-sziget hajóállomás,47.550284,19.056679,1952,1952.0,1.210490030895463e-07,0.000983767830791933,0.054910328435609335,0.0009837678307919333
049895,Óbudai-sziget,47.554453,19.057889,1954,1954.0,2.441332134048535e-08,0.0004918839153959665,0.05205346169602622,0.0
049896,Óbudai-sziget hajóállomás,47.550545,19.056732,1952,1952.0,1.210490030895463e-07,0.000983767830791933,0.054910328435609335,0.0009837678307919333
049897,Sporttelep,47.547739,19.054938,1953,1953.0,5.763264764628247e-07,0.000983767830791933,0.05809567354403612,0.0019665673861598587
049898,Május 9. park,47.550311,19.051192,1956,1956.0,2.741999040588142e-06,0.0014756517461878996,0.06166959898076806,0.0029483986661037764
049900,Kaszásdűlő H,47.555582,19.044907,1966,1966.0,6.957273243867821e-06,0.0034431874077717655,0.0656378135795693,0.06643407504140135
049903,Mansfeld Péter park,47.517075,19.033226,333,333.0,4.9673305821273955e-05,0.000983767830791933,0.07231015472167882,0.0019387510810103487
050184,Lőrinci piac,47.44313,19.184332,968,968.0,0.00010086283183170188,0.000983767830791933,0.06456222807964686,0.000495875774100509
050279,Lomnici utca,47.436482,19.019517,1602,1602.0,4.4679863925696697e-07,0.000983767830791933,0.056988282782979204,0.0021891552095233678
056123,Borsmenta utca,47.572507,19.010551,1680,1680.0,2.2057935415963106e-11,0.0004918839153959665,0.04033330026783057,0.0
056124,Citronella utca,47.571696,19.006817,1681,1681.0,2.2057935415963106e-11,0.0004918839153959665,0.04033330026783057,0.0
056161,Csillaghegy H [1],47.584475,19.044175,1736,1736.0,3.6538788321896867e-07,0.0034431874077717655,0.05622079035424905,0.048273857699740345
056162,Mészkő utca [2],47.579492,19.034353,1688,1688.0,1.7173810162782975e-08,0.0014756517461878996,0.05075901328273245,0.011249259890633129
056163,Mészkő utca [2],47.579402,19.034313,1688,1688.0,1.7173810162782975e-08,0.0014756517461878996,0.05075901328273245,0.011249259890633129
056165,Öregbükk utca [3],47.58102,19.030165,1686,1686.0,3.6502954327111744e-09,0.000983767830791933,0.04832422153553601,0.006866041031639369
056166,Öregbükk utca [3],47.580966,19.030085,1686,1686.0,3.6502954327111744e-09,0.000983767830791933,0.04832422153553601,0.006866041031639369
056168,Cserszömörce utca [4],47.582575,19.026017,1695,1695.0,8.320078419253397e-10,0.0014756517461878996,0.046110229076888186,0.005888082853391482
056169,Cserszömörce utca [4],47.582485,19.025937,1695,1695.0,8.320078419253397e-10,0.0014756517461878996,0.046110229076888186,0.005888082853391482
056170,Muzsla utca [7],47.581136,19.024197,1694,1694.0,2.2486033156625626e-10,0.0014756517461878996,0.04408543857746937,0.0014732310576278803
056172,Óarany utca [8],47.579364,19.02344,1691,1691.0,4.992106171448153e-11,0.000983767830791933,0.04222836134017406,0.0004913997776839627
056173,Mácsonya utca [5],47.583942,19.023265,1693,1693.0,2.2523848682984848e-10,0.0014756517461878996,0.044086394587327056,0.0024555464752838018
056174,Mácsonya utca [5],47.583879,19.023212,1693,1693.0,2.2523848682984848e-10,0.0014756517461878996,0.044086394587327056,0.0024555464752838018
056187,Muzsla utca [7],47.581109,19.02429,1694,1694.0,2.2486033156625626e-10,0.0014756517461878996,0.04408543857746937,0.0014732310576278803
056188,Óarany utca [8],47.579337,19.023533,1691,1691.0,4.992106171448153e-11,0.000983767830791933,0.04222836134017406,0.0004913997776839627
056189,Ipacsfa utca,47.429484,19.168656,893,893.0,6.535015988781484e-05,0.002951303492375799,0.07029737206085754,0.01358492547645836
061136,Rákosszeg park,47.534267,19.103451,765,765.0,8.876262039718225e-05,0.000983767830791933,0.0683223551552628,0.0019980829040905017
061188,Kelenföld vasútállomás M,47.464005,19.018706,1413,1413.0,0.00014721160128550767,0.004426955238563699,0.07229472636108246,0.0676980425782687
061222,Kelenföld vasútállomás M,47.464364,19.018786,1413,1413.0,0.00014721160128550767,0.004426955238563699,0.07229472636108246,0.0676980425782687
061223,Neszmélyi út,47.460801,19.013867,1420,1420.0,3.0973473537931174e-05,0.0014756517461878996,0.06694326451315487,0.0003037001604970619
061224,Péterhegyi út / Neszmélyi út,47.45859,19.018802,1405,1405.0,1.7887478635353038e-05,0.0014756517461878996,0.06331558130119282,4.217492167446911e-05
061225,Hajtány sor,47.455342,19.024398,1408,1408.0,1.5149450273089532e-06,0.0014756517461878996,0.05989452906342987,0.004508982069157861
061226,Péterhegyi út (Menyecske utca),47.461432,19.018933,1417,1417.0,3.5827578059681164e-05,0.0014756517461878996,0.06747203876406359,0.004023137423774832
061227,Péterhegyi út (Menyecske utca),47.461046,19.018907,1417,1417.0,3.5827578059681164e-05,0.0014756517461878996,0.06747203876406359,0.004023137423774832
061231,Pajkos utca,47.456866,19.030526,1427,1427.0,4.864504467571839e-07,0.0014756517461878996,0.05736617850390812,0.0004787067509391802
061232,Pajkos utca,47.457144,19.029107,1427,1427.0,4.864504467571839e-07,0.0014756517461878996,0.05736617850390812,0.0004787067509391802
061233,Antalháza,47.436488,19.007202,1582,1582.0,1.2775476318554076e-05,0.000983767830791933,0.0637244146318528,0.006406027241957593
061234,Antalháza,47.436388,19.006937,1582,1582.0,1.2775476318554076e-05,0.000983767830791933,0.0637244146318528,0.006406027241957593
061236,Bíbic utca,47.412085,19.005088,1675,1675.0,1.7664663384178174e-08,0.0014756517461878996,0.051895341416719844,0.016468509100314572
061237,Bíbic utca,47.411959,19.005128,1675,1675.0,1.7664663384178174e-08,0.0014756517461878996,0.051895341416719844,0.016468509100314572
061238,Nyéki Imre Uszoda,47.450954,19.036666,1456,1456.0,4.519576251833469e-08,0.000983767830791933,0.05240230951644499,0.00045966892477492097
061271,Igmándi utca,47.457248,19.019994,1406,1406.0,1.2177384970960536e-05,0.0014756517461878996,0.06331558130119282,0.005529071890782428
061272,Bolygó utca,47.451139,19.016244,1402,1402.0,6.547980647127899e-07,0.0014756517461878996,0.05663425913028944,0.0022249549221769224
061273,Bolygó utca,47.450752,19.016218,1402,1402.0,6.547980647127899e-07,0.0014756517461878996,0.05663425913028944,0.0022249549221769224
061274,Kelenföld vasútállomás M,47.464094,19.018481,1413,1413.0,0.00014721160128550767,0.004426955238563699,0.07229472636108246,0.0676980425782687
061275,Kelenföld vasútállomás M,47.464337,19.018507,1413,1413.0,0.00014721160128550767,0.004426955238563699,0.07229472636108246,0.0676980425782687
061277,Kelenföld vasútállomás M,47.464634,19.018494,1413,1413.0,0.00014721160128550767,0.004426955238563699,0.07229472636108246,0.0676980425782687
061278,Kelenföld vasútállomás M,47.464751,19.017791,1413,1413.0,0.00014721160128550767,0.004426955238563699,0.07229472636108246,0.0676980425782687
061280,Kelenföld vasútállomás M,47.464436,19.018308,1413,1413.0,0.00014721160128550767,0.004426955238563699,0.07229472636108246,0.0676980425782687
061286,Szabina út,47.437241,19.013747,1580,1580.0,2.1073280328686503e-06,0.002459419576979833,0.06026560739906326,0.015522068909265623
061350,Keleti pályaudvar M,47.499809,19.083229,494,494.0,0.02466914550783931,0.005410723069355632,0.09295839048925468,0.29468237449917295
061351,Keleti pályaudvar M,47.499809,19.083839,494,494.0,0.02466914550783931,0.005410723069355632,0.09295839048925468,0.29468237449917295
061368,Munkás utca,47.499918,19.079088,495,495.0,0.005323153657932845,0.0014756517461878996,0.08514826604121294,0.002237946199798838
062511,Than Károly utca,47.460867,19.025127,1425,1425.0,3.107615667712754e-05,0.000983767830791933,0.06751461211477151,0.006132038184394679
062512,Borszéki utca,47.45842,19.023497,1426,1426.0,6.5922781733597695e-06,0.000983767830791933,0.0634103739746109,0.005191737851178833
062513,Jégmadár utca,47.430794,19.005802,1606,1606.0,6.2561688390057146e-06,0.001967535661583866,0.060304935927859515,0.01278376319403912
062514,Jégmadár utca,47.430722,19.005656,1606,1606.0,6.2561688390057146e-06,0.001967535661583866,0.060304935927859515,0.01278376319403912
062515,Török utca,47.412771,18.989465,1654,1654.0,4.393999005875821e-12,0.000983767830791933,0.04022238050015828,0.0005330222425076621
062516,Török utca,47.412851,18.988856,1654,1654.0,4.393999005875821e-12,0.000983767830791933,0.04022238050015828,0.0005330222425076621
062517,Rózsák tere,47.501817,19.075598,404,404.0,0.0017622318251771176,0.001967535661583866,0.0827061551604898,0.0017488390182110515
062518,Március 15. tér,47.491881,19.051747,373,373.0,0.0013306093389916635,0.004426955238563699,0.08986826982583326,0.038100496549351236
062519,Gazdagréti út,47.462741,19.005126,1340,1340.0,0.00012416058982595227,0.003935071323167732,0.07183999434608997,0.04140742790736921
062521,Corvin-negyed M,47.486357,19.06885,470,470.0,0.0012440722893922492,0.001967535661583866,0.09153946598225944,0.034117531926055
062522,XIII. utca / Dózsa György út,47.41113,18.993901,1657,1657.0,1.1435626285529046e-11,0.001967535661583866,0.04183816266052025,0.003470209244049471
062607,Infopark (Pázmány Péter sétány),47.469872,19.062941,1363,1363.0,1.3520107282297343e-06,0.0004918839153959665,0.06390670187350685,0.0
062608,Magyar tudósok körútja,47.471473,19.063671,1365,1365.0,6.894192460675301e-06,0.000983767830791933,0.06826729348556078,0.0009837678307919333
062620,Egyetemváros - A38 hajóállomás,47.47329,19.063539,1364,1364.0,3.383390937896583e-05,0.000983767830791933,0.07326126126126126,0.0019665673861598587
062621,Egyetemváros - A38 hajóállomás,47.47373,19.063592,1364,1364.0,3.383390937896583e-05,0.000983767830791933,0.07326126126126126,0.0019665673861598587
062622,Magyar tudósok körútja,47.472183,19.063857,1365,1365.0,6.894192460675301e-06,0.000983767830791933,0.06826729348556078,0.0009837678307919333
062726,Régi vám,47.445631,19.005613,1588,1588.0,5.6906353805703587e-05,0.001967535661583866,0.06761340960489556,0.007686482019581151
062756,Dagály fürdő,47.537697,19.062787,245,245.0,6.126959225136948e-07,0.000983767830791933,0.06485676003317807,0.0001462622643260233
062757,Karikás Frigyes utca,47.536815,19.067116,243,243.0,2.564392506928008e-06,0.000983767830791933,0.06930760576824736,0.001080698191328016
062759,Kálvin tér M,47.48858,19.064087,464,464.0,0.0040448439687449395,0.005410723069355632,0.09853625436215588,0.3359258285472665
062815,Szent László utca,47.405382,18.999105,1659,1659.0,9.179035080660903e-12,0.000983767830791933,0.04208499803341131,0.0009837678307919333
062861,Dagály fürdő,47.53785,19.062428,245,245.0,6.126959225136948e-07,0.000983767830791933,0.06485676003317807,0.0001462622643260233
062942,Péterfy Sándor utca,47.501636,19.077828,405,405.0,0.0011902715918099163,0.000983767830791933,0.07860954295878123,0.00022311235051619327
063399,Hulladékhasznosító Mű,47.584164,19.131198,1770,1770.0,8.965537342296248e-10,0.000983767830791933,0.04411126540531158,0.000983767830791933
064208,Szépvölgyi köz,47.541088,19.00194,1975,1975.0,4.98893431809122e-10,0.000983767830791933,0.0467829528718704,0.0019665673861598587
064209,Szépvölgyi köz,47.541088,19.001608,1975,1975.0,4.98893431809122e-10,0.000983767830791933,0.0467829528718704,0.0019665673861598587
064210,Fenyőgyöngye,47.54037,19.005647,1976,1976.0,2.371604621434698e-09,0.000983767830791933,0.049073090663319496,0.0029483986661037764
064212,Selyemakác utca,47.543118,18.996373,1977,1977.0,1.0487078248554633e-10,0.000983767830791933,0.04469507101086048,0.0009837678307919333
064214,Selyemakác utca,47.543064,18.996307,1977,1977.0,1.0487078248554633e-10,0.000983767830791933,0.04469507101086048,0.0009837678307919333
064215,Szépvölgyi dűlő,47.545841,18.992119,1978,1978.0,2.11660471344612e-11,0.0004918839153959665,0.04278378719643083,0.0
064377,Ürömhegyi út / Jutas utca [11],47.582618,19.015383,1690,1690.0,1.0607451931536539e-11,0.0004918839153959665,0.04051980148685548,0.0
066434,Népliget M,47.47613,19.09761,616,616.0,0.002133208233937117,0.002951303492375799,0.09353577179664137,0.2155050729768478
066451,Infopark,47.469171,19.059717,1358,1358.0,3.489768067254707e-05,0.000983767830791933,0.07578468649817341,0.0375941246757051
066452,Infopark,47.469072,19.0605,1358,1358.0,3.489768067254707e-05,0.000983767830791933,0.07578468649817341,0.0375941246757051
066453,Budafoki út / Dombóvári út,47.469808,19.053655,1356,1356.0,4.168806599588503e-05,0.002459419576979833,0.07705135493651696,0.05065255176259315
066454,Budafoki út / Dombóvári út,47.469646,19.054384,1356,1356.0,4.168806599588503e-05,0.002459419576979833,0.07705135493651696,0.05065255176259315
066455,Hauszmann Alajos utca / Szerémi út,47.466536,19.04957,1354,1354.0,8.756492756278715e-06,0.000983767830791933,0.07180954399350076,0.004472393173941535
066456,Hauszmann Alajos utca / Szerémi út,47.467013,19.049756,1354,1354.0,8.756492756278715e-06,0.000983767830791933,0.07180954399350076,0.004472393173941535
066457,Hengermalom út / Szerémi út,47.462066,19.048336,1433,1433.0,2.834694275225949e-06,0.000983767830791933,0.06787753330439718,0.003720542796226008
066458,Hengermalom út / Szerémi út,47.462551,19.048509,1433,1433.0,2.834694275225949e-06,0.000983767830791933,0.06787753330439718,0.003720542796226008
066459,Etele út / Fehérvári út,47.462389,19.042594,1438,1438.0,5.573315706814588e-06,0.002459419576979833,0.06724662609155861,0.009580977173467089
066460,Etele út / Fehérvári út,47.462254,19.043363,1438,1438.0,5.573315706814588e-06,0.002459419576979833,0.06724662609155861,0.009580977173467089
066679,Pallós utca,47.487056,19.291849,126,126.0,1.523319608409077e-07,0.000983767830791933,0.0443692710606722,0.002293678988156475
066680,Pallós utca,47.487039,19.291504,126,126.0,1.523319608409077e-07,0.000983767830791933,0.0443692710606722,0.002293678988156475
066681,Jókai Mór Általános Iskola,47.487985,19.294719,127,127.0,3.05986498299079e-08,0.000983767830791933,0.04249404289118348,0.0013142683967725523
066682,Jókai Mór Általános Iskola,47.487887,19.294135,127,127.0,3.05986498299079e-08,0.000983767830791933,0.04249404289118348,0.0013142683967725523
066683,Csabamező utca / Göcsej utca,47.486349,19.298294,121,121.0,6.570020472450521e-09,0.000983767830791933,0.04077089683940318,0.0003355033223380213
066684,Csabamező utca / Göcsej utca,47.486224,19.297962,121,121.0,6.570020472450521e-09,0.000983767830791933,0.04077089683940318,0.0003355033223380213
066685,Ecsedháza köz,47.487963,19.300796,120,120.0,3.520194401078021e-09,0.000983767830791933,0.03918356333359032,4.760687501371723e-06
066686,Ecsedháza köz,47.488008,19.30077,120,120.0,3.520194401078021e-09,0.000983767830791933,0.03918356333359032,4.760687501371723e-06
066687,Ede utca,47.490027,19.303088,118,118.0,1.171075606618245e-08,0.0014756517461878996,0.04077580328131895,0.002616929824699029
066688,Ede utca,47.490153,19.30297,118,118.0,1.171075606618245e-08,0.0014756517461878996,0.04077580328131895,0.002616929824699029
066697,Rés utca,47.480157,19.291817,128,128.0,5.5929612593658414e-08,0.000983767830791933,0.04253049099391226,0.003929261670623686
066698,Sport tér,47.476785,19.295994,93,93.0,1.1219306908766104e-08,0.000983767830791933,0.04080117205531138,0.0029483986661037764
066699,Enying utca,47.475188,19.298029,92,92.0,2.333471005821428e-09,0.0014756517461878996,0.039205476810336516,0.0019670515238718626
066700,Szárazhegy köz,47.473213,19.300607,94,94.0,4.493388014912506e-10,0.0004918839153959665,0.03772709558891755,0.0
066711,Rákoscsaba-Újtelep vasútállomás,47.486549,19.271041,179,179.0,2.2653042105480806e-05,0.0014756517461878996,0.05100095328884652,0.0055636793557554826
066712,Szabadság sugárút / Péceli út,47.482938,19.273347,202,202.0,6.476638970905827e-05,0.001967535661583866,0.05354086013009929,0.031534930454818505
066713,Szabadság sugárút / Péceli út,47.482631,19.274063,202,202.0,6.476638970905827e-05,0.001967535661583866,0.05354086013009929,0.031534930454818505
066714,Nyitány utca,47.480756,19.275992,201,201.0,1.2971942897714239e-05,0.000983767830791933,0.05082881216091207,0.0029483986661037764
066715,Nyitány utca,47.481053,19.275794,201,201.0,1.2971942897714239e-05,0.000983767830791933,0.05082881216091207,0.0029483986661037764
066716,Öntöző utca,47.478737,19.278238,199,199.0,2.5979702803309863e-06,0.000983767830791933,0.04837596668649613,0.0019665673861598587
066717,Öntöző utca,47.478899,19.278173,199,199.0,2.5979702803309863e-06,0.000983767830791933,0.04837596668649613,0.0019665673861598587
066718,Pestvidék utca,47.476592,19.280644,193,193.0,5.195393541251759e-07,0.000983767830791933,0.04614686187719896,0.0009837678307919333
066719,Pestvidék utca,47.476781,19.280538,193,193.0,5.195393541251759e-07,0.000983767830791933,0.04614686187719896,0.0009837678307919333
066720,Derkovits tér,47.474869,19.283024,194,194.0,1.0004427991743521e-07,0.0004918839153959665,0.044112222535639116,0.0
066722,Nyeremény utca,47.474596,19.284416,194,194.0,1.0004427991743521e-07,0.0004918839153959665,0.044112222535639116,0.0
066828,Göncz Árpád városközpont M,47.532812,19.065866,249,249.0,6.15250418094876e-05,0.002951303492375799,0.08038114818915072,0.12884867267885666
066856,Pagony utca,47.495101,19.00283,1219,1219.0,2.5663338488317556e-07,0.0014756517461878996,0.055247567802597965,0.0038092760395923107
066969,Zimonyi utca,47.471748,19.29995,95,95.0,4.493388014912506e-10,0.0004918839153959665,0.03772709558891755,0.0
067592,Batthyány tér M+H,47.506515,19.038487,335,335.0,0.0009194059497574765,0.0034431874077717655,0.08852987284445218,0.1088956053168263
069089,"Margit híd, budai hídfő H",47.515149,19.037569,328,328.0,0.0010999544051015727,0.006394490900147565,0.08436384762220932,0.11932949651141739
069090,"Margit híd, budai hídfő H",47.515122,19.037158,328,328.0,0.0010999544051015727,0.006394490900147565,0.08436384762220932,0.11932949651141739
069091,"Margit híd, budai hídfő H",47.514717,19.035936,328,328.0,0.0010999544051015727,0.006394490900147565,0.08436384762220932,0.11932949651141739
069092,Bem József tér,47.512082,19.039455,339,339.0,0.0005012014821098057,0.0014756517461878996,0.08268597226176434,0.0
069093,Bem József tér,47.511776,19.039296,339,339.0,0.0005012014821098057,0.0014756517461878996,0.08268597226176434,0.0
069403,Jahn Ferenc Kórház,47.423225,19.132016,1110,1110.0,5.0706501710678e-06,0.0014756517461878996,0.06583762427539752,0.01164685150705732
071262,BudaPart,47.468505,19.058444,1357,1357.0,8.195110802800295e-06,0.0004918839153959665,0.07154168279550974,0.0
071659,Nyugati pályaudvar M,47.509726,19.05492,304,304.0,0.0013887331431408794,0.0034431874077717655,0.0923377390198483,0.11897214598721052
072851,Maros utcai rendelőintézet,47.503868,19.022427,1260,1260.0,0.0001389269565136759,0.000983767830791933,0.0738118578223142,0.0001862540294773128
072934,Rudas Gyógyfürdő,47.49011,19.047195,375,375.0,0.000649675422686373,0.002459419576979833,0.08639666822489482,0.01760121361755118
072935,Rudas Gyógyfürdő,47.489824,19.047383,375,375.0,0.000649675422686373,0.002459419576979833,0.08639666822489482,0.01760121361755118
073152,Maros utca,47.505533,19.021637,1259,1259.0,0.0003057849164682499,0.002459419576979833,0.07770515613652869,0.0018166605104906791
075220,Óbudai autóbuszgarázs,47.567996,19.027538,1911,1911.0,1.789473916654658e-09,0.001967535661583866,0.046239224873200355,0.008043073262338407
075654,Köves út / Szentlőrinci út,47.416057,19.143215,1129,1129.0,0.0005149738446820587,0.000983767830791933,0.08068741070011112,0.02149515018998273
075655,Köves út / Szentlőrinci út,47.416265,19.143244,1129,1129.0,0.0005149738446820587,0.000983767830791933,0.08068741070011112,0.02149515018998273
075744,Sasadi út,47.465452,19.015814,1411,1411.0,0.0001682167310735287,0.0034431874077717655,0.06982415166918533,0.027741213793720562
076394,Aranyvölgy vasútállomás,47.574337,19.016474,1698,1698.0,1.831826363732875e-11,0.0014756517461878996,0.040633182099814126,0.003929261670623686
076395,Aranyvölgy vasútállomás,47.573789,19.01766,1698,1698.0,1.831826363732875e-11,0.0014756517461878996,0.040633182099814126,0.003929261670623686
076396,Óbuda vasútállomás (Aranyhegyi út),47.570439,19.028424,1697,1697.0,3.7907505855453695e-10,0.000983767830791933,0.04420814578032922,0.005888082853391482
076397,Óbuda vasútállomás (Aranyhegyi út),47.570755,19.027745,1697,1697.0,3.7907505855453695e-10,0.000983767830791933,0.04420814578032922,0.005888082853391482
076398,Aranyvölgy utca 14.,47.571859,19.022431,1700,1700.0,8.061569623465788e-11,0.000983767830791933,0.0423462267491512,0.004909156399719588
076399,Aranyvölgy utca 14.,47.572096,19.021853,1700,1700.0,8.061569623465788e-11,0.000983767830791933,0.0423462267491512,0.004909156399719588
078004,Széll Kálmán tér M,47.507124,19.023155,1267,1267.0,0.0008084083617852665,0.005902606984751598,0.08419614014743643,0.18066270762154213
078064,Nyéki Imre Uszoda,47.451074,19.037384,1456,1456.0,4.519576251833469e-08,0.000983767830791933,0.05240230951644499,0.00045966892477492097
081565,Széll Kálmán tér M,47.507691,19.02435,1267,1267.0,0.0008084083617852665,0.005902606984751598,0.08419614014743643,0.18066270762154213
081950,Városház tér,47.426313,19.04004,1509,1509.0,2.3750612065437094e-08,0.0014756517461878996,0.05485994926871391,0.021343533268233447
081954,Kacsa utca,47.510526,19.039256,340,340.0,0.0005012014821098057,0.0014756517461878996,0.08268597226176434,0.0
082200,Bécsi út / Vörösvári út,47.546762,19.029194,1973,1973.0,1.0291452343460439e-06,0.000983767830791933,0.05790208196861382,0.0
082617,Sasadi út,47.466648,19.016251,1412,1412.0,0.0001930282934572545,0.003935071323167732,0.07583274273564848,0.10704025955404887
082623,Rózsakert utca / Minta utca,47.403236,19.009361,1668,1668.0,1.497295487440797e-11,0.0014756517461878996,0.043443884092657495,0.002834326141058048
083329,Bartók Béla út 208.,47.417572,18.985339,1574,1574.0,1.0074943073599233e-11,0.000983767830791933,0.04154320861515826,0.0008555303146696641
083330,Bartók Béla út 208.,47.416996,18.985724,1574,1574.0,1.0074943073599233e-11,0.000983767830791933,0.04154320861515826,0.0008555303146696641
083331,Savoyai Jenő tér (Plébánia utca),47.428786,19.035467,1508,1508.0,9.73483599762548e-09,0.000983767830791933,0.05200419512444683,1.2217512510878607e-05
083777,Budafoki Szomszédok Piaca,47.427563,19.039417,1509,1509.0,2.3750612065437094e-08,0.0014756517461878996,0.05485994926871391,0.021343533268233447
085772,"Pesterzsébet, Pacsirtatelep",47.423158,19.124409,1112,1112.0,1.6059937432008811e-07,0.000983767830791933,0.055736806031528446,0.0009837678307919333
086855,Nagyvárad tér M,47.477051,19.091107,447,447.0,0.001701410361148987,0.002951303492375799,0.09562558795860772,0.18773431362130386
086856,Nagyvárad tér M,47.477735,19.091387,447,447.0,0.001701410361148987,0.002951303492375799,0.09562558795860772,0.18773431362130386
086857,Albert Flórián út,47.473524,19.095031,613,613.0,0.00105838788416782,0.001967535661583866,0.08799722979699606,0.056914959750220595
086858,Népliget M,47.475851,19.100578,616,616.0,0.002133208233937117,0.002951303492375799,0.09353577179664137,0.2155050729768478
086859,Népliget M,47.476544,19.100752,616,616.0,0.002133208233937117,0.002951303492375799,0.09353577179664137,0.2155050729768478
086866,Nagyvárad tér M,47.479857,19.091402,447,447.0,0.001701410361148987,0.002951303492375799,0.09562558795860772,0.18773431362130386
086874,Vörösmarty Mihály utca,47.43954,19.164256,879,879.0,0.000755579777736886,0.0014756517461878996,0.08252151323266764,0.00941240651044564
086875,Kondor Béla sétány,47.438745,19.167224,880,880.0,0.0001624967335272559,0.000983767830791933,0.07652062631737429,0.005449290352236413
086876,Fiatalság utca,47.437131,19.171052,882,882.0,8.283982520783624e-05,0.002459419576979833,0.07155679138361902,0.004953880014342738
086880,Népliget M,47.47622,19.100592,616,616.0,0.002133208233937117,0.002951303492375799,0.09353577179664137,0.2155050729768478
086885,Nagyvárad tér M,47.478347,19.090724,447,447.0,0.001701410361148987,0.002951303492375799,0.09562558795860772,0.18773431362130386
087373,"Soroksár, IKEA áruház",47.412767,19.160899,888,888.0,9.126083105758254e-08,0.0004918839153959665,0.05476536824524541,0.0
090482,Ötvenhatosok tere,47.507822,19.087004,398,398.0,0.0010724464586197766,0.0014756517461878996,0.07069091414861435,4.614362048374429e-05
090915,Andor utca / Tétényi út,47.457018,19.033547,1431,1431.0,2.6433924361606845e-07,0.0014756517461878996,0.054957828719723184,4.422028630850781e-05
091120,Szikratávíró utca,47.44726,19.068739,1524,1524.0,7.295311448060888e-07,0.000983767830791933,0.061509137117269755,0.0
091338,Benczúr utca,47.512406,19.079601,432,432.0,0.0018632491596602674,0.000983767830791933,0.08120955500519293,0.00282763648188885
091816,Angyalföld vasútállomás,47.550363,19.091315,211,211.0,6.348400817731018e-06,0.000983767830791933,0.06535296386781535,0.0006696199624405163
091817,Angyalföld vasútállomás,47.549906,19.090953,211,211.0,6.348400817731018e-06,0.000983767830791933,0.06535296386781535,0.0006696199624405163
091821,Angyalföld vasútállomás,47.550037,19.090853,211,211.0,6.348400817731018e-06,0.000983767830791933,0.06535296386781535,0.0006696199624405163
096830,Jogar utca,47.435114,19.013117,1581,1581.0,5.415677177945114e-07,0.000983767830791933,0.05685918053419102,0.0
099342,Kossuth Lajos tér M,47.506185,19.049094,278,278.0,0.001277167048152358,0.003935071323167732,0.09234193313953488,0.09301590685854214
099343,Kossuth Lajos tér M,47.506003,19.049645,278,278.0,0.001277167048152358,0.003935071323167732,0.09234193313953488,0.09301590685854214
099344,Szemere utca,47.506596,19.050619,278,278.0,0.001277167048152358,0.003935071323167732,0.09234193313953488,0.09301590685854214
099629,Bikás park M,47.463737,19.032434,1424,1424.0,9.936301697039597e-06,0.002459419576979833,0.06508515815085159,0.011111095442354134
099630,Bikás park M,47.463603,19.033309,1424,1424.0,9.936301697039597e-06,0.002459419576979833,0.06508515815085159,0.011111095442354134
099631,Bártfai utca,47.464205,19.028906,1421,1421.0,3.174415366168122e-05,0.000983767830791933,0.06804565384744117,0.005959603067819262
099632,Bártfai utca,47.464088,19.029635,1421,1421.0,3.174415366168122e-05,0.000983767830791933,0.06804565384744117,0.005959603067819262
099634,Kelenföld vasútállomás M,47.464473,19.023388,1413,1413.0,0.00014721160128550767,0.004426955238563699,0.07229472636108246,0.0676980425782687
100836,Iglice utca / Jutas utca [9],47.577718,19.022364,1692,1692.0,2.075971872592699e-11,0.000983767830791933,0.04052222443691449,9.682754240078083e-07
100837,Kőpor köz / Jutas utca [10],47.58073,19.018707,1689,1689.0,5.2156630577529546e-11,0.0014756517461878996,0.04223011570179265,0.0014751676084758959
100838,Kőpor köz / Jutas utca [10],47.580658,19.018614,1689,1689.0,5.2156630577529546e-11,0.0014756517461878996,0.04223011570179265,0.0014751676084758959
102283,Wein János út,47.456524,19.071027,1379,1379.0,1.7578416554109107e-06,0.0014756517461878996,0.06530677802762608,0.0004642799968498774
102568,Rózsakert utca / Minta utca,47.403155,19.010169,1668,1668.0,1.497295487440797e-11,0.0014756517461878996,0.043443884092657495,0.002834326141058048
102569,Rózsakert utca / Minta utca,47.403776,19.011043,1668,1668.0,1.497295487440797e-11,0.0014756517461878996,0.043443884092657495,0.002834326141058048
102602,Orczy tér,47.489401,19.089821,445,445.0,0.0024396400336491367,0.003935071323167732,0.0830915110148363,0.011446988151611008
102797,Ecseri út M,47.470173,19.111143,623,623.0,0.0011336038764219274,0.002951303492375799,0.08993983365775969,0.017117267160769743
103897,Liget sor,47.488186,19.244454,168,168.0,0.00010997778693811993,0.000983767830791933,0.056325150994625144,0.0
105925,Deák Ferenc tér M,47.497414,19.054803,366,366.0,0.002881170524049029,0.004426955238563699,0.09729600382866714,0.2526679187957686
106324,Szlacsányi Ferenc utca,47.57443,19.126124,1805,1805.0,4.416098546364952e-08,0.002459419576979833,0.04837366454898042,0.0003718849410675013
106325,Szlacsányi Ferenc utca,47.574529,19.12613,1805,1805.0,4.416098546364952e-08,0.002459419576979833,0.04837366454898042,0.0003718849410675013
108188,Haller utca / Soroksári út,47.475501,19.072812,1359,1359.0,0.00011803891813837663,0.001967535661583866,0.08150910111458584,0.046011985738146965
108458,Haller utca / Soroksári út,47.476131,19.06909,1359,1359.0,0.00011803891813837663,0.001967535661583866,0.08150910111458584,0.046011985738146965
108550,Nagyvárad tér M,47.479456,19.088541,447,447.0,0.001701410361148987,0.002951303492375799,0.09562558795860772,0.18773431362130386
109462,Ábrahám Géza utca,47.419749,19.116879,1136,1136.0,2.5980828603951453e-08,0.0014756517461878996,0.05445730204650166,0.0008201126075116553
109565,Pincér utca,47.442174,19.14162,1096,1096.0,8.478187388069834e-07,0.0014756517461878996,0.057758963577475994,0.001683003915649124
109566,Áchim András utca,47.444667,19.145328,1074,1074.0,7.843879222446663e-07,0.0014756517461878996,0.05719993247425581,0.00012268126469434806
109702,Liszt Ferenc utca,47.487379,19.249543,166,166.0,0.0001466386473911512,0.0014756517461878996,0.056458107695298396,0.0012932347588522671
CS007899,Kelenföld vasútállomás,47.464757,19.023003,1413,1413.0,0.00014721160128550767,0.004426955238563699,0.07229472636108246,0.0676980425782687
CS009703,Közvágóhíd,47.467693,19.076536,1393,1393.0,0.00013559432406735897,0.006394490900147565,0.07979746437963653,0.16124845960002956
CS050182,Duna utca,47.433466,19.220657,983,983.0,5.2106432399610447e-05,0.000983767830791933,0.06460326035145698,0.0009837678307919333
CS050183,"Pestszentlőrinc, Béke tér",47.429664,19.218271,984,984.0,0.0002600129999556593,0.002951303492375799,0.06905805224362241,0.014101382007757533
CS056176,Saroglya utca [6],47.584405,19.022274,1693,1693.0,2.2523848682984848e-10,0.0014756517461878996,0.044086394587327056,0.0024555464752838018
CS056230,Rákóczi tér,47.492722,19.071817,496,496.0,0.003820404228299012,0.001967535661583866,0.09493789109928084,0.07796019997715649
CS056232,II. János Pál pápa tér,47.4953,19.077244,500,500.0,0.005492023273208699,0.000983767830791933,0.0922162750612356,0.037130670437645216
CS107475,Kvassay híd,47.457434,19.071039,1379,1379.0,1.7578416554109107e-06,0.0014756517461878996,0.06530677802762608,0.0004642799968498774
CSF00062,Batthyány tér,47.506422,19.038927,335,335.0,0.0009194059497574765,0.0034431874077717655,0.08852987284445218,0.1088956053168263
CSF00094,Déli pályaudvar,47.500375,19.024802,1242,1242.0,0.00038687827714486164,0.003935071323167732,0.07965988793542572,0.06717316238176217
CSF00097,Ág utca,47.495669,19.029466,345,345.0,0.00011075647379147119,0.002459419576979833,0.07345980126467931,0.0017877430756694582
CSF00140,Szépvölgyi út,47.527302,19.040168,2036,2036.0,0.00032721635780172924,0.002951303492375799,0.08002361739814998,0.09761886577499394
