stop_id,stop_name,stop_lat,stop_lon,stop_code,location_type,parent_station,wheelchair_boarding,stop_direction,clust,max_distance,quant
008951,Béke tér,47.430019,19.215675,,,008951,2.0,-64.0,11,0.0,1
F03807,Szent László utca,47.441814,19.207651,,,F03807,2.0,30.0,12,0.0,1
F03851,Selmecbánya utca,47.438409,19.20479,,,F03851,2.0,29.0,13,0.0,1
F03809,Szent László utca,47.439856,19.211861,,,F03809,2.0,-157.0,15,0.0,1
F03814,Billentyű utca,47.447556,19.207644,,,F03814,1.0,-45.0,16,0.0,1
F03852,Selmecbánya utca,47.436262,19.209357,,,F03852,2.0,-154.0,21,0.0,1
F03804,Honvéd utca,47.434346,19.202617,,,F03804,2.0,120.0,23,0.0,1
F03674,Pestszentimre felső vasútállomás,47.413951,19.172628,,,F03674,2.0,-45.0,29,0.0,1
F03675,Pestszentimre felső vasútállomás,47.413069,19.173792,,,F03675,1.0,126.0,30,0.0,1
F03661,Vásáros tér,47.410317,19.184076,,,F03661,2.0,139.0,38,0.0,1
F03874,Eke utca,47.406529,19.182468,,,F03874,1.0,137.0,39,0.0,1
008959,Templom utca 6.,47.408876,19.11362,,,008959,2.0,167.0,57,0.0,1
049174,"Soroksár, Kertvárosi körút",47.413026,19.136152,,,049174,2.0,130.0,59,0.0,1
045755,Maros utca,47.418292,19.138131,,,045755,1.0,47.0,64,0.0,1
F04525,Dinnyehegyi út,47.417133,19.135863,,,F04525,1.0,-130.0,65,0.0,1
008957,Előd utca,47.418567,19.117365,,,008957,1.0,138.0,71,0.0,1
F03871,Zöldségpiac,47.416527,19.169056,,,F03871,2.0,139.0,79,0.0,1
F03872,Zöldségpiac,47.417509,19.168144,,,F03872,1.0,-40.0,80,0.0,1
087373,"Soroksár, IKEA áruház",47.412767,19.160899,,,087373,1.0,,81,0.0,1
009566,"Soroksár, Auchan áruház",47.417204,19.158231,,,009566,1.0,50.0,82,0.0,1
044388,"Soroksár, Auchan áruház",47.419788,19.155599,,,044388,1.0,-7.0,83,0.0,1
F03628,Közdűlő út,47.4236,19.169835,,,F03628,2.0,138.0,84,0.0,1
F03678,Besence utca 9.,47.424762,19.168367,,,F03678,2.0,139.0,85,0.0,1
009314,"BILK, DF épület",47.375229,19.120911,,,009314,2.0,46.0,93,0.0,1
042934,"Soroksár, BILK",47.378287,19.121299,,,042934,2.0,,94,0.0,1
F04264,Sáska utca,47.394418,19.101733,,,F04264,2.0,110.0,109,0.0,1
F04260,Árnyas utca,47.398323,19.098385,,,F04260,2.0,-28.0,113,0.0,1
F04261,Denevér utca,47.39719,19.099073,,,F04261,2.0,155.0,114,0.0,1
008832,Szakorvosi rendelőintézet,47.443871,19.181125,,,008832,2.0,29.0,137,0.0,1
050184,Lőrinci piac,47.44313,19.184332,,,050184,2.0,28.0,140,0.0,1
F03714,Szarvas csárda tér,47.439483,19.187452,,,F03714,2.0,116.0,144,0.0,1
F03786,Tövishát utca,47.427276,19.172852,,,F03786,2.0,51.0,153,0.0,1
F03879,Goroszló utca,47.428595,19.175401,,,F03879,2.0,51.0,154,0.0,1
F03627,Ipacsfa utca (Közdűlő út),47.425656,19.173485,,,F03627,2.0,45.0,155,0.0,1
F03629,Szentlőrinci út (gyorsétterem),47.424552,19.158777,,,F03629,1.0,,167,0.0,1
F03761,Barta Lajos utca,47.437898,19.169516,,,F03761,1.0,-50.0,175,0.0,1
F03758,Havanna utca,47.444352,19.169352,,,F03758,2.0,160.0,182,0.0,1
F03757,Dembinszky utca,47.443548,19.163424,,,F03757,2.0,30.0,190,0.0,1
F03841,Tinódi utca,47.454673,19.168254,,,F03841,1.0,-38.0,198,0.0,1
F03842,Tinódi utca,47.453832,19.170156,,,F03842,2.0,123.0,199,0.0,1
F01658,Gyula utca,47.461508,19.169172,,,F01658,1.0,-48.0,203,0.0,1
F01723,Gyömrői út 156.,47.460265,19.170482,,,F01723,1.0,116.0,204,0.0,1
F03735,Lajosmizsei sorompó,47.451499,19.158673,,,F03735,1.0,118.0,209,0.0,1
F04036,Szegfű utca,47.446001,19.146921,,,F04036,2.0,-132.0,223,0.0,1
067368,Nagykőrösi út MOL kút,47.44263,19.132926,,,067368,2.0,,226,0.0,1
F03985,Zalaegerszeg utca,47.442524,19.135944,,,F03985,1.0,133.0,227,0.0,1
F03909,Alvinc utca,47.437654,19.140655,,,F03909,1.0,120.0,229,0.0,1
F03991,Pincér utca,47.441436,19.14194,,,F03991,2.0,139.0,231,0.0,1
F03986,Vas Gereben utca,47.440723,19.138566,,,F03986,1.0,132.0,233,0.0,1
F03923,Kós Károly tér,47.456464,19.125265,,,F03923,1.0,-78.0,236,0.0,1
F03957,Ady Endre út (Hunyadi utca),47.454562,19.139152,,,F03957,1.0,45.0,244,0.0,1
F03948,"Kispest, Kossuth tér",47.458139,19.143163,,,F03948,2.0,124.0,246,0.0,1
F03950,Simonyi Zsigmond utca,47.457455,19.14687,,,F03950,1.0,41.0,248,0.0,1
F03942,Sós utca,47.459126,19.149287,,,F03942,1.0,25.0,249,0.0,1
106390,KÖKI-Regina tároló,47.464388,19.142967,,,106390,,,251,0.0,1
F03943,Wesselényi utca,47.46144,19.153037,,,F03943,2.0,-24.0,252,0.0,1
F03944,Wesselényi utca,47.460558,19.154375,,,F03944,2.0,117.0,253,0.0,1
004716,"ÉD metró járműtelep,porta",47.469651,19.12909,,,004716,2.0,,265,0.0,1
008575,Távíró utca,47.461082,19.119025,,,008575,1.0,42.0,285,0.0,1
F01408,"József Attila ltp., Távíró utca",47.460599,19.114913,,,F01408,1.0,3.0,287,0.0,1
F01467,Friss utca,47.463421,19.117928,,,F01467,1.0,4.0,288,0.0,1
F01479,Gyáli út,47.464706,19.103857,,,F01479,1.0,44.0,292,0.0,1
F01879,Pöttyös utca,47.467939,19.118838,,,F01879,2.0,,295,0.0,1
F01449,Mártírok útja / Határ út,47.450887,19.110592,,,F01449,1.0,131.0,303,0.0,1
F04110,Székelyhíd utca,47.432264,19.11908,,,F04110,1.0,-45.0,320,0.0,1
F04060,Pöltenberg utca,47.430714,19.108964,,,F04060,2.0,144.0,324,0.0,1
F04107,Vécsey utca,47.438562,19.115283,,,F04107,2.0,40.0,330,0.0,1
F04088,Udvarhely utca,47.437965,19.134359,,,F04088,1.0,8.0,335,0.0,1
F04049,Szilágyság utca,47.432881,19.136949,,,F04049,1.0,-131.0,337,0.0,1
F04154,"Pesterzsébet, Mátyás király tér",47.432732,19.132813,,,F04154,2.0,,338,0.0,1
F04070,Eperjes utca,47.42941,19.130082,,,F04070,2.0,-66.0,342,0.0,1
091120,Szikratávíró utca,47.44726,19.068739,,,091120,2.0,179.0,350,0.0,1
F04172,Thököly utca,47.445716,19.109034,,,F04172,2.0,-45.0,355,0.0,1
008895,Teremszeg utca,47.432951,19.092221,,,008895,2.0,163.0,376,0.0,1
F04125,János utca,47.438383,19.09683,,,F04125,1.0,165.0,381,0.0,1
F04126,János utca,47.439813,19.096566,,,F04126,1.0,-13.0,382,0.0,1
009715,Zodony utca,47.430372,19.099913,,,009715,2.0,,385,0.0,1
F04155,Attila utca,47.431405,19.101638,,,F04155,2.0,-129.0,386,0.0,1
F04044,Pöltenberg utca,47.433042,19.111711,,,F04044,2.0,-44.0,392,0.0,1
F02997,Visonta utca,47.586026,19.120973,,,F02997,2.0,15.0,400,0.0,1
F02998,Visonta utca,47.587042,19.121865,,,F02998,2.0,128.0,401,0.0,1
F03000,Kanizsai Dorottya utca,47.585599,19.124607,,,F03000,2.0,129.0,402,0.0,1
007968,Mogyoród útja,47.570602,19.128267,,,007968,1.0,38.0,409,0.0,1
F03025,Csobogós utca,47.569542,19.126896,,,F03025,2.0,-138.0,410,0.0,1
F03008,Szántóföld utca,47.57614,19.132116,,,F03008,2.0,40.0,412,0.0,1
F03010,Vághó Ferenc utca,47.574352,19.13,,,F03010,2.0,39.0,415,0.0,1
F03011,Kosd utca,47.572103,19.130754,,,F03011,2.0,-53.0,416,0.0,1
F03012,"Rákospalota, Bogáncs utca",47.570292,19.134406,,,F03012,2.0,-52.0,417,0.0,1
F03032,Sportcentrum,47.574654,19.135052,,,F03032,2.0,129.0,419,0.0,1
F00738,Galopp utca,47.580597,19.116672,,,F00738,1.0,9.0,421,0.0,1
045883,"Fót, Auchan áruház",47.580948,19.161548,,,045883,1.0,43.0,431,0.0,1
F00477,Szent István utca,47.592415,19.052111,,,F00477,2.0,21.0,445,0.0,1
F00482,Szent István utca,47.590814,19.049851,,,F00482,2.0,-122.0,446,0.0,1
F00436,Égető utca,47.604054,19.052418,,,F00436,2.0,-60.0,453,0.0,1
F00442,Donát utca,47.604207,19.043933,,,F00442,2.0,106.0,456,0.0,1
F00451,Pince köz,47.601572,19.036089,,,F00451,2.0,,457,0.0,1
008642,Székesdűlő,47.611641,19.105779,,,008642,1.0,37.0,459,0.0,1
008643,Székesdűlő,47.61094,19.103504,,,008643,1.0,-116.0,460,0.0,1
009747,"Ezred utca, lakótelep",47.609052,19.101471,,,009747,2.0,-56.0,461,0.0,1
008400,"Dunakeszi, Auchan áruház",47.608972,19.117347,,,008400,2.0,,462,0.0,1
043481,"Káposztásmegyer, Aquaworld",47.599639,19.112654,,,043481,1.0,,469,0.0,1
009748,Európa Center,47.60521,19.103768,,,009748,2.0,32.0,471,0.0,1
F00350,Ady lépcső,47.543425,18.94502,,,F00350,2.0,132.0,482,0.0,1
F00273,Nagybányai út,47.533628,18.993368,,,F00273,1.0,,512,0.0,1
064215,Szépvölgyi dűlő,47.545841,18.992119,,,064215,2.0,,514,0.0,1
F00563,Máramaros út,47.546588,19.017132,,,F00563,2.0,,517,0.0,1
F00674,Verhovina utca,47.554504,19.020356,,,F00674,2.0,-22.0,521,0.0,1
F00669,Laborc utca,47.552221,19.027823,,,F00669,1.0,174.0,523,0.0,1
F00584,Óbudai rendelőintézet,47.546735,19.032621,,,F00584,1.0,-40.0,531,0.0,1
F00587,Óbudai rendelőintézet,47.544878,19.034772,,,F00587,1.0,134.0,534,0.0,1
049895,Óbudai-sziget,47.554453,19.057889,,,049895,2.0,,537,0.0,1
F00576,Bogdáni út,47.550154,19.043979,,,F00576,1.0,6.0,539,0.0,1
F00577,Bogdáni út,47.548409,19.043102,,,F00577,1.0,-171.0,540,0.0,1
003118,"Óbuda, Bogdáni út",47.551471,19.041971,,,003118,2.0,,545,0.0,1
011321,Búza utca,47.55189,19.039647,,,011321,1.0,-168.0,546,0.0,1
011320,Búza utca,47.553437,19.040325,,,011320,1.0,12.0,548,0.0,1
F00608,Remetehegyi út,47.535342,19.027243,,,F00608,2.0,,554,0.0,1
F00688,Kolostor út,47.533228,19.02577,,,F00688,2.0,19.0,555,0.0,1
F00611,Flórián tér,47.542896,19.042252,,,F00611,1.0,10.0,560,0.0,1
009691,Flórián tér,47.539901,19.042054,,,009691,1.0,122.0,564,0.0,1
008521,Serfőző utca,47.538309,19.046968,,,008521,1.0,178.0,566,0.0,1
062948,Mátyás király út,47.586373,19.050011,,,062948,1.0,6.0,574,0.0,1
062946,Attila utca,47.581318,19.049413,,,062946,1.0,1.0,583,0.0,1
F00698,Fóti út,47.583613,19.08193,,,F00698,2.0,3.0,588,0.0,1
009576,Rév utca,47.58481,19.081824,,,009576,2.0,-177.0,589,0.0,1
F00707,"Megyer, Julianus barát utca",47.584925,19.086158,,,F00707,2.0,,590,0.0,1
F00709,Megyeri temető,47.582507,19.090767,,,F00709,1.0,-144.0,591,0.0,1
F00710,Megyeri temető,47.58141,19.089955,,,F00710,1.0,36.0,592,0.0,1
F00711,Fiumei út,47.582551,19.085997,,,F00711,2.0,5.0,593,0.0,1
F00747,Ugró Gyula utca,47.580363,19.099139,,,F00747,1.0,-69.0,596,0.0,1
F00884,Izzó utca,47.579991,19.095754,,,F00884,1.0,-143.0,597,0.0,1
F00708,Gárdonyi Géza utca,47.58424,19.090438,,,F00708,2.0,120.0,599,0.0,1
064377,Ürömhegyi út / Jutas utca [11],47.582618,19.015383,,,064377,2.0,,604,0.0,1
076394,Aranyvölgy vasútállomás,47.574337,19.016474,,,076394,1.0,-60.0,606,0.0,1
F00631,Bóbita utca,47.571951,19.016865,,,F00631,1.0,150.0,607,0.0,1
007949,Kocsis Sándor út,47.574343,19.013009,,,007949,1.0,180.0,608,0.0,1
F00529,Szőlővész utca,47.575818,19.013692,,,F00529,1.0,134.0,609,0.0,1
056123,Borsmenta utca,47.572507,19.010551,,,056123,1.0,-134.0,610,0.0,1
056124,Citronella utca,47.571696,19.006817,,,056124,1.0,,611,0.0,1
F00545,Jablonka út,47.562091,19.008167,,,F00545,2.0,,620,0.0,1
F00546,Erdőalja út,47.559451,19.006597,,,F00546,2.0,86.0,621,0.0,1
043955,Óbudai autóbuszgarázs (Törökkő kapu),47.56689,19.031889,,,043955,,,627,0.0,1
F00558,Óbudai temető,47.56438,19.022503,,,F00558,1.0,164.0,630,0.0,1
007879,"Római úti lakótelep, Varsa utca",47.570863,19.058543,,,007879,2.0,93.0,637,0.0,1
F00664,Nánási út,47.570279,19.061613,,,F00664,2.0,-176.0,638,0.0,1
F00499,Pók utca,47.565278,19.05797,,,F00499,2.0,-80.0,639,0.0,1
F00665,Silvanus sétány,47.567193,19.061506,,,F00665,2.0,179.0,640,0.0,1
F00485,Római tér,47.569797,19.048509,,,F00485,1.0,-7.0,642,0.0,1
F00502,Kadosa utca,47.57126,19.05413,,,F00502,2.0,91.0,643,0.0,1
F00486,Monostori út,47.57314,19.050621,,,F00486,2.0,96.0,644,0.0,1
F00504,Sujtás utca,47.563461,19.050927,,,F00504,2.0,20.0,646,0.0,1
F00514,Dinamó utca,47.563968,19.036284,,,F00514,1.0,15.0,651,0.0,1
F00549,Kubik utca,47.562554,19.023634,,,F00549,1.0,-16.0,652,0.0,1
F00550,Kubik utca,47.561331,19.02382,,,F00550,1.0,152.0,653,0.0,1
F01929,Jégvirág utca,47.46223,19.008853,,,F01929,1.0,47.0,674,0.0,1
077969,Andor utcai autóbuszgarázs (kapu),47.457701,19.027184,,,077969,,,693,0.0,1
087616,Mezőkövesd út MOL töltőállomás,47.439699,19.044018,,,087616,,,719,0.0,1
090915,Andor utca / Tétényi út,47.457018,19.033547,,,090915,1.0,-1.0,738,0.0,1
083777,Budafoki Szomszédok Piaca,47.427563,19.039417,,,083777,1.0,-101.0,760,0.0,1
F04413,Mező utca,47.421788,19.032129,,,F04413,1.0,-165.0,766,0.0,1
008106,Vihar utca,47.434282,19.035651,,,008106,1.0,143.0,775,0.0,1
009475,Méhész utca,47.438572,19.034695,,,009475,2.0,155.0,777,0.0,1
066477,Hunyadi János út tároló,47.431139,19.042741,,,066477,2.0,,781,0.0,1
009431,Régi vám,47.446818,19.006063,,,009431,2.0,7.0,784,0.0,1
096830,Jogar utca,47.435114,19.013117,,,096830,1.0,12.0,791,0.0,1
F01915,Alabástrom utca,47.451643,19.017994,,,F01915,2.0,101.0,801,0.0,1
041092,Csepeli Kórház,47.424622,19.058674,,,041092,2.0,-46.0,802,0.0,1
044076,Déli utca,47.423173,19.061198,,,044076,1.0,-45.0,803,0.0,1
F04269,Mansfeld Péter utca,47.425624,19.063008,,,F04269,2.0,-161.0,804,0.0,1
041093,Duna utca,47.428215,19.059125,,,041093,2.0,34.0,805,0.0,1
F04279,Karácsony Sándor utca,47.427418,19.070219,,,F04279,1.0,4.0,808,0.0,1
F04278,Karácsony Sándor utca,47.425916,19.069927,,,F04278,1.0,-177.0,809,0.0,1
041094,Színesfém utca,47.430535,19.0646,,,041094,2.0,93.0,812,0.0,1
F04182,Károli Gáspár utca,47.429324,19.072367,,,F04182,2.0,-175.0,816,0.0,1
067563,"Csepel, Szent István út MOL kút",47.419083,19.074285,,,067563,2.0,,833,0.0,1
F04237,Posztó utca,47.410861,19.076149,,,F04237,2.0,-47.0,843,0.0,1
F04234,Csille utca,47.406651,19.07722,,,F04234,2.0,130.0,844,0.0,1
F04235,Szent László utcai lakótelep,47.406848,19.080228,,,F04235,2.0,0.0,845,0.0,1
F04236,Fémmű utca,47.408845,19.078308,,,F04236,2.0,-27.0,847,0.0,1
F04273,Vas Gereben utca,47.41328,19.058619,,,F04273,1.0,32.0,855,0.0,1
F04274,Vas Gereben utca,47.412228,19.057334,,,F04274,1.0,-148.0,856,0.0,1
F04282,Jupiter utca,47.408324,19.062275,,,F04282,1.0,-65.0,859,0.0,1
F04393,Mechanikai Művek,47.425962,18.969053,,,F04393,2.0,,868,0.0,1
009448,Görgey utca,47.406802,18.991613,,,009448,2.0,-18.0,883,0.0,1
043571,Dukát utca,47.408304,18.991015,,,043571,2.0,-5.0,884,0.0,1
009446,Botond utca,47.403953,18.995789,,,009446,2.0,-123.0,893,0.0,1
F04420,Arany János utca,47.428393,19.02388,,,F04420,2.0,14.0,901,0.0,1
F04422,Kiránduló utca,47.427726,19.020314,,,F04422,1.0,132.0,903,0.0,1
008918,"Budatétény, benzinkút",47.4301,19.003628,,,008918,2.0,-156.0,909,0.0,1
009451,Gyűszű utca,47.417266,19.0224,,,009451,2.0,-131.0,913,0.0,1
009454,Wesselényi utca,47.415917,19.026059,,,009454,2.0,108.0,914,0.0,1
009455,Ostor utca,47.416544,19.029864,,,009455,1.0,19.0,918,0.0,1
009472,Promontor utca,47.418055,19.027015,,,009472,1.0,-104.0,919,0.0,1
F04517,DEXTER,47.405176,19.022261,,,F04517,2.0,61.0,923,0.0,1
F04476,"Baross Gábor-telep, Ispiláng utca",47.416584,19.001462,,,F04476,2.0,23.0,928,0.0,1
F00320,Budenz út,47.52029,18.988862,,,F00320,2.0,98.0,944,0.0,1
F02359,Zirzen Janka utca,47.51136,18.992669,,,F02359,2.0,-112.0,947,0.0,1
F00427,Nyúl utca,47.509002,19.017008,,,F00427,1.0,-69.0,964,0.0,1
F00159,Szent János Kórház,47.510357,19.008366,,,F00159,1.0,-40.0,966,0.0,1
F00298,Zilah utca,47.515604,19.011558,,,F00298,2.0,128.0,975,0.0,1
F00299,Detrekő utca,47.517349,19.012433,,,F00299,2.0,-27.0,976,0.0,1
F00297,Hankóczy Jenő utca,47.516889,19.008902,,,F00297,2.0,132.0,978,0.0,1
F02274,Mindszenty József bíboros tér,47.487243,18.989793,,,F02274,2.0,,989,0.0,1
F02439,Thomán István utca,47.494641,18.998513,,,F02439,2.0,,1016,0.0,1
F02415,Márvány utca,47.494621,19.020478,,,F02415,2.0,-50.0,1021,0.0,1
F02404,Goldmark Károly utca,47.501797,19.015553,,,F02404,2.0,,1025,0.0,1
F02405,Határőr út,47.503497,19.016043,,,F02405,1.0,-38.0,1026,0.0,1
F02488,Csemegi utca,47.501645,19.018128,,,F02488,1.0,-35.0,1027,0.0,1
F02422,Agárdi út,47.495169,19.015235,,,F02422,2.0,-126.0,1030,0.0,1
F02406,Ráth György utca,47.500027,19.020717,,,F02406,1.0,-62.0,1033,0.0,1
F02309,Nagy Jenő utca,47.492148,19.019086,,,F02309,2.0,82.0,1038,0.0,1
F02313,"Széchenyi-hegy, Gyermekvasút",47.495117,18.9795,,,F02313,2.0,,1051,0.0,1
F00331,Csibor utca,47.53669,18.969139,,,F00331,1.0,-59.0,1061,0.0,1
F00332,Csibor utca,47.53607,18.970574,,,F00332,1.0,114.0,1062,0.0,1
090693,Hűvösvölgyi út MOL kút,47.537117,18.967521,,,090693,,,1064,0.0,1
F00416,Széher út 16.,47.521951,18.984624,,,F00416,2.0,135.0,1069,0.0,1
F00417,Bölöni György utca / Széher út,47.524126,18.980545,,,F00417,2.0,126.0,1072,0.0,1
F02380,Fácános tér,47.511005,18.972058,,,F02380,2.0,,1082,0.0,1
007919,Pólus Center,47.552544,19.143552,,,007919,2.0,-123.0,1086,0.0,1
009072,AsiaCenter,47.548412,19.146959,,,009072,1.0,-46.0,1087,0.0,1
008246,Rákospalotai köztemető,47.55124,19.13601,,,008246,2.0,-50.0,1091,0.0,1
F03157,Vásárcsarnok,47.545962,19.140592,,,F03157,1.0,5.0,1094,0.0,1
F03166,Nyírpalota út,47.547923,19.14021,,,F03166,1.0,-175.0,1095,0.0,1
F03209,Zsókavár utca,47.54095,19.143279,,,F03209,1.0,-45.0,1102,0.0,1
008353,Észak-Pesti Kórház,47.539377,19.122388,,,008353,2.0,46.0,1125,0.0,1
F03071,Rákos úti szakrendelő,47.553326,19.118391,,,F03071,1.0,-157.0,1130,0.0,1
F03116,Szerencs utca,47.551519,19.117777,,,F03116,1.0,15.0,1136,0.0,1
009538,Irány utca,47.540469,19.109767,,,009538,1.0,-39.0,1144,0.0,1
F03035,"Kossuth utca, lakótelep",47.566693,19.128827,,,F03035,2.0,-39.0,1156,0.0,1
F03036,Juhos utca,47.564491,19.127455,,,F03036,1.0,-124.0,1157,0.0,1
F03048,Hubay Jenő tér,47.562905,19.117925,,,F03048,1.0,74.0,1161,0.0,1
F03047,"Rákospalota, Széchenyi tér",47.563349,19.120694,,,F03047,2.0,126.0,1164,0.0,1
F03042,Telek utca,47.559231,19.131279,,,F03042,2.0,42.0,1165,0.0,1
F03043,Rákosmező utca 39.,47.56086,19.130219,,,F03043,1.0,-31.0,1166,0.0,1
F03041,Cserba Elemér út,47.559441,19.127692,,,F03041,1.0,133.0,1167,0.0,1
008944,Újpest-városkapu M (Váci út),47.556577,19.076558,,,008944,1.0,18.0,1172,0.0,1
F00832,Munkásotthon utca,47.559074,19.099332,,,F00832,1.0,157.0,1181,0.0,1
F00812,Csányi László utca,47.558036,19.085353,,,F00812,1.0,30.0,1190,0.0,1
F00813,Aradi utca,47.556539,19.084371,,,F00813,2.0,121.0,1191,0.0,1
F00752,Vadgesztenye utca,47.575378,19.104398,,,F00752,1.0,31.0,1203,0.0,1
F00768,Irányi Dániel utca,47.577055,19.086658,,,F00768,2.0,125.0,1221,0.0,1
F00770,Irányi Dániel utca / Baross utca,47.574053,19.08983,,,F00770,1.0,33.0,1224,0.0,1
F01074,Rippl-Rónai utca,47.514904,19.072299,,,F01074,1.0,-128.0,1241,0.0,1
F01068,Ferdinánd híd (Izabella utca),47.510112,19.062341,,,F01068,1.0,-39.0,1254,0.0,1
F02511,Jászai Mari tér,47.51389,19.049372,,,F02511,1.0,,1269,0.0,1
F00932,Szent István körút,47.512046,19.052319,,,F00932,1.0,25.0,1271,0.0,1
F01131,Keleti pályaudvar M (Garay utca),47.501824,19.082036,,,F01131,1.0,,1280,0.0,1
062517,Rózsák tere,47.501817,19.075598,,,062517,1.0,45.0,1286,0.0,1
062942,Péterfy Sándor utca,47.501636,19.077828,,,062942,1.0,-30.0,1287,0.0,1
F01127,Bethlen Gábor tér,47.504514,19.078414,,,F01127,1.0,128.0,1291,0.0,1
F01128,Nefelejcs utca,47.505936,19.079239,,,F01128,1.0,-125.0,1292,0.0,1
F01123,Bethlen Gábor utca,47.506422,19.076609,,,F01123,1.0,144.0,1295,0.0,1
F01143,Cserhát utca,47.503703,19.085939,,,F01143,1.0,-122.0,1306,0.0,1
F02898,Kassai tér,47.524799,19.09655,,,F02898,1.0,31.0,1314,0.0,1
F02951,Fűrész utca,47.527397,19.098651,,,F02951,1.0,26.0,1316,0.0,1
008241,Szőnyi út,47.526625,19.09622,,,008241,1.0,-40.0,1317,0.0,1
F02698,Kós Károly sétány,47.518741,19.085166,,,F02698,2.0,135.0,1321,0.0,1
008242,Teleki Blanka utca,47.523865,19.093761,,,008242,1.0,-156.0,1323,0.0,1
005924,Mill.FAV járműtelep (kapu),47.518788,19.093168,,,005924,,,1327,0.0,1
F02713,Vakok Intézete,47.513549,19.093168,,,F02713,1.0,-44.0,1331,0.0,1
F02977,Ajtósi Dürer sor,47.514692,19.094857,,,F02977,2.0,-45.0,1334,0.0,1
F02561,Fiastyúk utca,47.543621,19.078675,,,F02561,1.0,-165.0,1343,0.0,1
F02562,Fiastyúk utca,47.544978,19.079712,,,F02562,1.0,17.0,1344,0.0,1
F02566,Cserhalom utca,47.541932,19.066613,,,F02566,1.0,86.0,1361,0.0,1
F02572,Lomb utca,47.53524,19.069958,,,F02572,1.0,16.0,1367,0.0,1
009420,Honvédkórház,47.531561,19.070886,,,009420,1.0,-135.0,1373,0.0,1
F02583,Hajdú utca,47.531039,19.07556,,,F02583,2.0,-72.0,1375,0.0,1
F02588,Béke tér,47.530761,19.08082,,,F02588,2.0,-4.0,1378,0.0,1
F02676,Frangepán utca,47.535132,19.083134,,,F02676,2.0,20.0,1380,0.0,1
F02584,Béke utca,47.532665,19.0807,,,F02584,1.0,104.0,1381,0.0,1
049177,Kárpát utca,47.527408,19.059105,,,049177,1.0,,1387,0.0,1
049178,Révész utca,47.52685,19.061482,,,049178,1.0,-69.0,1388,0.0,1
083948,"Árpád fejedelem útja, MOL-töltőállomás",47.536055,19.046334,,,083948,,,1398,0.0,1
F00602,Galagonya utca,47.530133,19.039386,,,F00602,1.0,-165.0,1399,0.0,1
F00603,Nagyszombat utca,47.531833,19.040023,,,F00603,1.0,-8.0,1400,0.0,1
F00248,Császár-Komjádi uszoda,47.51961,19.038046,,,F00248,1.0,173.0,1404,0.0,1
F00247,Császár-Komjádi uszoda,47.521409,19.038272,,,F00247,1.0,2.0,1405,0.0,1
081954,Kacsa utca,47.510526,19.039256,,,081954,1.0,1.0,1411,0.0,1
049903,Mansfeld Péter park,47.517075,19.033226,,,049903,2.0,3.0,1413,0.0,1
F00227,Vérhalom utca,47.519063,19.033424,,,F00227,2.0,5.0,1414,0.0,1
F01991,Budafoki út / Szerémi sor,47.472823,19.052568,,,F01991,1.0,0.0,1451,0.0,1
056219,Újbuda-központ,47.47286,19.045954,056219,,CSLM4UK1,1.0,-174.0,1454,0.0,1
F01355,Földváry utca,47.462763,19.080141,,,F01355,1.0,149.0,1467,0.0,1
098921,Gubacsi út VB telephely,47.465388,19.086774,,,098921,,,1475,0.0,1
F01356,Koppány utca,47.465426,19.078392,,,F01356,1.0,-27.0,1481,0.0,1
F01492,Péceli utca,47.469484,19.099352,,,F01492,1.0,131.0,1483,0.0,1
F01501,Albert Flórián út,47.473613,19.097127,,,F01501,1.0,29.0,1485,0.0,1
022006,Szenes Iván tér,47.47999,19.095703,,,022006,2.0,118.0,1498,0.0,1
F01225,Csobánc utca,47.488403,19.08825,,,F01225,1.0,84.0,1530,0.0,1
F00956,Arany János utca,47.504733,19.054679,,,F00956,2.0,,1542,0.0,1
F01022,Hold utca (Belvárosi piac),47.505148,19.052398,,,F01022,1.0,-7.0,1543,0.0,1
F01021,Hercegprímás utca,47.502261,19.051986,,,F01021,1.0,81.0,1546,0.0,1
F01020,Széchenyi utca,47.503142,19.048522,,,F01020,1.0,159.0,1548,0.0,1
F00986,Zrínyi utca,47.499679,19.049464,,,F00986,1.0,170.0,1551,0.0,1
F00958,Kossuth Lajos tér,47.505808,19.044242,F00958,,CSF00958,2.0,-79.0,1553,0.0,1
F00110,Döbrentei tér,47.490074,19.044767,,,F00110,1.0,76.0,1566,0.0,1
F00102,Szarvas tér,47.492492,19.042355,,,F00102,1.0,-59.0,1569,0.0,1
F00953,Ferenciek tere,47.49182,19.056789,,,F00953,2.0,,1571,0.0,1
F00924,Petőfi tér,47.493105,19.050566,,,F00924,1.0,168.0,1573,0.0,1
F00982,Szervita tér,47.495371,19.052782,,,F00982,1.0,-27.0,1576,0.0,1
F01400,Török Pál utca,47.487779,19.061075,,,F01400,1.0,-18.0,1585,0.0,1
F01189,Corvin-negyed,47.484862,19.072242,,,F01189,2.0,,1591,0.0,1
F01339,Ráday utca,47.485548,19.06593,,,F01339,1.0,-127.0,1594,0.0,1
F01173,Szövetség utca,47.500288,19.072996,,,F01173,1.0,40.0,1596,0.0,1
F01163,Kiss József utca,47.497509,19.074043,,,F01163,1.0,160.0,1601,0.0,1
F01019,Astoria,47.494825,19.062457,F01019,,CSF01019,2.0,69.0,1606,0.0,1
F01109,Nyár utca,47.498554,19.06551,,,F01109,2.0,-127.0,1608,0.0,1
F00099,Róka utca,47.494209,19.028879,,,F00099,2.0,158.0,1611,0.0,1
F00088,Mikó utca,47.499246,19.03083,,,F00088,1.0,117.0,1613,0.0,1
F00084,Alagút utca,47.496567,19.034415,,,F00084,1.0,137.0,1616,0.0,1
F00045,Donáti utca,47.501307,19.036072,,,F00045,1.0,-26.0,1620,0.0,1
F00065,Batthyány tér M+H (Bem rakpart),47.507423,19.03927,,,F00065,1.0,,1629,0.0,1
F00062,Batthyány tér,47.507412,19.036739,F00062,,CSF00062,2.0,-63.0,1631,0.0,1
F00068,Mária tér,47.506703,19.034797,,,F00068,1.0,91.0,1632,0.0,1
F02044,Karolina út,47.471473,19.033466,,,F02044,1.0,-168.0,1647,0.0,1
F00001,Mihály utca,47.486079,19.034561,,,F00001,2.0,-69.0,1661,0.0,1
097847,"Mogyoródi út, VB telephely",47.507317,19.113635,,,097847,,,1671,0.0,1
009531,Ifjúság útja,47.501492,19.104004,,,009531,2.0,,1681,0.0,1
F01746,Expó tér,47.495295,19.119695,,,F01746,2.0,9.0,1687,0.0,1
F01555,Kőbánya felső vasútállomás,47.492543,19.133824,,,F01555,2.0,-103.0,1693,0.0,1
F01556,IV. kapu,47.492023,19.130466,,,F01556,1.0,-93.0,1695,0.0,1
F01628,Élessarok,47.491948,19.1402,,,F01628,2.0,71.0,1700,0.0,1
F01779,Albertirsai köz,47.49387,19.13859,,,F01779,1.0,170.0,1703,0.0,1
F01557,II. kapu,47.491551,19.123909,,,F01557,2.0,-60.0,1705,0.0,1
F01574,Kőbánya alsó vasútállomás (Mázsa tér),47.481718,19.127066,,,F01574,1.0,15.0,1712,0.0,1
F01537,Fertő utca / Bihari utca,47.475256,19.120066,,,F01537,1.0,-41.0,1731,0.0,1
061136,Rákosszeg park,47.534267,19.103451,,,061136,2.0,24.0,1738,0.0,1
F02854,Telepes utca,47.520756,19.110611,,,F02854,2.0,37.0,1751,0.0,1
F02805,Kála utca,47.52272,19.130858,,,F02805,1.0,-133.0,1754,0.0,1
F02846,Miskolci utca / Csömöri út,47.527214,19.122035,,,F02846,1.0,36.0,1759,0.0,1
004952,Metró KNY járműtelep (kapu),47.502234,19.132179,,,004952,,,1785,0.0,1
040608,Zsivora park,47.509134,19.148798,,,040608,1.0,-31.0,1792,0.0,1
F02792,Gvadányi utca,47.520944,19.135954,,,F02792,1.0,43.0,1796,0.0,1
F02940,Cinkotai út / Mogyoródi út,47.522633,19.138347,,,F02940,1.0,39.0,1797,0.0,1
F02793,Öv utca / Mogyoródi út,47.52452,19.141019,,,F02793,1.0,42.0,1798,0.0,1
F02808,Öv utca / Egressy út,47.526763,19.136628,,,F02808,1.0,,1799,0.0,1
009500,Körvasút sor,47.513666,19.15103,,,009500,2.0,54.0,1802,0.0,1
009501,Körvasút sor,47.514609,19.152837,,,009501,2.0,-127.0,1803,0.0,1
F02993,Pálya utca,47.525514,19.148795,,,F02993,2.0,146.0,1807,0.0,1
F02991,Rigó utca,47.528508,19.150301,,,F02991,2.0,-129.0,1815,0.0,1
F02992,Rákospalotai határút,47.527278,19.148241,,,F02992,2.0,51.0,1816,0.0,1
F03257,János utca,47.528956,19.16821,,,F03257,1.0,-122.0,1821,0.0,1
F02987,János utca,47.534423,19.161051,,,F02987,1.0,138.0,1825,0.0,1
F03346,Vörösmarty utca,47.532271,19.163171,,,F03346,1.0,138.0,1826,0.0,1
009375,Szilas-patak,47.529297,19.185461,,,009375,1.0,53.0,1834,0.0,1
F03351,Szilas-patak,47.530095,19.187017,,,F03351,1.0,-123.0,1835,0.0,1
F03246,Budapesti út,47.520301,19.179396,,,F03246,1.0,52.0,1840,0.0,1
F03234,Olga utca,47.521404,19.181829,,,F03234,1.0,43.0,1841,0.0,1
009382,Jávorfa utca,47.526052,19.177918,,,009382,2.0,-122.0,1844,0.0,1
F03358,Diófa utca,47.525109,19.17607,,,F03358,2.0,56.0,1845,0.0,1
F03274,Lándzsa utca,47.507394,19.171042,,,F03274,1.0,68.0,1853,0.0,1
009373,Hunyadvár utca,47.508153,19.192136,,,009373,2.0,-18.0,1871,0.0,1
F03341,Centenáriumi lakótelep,47.516207,19.187936,,,F03341,1.0,-118.0,1873,0.0,1
F01669,Ihász utca,47.484287,19.143855,,,F01669,1.0,109.0,1877,0.0,1
F01668,Ihász utca,47.485907,19.142079,,,F01668,1.0,-41.0,1878,0.0,1
F01824,Orion,47.489843,19.156703,,,F01824,2.0,97.0,1882,0.0,1
F01825,Orion,47.490106,19.154852,,,F01825,2.0,-86.0,1883,0.0,1
F01837,Kocka utca,47.481834,19.151492,,,F01837,1.0,-38.0,1884,0.0,1
F01838,Szlávy utca,47.480649,19.148929,,,F01838,1.0,140.0,1885,0.0,1
F01672,Téglavető utca,47.483671,19.149068,,,F01672,1.0,-42.0,1886,0.0,1
040612,Bányató utca,47.466331,19.165078,,,040612,2.0,53.0,1900,0.0,1
042797,Bányató utca,47.465434,19.162927,,,042797,2.0,-124.0,1901,0.0,1
F01586,Újhegyi út,47.464675,19.159085,,,F01586,1.0,120.0,1904,0.0,1
008863,Gőzmozdony utca,47.470028,19.157173,,,008863,1.0,-144.0,1906,0.0,1
F01704,Mádi utca,47.473537,19.163953,,,F01704,2.0,138.0,1908,0.0,1
F01699,Sibrik Miklós út,47.47356,19.160391,,,F01699,1.0,127.0,1910,0.0,1
F01705,Mádi utca,47.475069,19.162039,,,F01705,1.0,-47.0,1911,0.0,1
F01701,Lavotta utca,47.475218,19.157091,,,F01701,1.0,122.0,1914,0.0,1
F01703,Lavotta utca,47.476907,19.158952,,,F01703,1.0,-46.0,1915,0.0,1
F01604,Athenaeum Nyomda,47.48703,19.180522,,,F01604,1.0,96.0,1922,0.0,1
F01845,Tavas utca,47.471483,19.166562,,,F01845,2.0,141.0,1928,0.0,1
F01710,Sírkert út,47.474486,19.169334,,,F01710,1.0,139.0,1930,0.0,1
F04604,Kőrösi út,47.376028,19.223359,,,F04604,1.0,-138.0,1935,0.0,1
F04647,Szent István utca,47.378622,19.226983,,,F04647,1.0,-137.0,1936,0.0,1
008549,Kisfaludy Sándor utca,47.375008,19.213611,,,008549,2.0,134.0,1937,0.0,1
F04651,Bocskai István utca,47.377886,19.219989,,,F04651,1.0,-39.0,1938,0.0,1
008548,"Gyál, Bem József utca",47.372917,19.216769,,,008548,1.0,131.0,1939,0.0,1
009203,"Gyál, Deák Ferenc utca",47.385265,19.235533,,,009203,1.0,133.0,1941,0.0,1
009204,Árpád utca,47.388079,19.231106,,,009204,1.0,135.0,1943,0.0,1
F04600,Gyál felső vasútállomás,47.388861,19.206012,,,F04600,2.0,133.0,1945,0.0,1
F04601,Gyál felső vasútállomás,47.388167,19.207427,,,F04601,1.0,-34.0,1946,0.0,1
008552,Erdősor utca,47.383056,19.201876,,,008552,2.0,-137.0,1947,0.0,1
008553,Bajcsy-Zsilinszky utca,47.385653,19.204449,,,008553,2.0,133.0,1948,0.0,1
F04605,Ady Endre utca,47.385329,19.210332,,,F04605,1.0,142.0,1949,0.0,1
F04606,Ady Endre utca,47.384419,19.211561,,,F04606,1.0,-34.0,1950,0.0,1
F04648,Rákóczi Ferenc utca,47.387643,19.215398,,,F04648,2.0,32.0,1951,0.0,1
008551,Bacsó Béla utca,47.379533,19.206672,,,008551,1.0,131.0,1952,0.0,1
F04652,Somogyi Béla utca,47.381717,19.214241,,,F04652,1.0,-35.0,1953,0.0,1
008550,Toldi Miklós utca,47.377334,19.210016,,,008550,2.0,133.0,1954,0.0,1
009205,Dobó Katica utca,47.389747,19.228502,,,009205,1.0,131.0,1956,0.0,1
F04602,Széchenyi István utca,47.389267,19.21899,,,F04602,1.0,129.0,1958,0.0,1
009207,Kossuth Lajos utca,47.391718,19.221172,,,009207,1.0,43.0,1959,0.0,1
009206,Táncsics Mihály utca,47.392099,19.224843,,,009206,1.0,129.0,1960,0.0,1
050185,"Vecsés, Market Central Ferihegy",47.416726,19.251851,,,050185,2.0,,1962,0.0,1
050187,"Vecsés, Fő út",47.418379,19.249419,,,050187,2.0,116.0,1963,0.0,1
088670,Repülőmúzeum,47.426502,19.262121,,,088670,1.0,172.0,1964,0.0,1
F04598,"Repülőtér, P+R",47.429363,19.26379,,,F04598,2.0,-51.0,1965,0.0,1
F04599,Liszt Ferenc Airport 2,47.432773,19.261165,,,F04599,1.0,,1966,0.0,1
105507,Cargo City,47.430323,19.270282,,,105507,2.0,35.0,1967,0.0,1
F03800,"Pestszentimre, Benjámin utca",47.399054,19.205588,,,F03800,2.0,,1971,0.0,1
050173,Lincoln út,47.416015,19.2435,,,050173,2.0,-133.0,1977,0.0,1
050174,Lőrinci utca,47.416612,19.241461,,,050174,2.0,-45.0,1978,0.0,1
F04580,Orvosi rendelő,47.490139,19.331705,,,F04580,2.0,-91.0,1979,0.0,1
F04581,Orvosi rendelő,47.490054,19.333429,,,F04581,2.0,88.0,1980,0.0,1
009624,"Maglód, Auchan áruház",47.46069,19.335221,,,009624,2.0,,1983,0.0,1
061379,"Maglód, Auchan áruház",47.459205,19.332057,,,061379,2.0,,1984,0.0,1
F04578,"Pécel, Pesti út 110.",47.491969,19.318903,,,F04578,2.0,-79.0,1991,0.0,1
F04579,"Pécel, Pesti út 110.",47.491331,19.314905,,,F04579,2.0,84.0,1992,0.0,1
019313,Rákoskert vasútállomás,47.457296,19.295147,,,019313,1.0,,2003,0.0,1
108475,"Vecsés, M0 MOL töltőállomás",47.38392,19.283063,,,108475,,,2019,0.0,1
009137,Újmajori utca,47.471697,19.220067,,,009137,1.0,-152.0,2020,0.0,1
009138,Csillagmotor köz,47.471018,19.221893,,,009138,2.0,-59.0,2021,0.0,1
F03558,Barátka utca,47.473344,19.230883,,,F03558,1.0,-56.0,2023,0.0,1
F03431,Bélatelepi út,47.450886,19.22468,,,F03431,1.0,-52.0,2025,0.0,1
F03432,Baross utca,47.451072,19.226497,,,F03432,2.0,42.0,2026,0.0,1
103897,Liget sor,47.488186,19.244454,,,103897,2.0,86.0,2037,0.0,1
F03520,Kerülő utca,47.463664,19.247058,,,F03520,2.0,10.0,2043,0.0,1
F03521,"Rákoshegy, Ferihegyi út",47.460535,19.246303,,,F03521,2.0,,2044,0.0,1
F03561,Melczer utca,47.465476,19.234145,,,F03561,2.0,124.0,2049,0.0,1
F03557,"Rákoskeresztúr, Aranylúd utca",47.471763,19.235335,,,F03557,1.0,,2052,0.0,1
F03543,"Rákoskeresztúr, Kis utcai lakótelep",47.482087,19.241621,,,F03543,1.0,,2054,0.0,1
F03556,Szürkebegy utca,47.475445,19.23893,,,F03556,1.0,-170.0,2056,0.0,1
F03553,513. utca,47.480427,19.227923,,,F03553,1.0,-51.0,2059,0.0,1
F03559,Vadkacsa utca,47.477055,19.227527,,,F03559,1.0,0.0,2060,0.0,1
F01717,Határmalom utca,47.488923,19.218437,,,F01717,2.0,-96.0,2079,0.0,1
F01718,Határmalom utca,47.488875,19.220507,,,F01718,2.0,84.0,2080,0.0,1
F03418,"Mátyásföld, Imre utca",47.513308,19.198904,F03418,,CSF03417,2.0,-115.0,2091,0.0,1
F03375,Rozsos utca,47.53399,19.194119,,,F03375,1.0,-111.0,2095,0.0,1
F03292,"Árpádföld, Dezsőfia utca",47.536428,19.200793,,,F03292,1.0,-114.0,2096,0.0,1
F03374,Mazsola utca,47.535424,19.198027,,,F03374,1.0,-105.0,2097,0.0,1
F03298,Menyhért utca,47.531616,19.200938,,,F03298,1.0,57.0,2098,0.0,1
F03376,Muzsika utca,47.532061,19.204538,,,F03376,2.0,58.0,2099,0.0,1
F03299,"Árpádföld, Bekecs utca",47.533585,19.208036,,,F03299,1.0,43.0,2102,0.0,1
F03373,Szabadságtelep H,47.535325,19.204853,,,F03373,1.0,-47.0,2103,0.0,1
F03329,Batthyány Ilona utca,47.519171,19.230258,,,F03329,1.0,20.0,2116,0.0,1
F03331,Rózsalevél utca,47.52255,19.231438,,,F03331,1.0,12.0,2117,0.0,1
F03330,"Cinkota, Lassú utca",47.520786,19.227037,,,F03330,1.0,-171.0,2125,0.0,1
F03398,Műkő utca,47.522796,19.223777,,,F03398,1.0,-132.0,2127,0.0,1
009705,Diadal utca (Tura utca),47.49439,19.272268,,,009705,1.0,-119.0,2129,0.0,1
F03581,Jászágó utca,47.496591,19.273432,,,F03581,1.0,-41.0,2130,0.0,1
F03460,Harsona utca,47.490687,19.270701,,,F03460,2.0,150.0,2137,0.0,1
009486,II. utca,47.486369,19.265893,,,009486,2.0,-102.0,2145,0.0,1
F03284,Raktárak,47.536854,19.246124,,,F03284,1.0,45.0,2169,0.0,1
F03285,Raktárak,47.536254,19.244727,,,F03285,1.0,-132.0,2170,0.0,1
F04584,"Kistarcsa, kórház H",47.539805,19.252603,,,F04584,2.0,47.0,2173,0.0,1
F04655,Csömör,47.545025,19.225065,,,F04655,2.0,,2175,0.0,1
009013,"Szilasliget, Kemping",47.578226,19.261133,,,009013,2.0,103.0,2178,0.0,1
008271,Szentendre,47.661038,19.075607,,,008271,2.0,,2187,0.0,1
008436,"Szentendre, Papírgyár",47.648965,19.069449,,,008436,1.0,16.0,2191,0.0,1
008437,Papírgyár,47.647762,19.069061,,,008437,1.0,177.0,2192,0.0,1
F04776,"Pilisborosjenő, Téglagyári tér",47.596405,18.978165,,,F04776,2.0,-34.0,2204,0.0,1
F04826,Diófa utca (Posta),47.575818,18.886794,,,F04826,2.0,65.0,2208,0.0,1
031884,"Nagykovácsi, Tisza István tér",47.575789,18.879511,,,031884,1.0,,2209,0.0,1
F04785,Ady Endre utca,47.575887,18.89114,,,F04785,2.0,105.0,2211,0.0,1
F04825,Diófa utca (Posta),47.576253,18.889358,,,F04825,2.0,-96.0,2212,0.0,1
F04786,Ady Endre utca,47.575359,18.893082,,,F04786,2.0,-40.0,2213,0.0,1
090783,"Pilisvörösvár, MOL-töltőállomás",47.607595,18.942514,,,090783,,,2219,0.0,1
073308,Solymár vasútállomás,47.596035,18.949797,,,073308,1.0,-76.0,2220,0.0,1
090784,"Solymár, PEVDI",47.596764,18.95294,,,090784,,,2221,0.0,1
009067,"Solymár, Auchan áruház",47.597798,18.963376,,,009067,2.0,,2222,0.0,1
044601,"Solymár, Auchan áruház",47.598851,18.962065,,,044601,1.0,,2223,0.0,1
044372,"Solymár, Kerekhegy",47.581449,18.92642,,,044372,2.0,,2228,0.0,1
064105,Szebeni utca,47.350638,19.016265,,,064105,2.0,-45.0,2241,0.0,1
036236,Szigetszentmiklós H,47.345454,19.048205,,,036236,1.0,29.0,2243,0.0,1
064088,Városi Könyvtár,47.344797,19.04225,,,064088,1.0,-144.0,2244,0.0,1
064089,Miklós Pláza,47.341631,19.040874,,,064089,2.0,169.0,2248,0.0,1
064186,Kisfaludy utca,47.342349,19.045001,,,064186,2.0,29.0,2249,0.0,1
101180,Föveny utca,47.35023,19.057828,,,101180,2.0,67.0,2261,0.0,1
101184,Dunaharaszti utca,47.349496,19.053633,,,101184,2.0,-141.0,2262,0.0,1
101181,Béke utca,47.352019,19.062635,,,101181,2.0,34.0,2263,0.0,1
101182,Teleki utca,47.353773,19.059324,,,101182,2.0,-46.0,2264,0.0,1
101183,Sport utca,47.352092,19.056415,,,101183,2.0,-127.0,2265,0.0,1
064075,"Szigetszentmiklós, Szabadság utca",47.358296,19.031884,,,064075,1.0,-20.0,2267,0.0,1
007675,Dunaharaszti külső kocsiszín (kapu),47.362751,19.088475,,,007675,,,2273,0.0,1
F04265,Hárosi Csárda,47.38858,19.028179,,,F04265,1.0,-116.0,2280,0.0,1
F04266,Hárosi Csárda,47.387833,19.02663,,,F04266,1.0,63.0,2281,0.0,1
F04639,Háros,47.385565,19.020115,,,F04639,1.0,-118.0,2284,0.0,1
008111,Barackos út / Angeli utca,47.402248,18.974427,,,008111,1.0,-124.0,2300,0.0,1
F04772,"Diósd, városháza",47.408767,18.948754,,,F04772,2.0,127.0,2304,0.0,1
009301,Gárdonyi Géza utca,47.405402,18.94778,,,009301,1.0,-126.0,2305,0.0,1
F04816,Kölcsey Ferenc utca,47.407793,18.946173,,,F04816,2.0,44.0,2306,0.0,1
009105,"Diósd, Búzavirág utca",47.416567,18.934213,,,009105,2.0,,2316,0.0,1
F04771,Gyár utca,47.402476,18.943997,,,F04771,1.0,-150.0,2320,0.0,1
F04773,Csapágygyár,47.40531,18.942207,,,F04773,2.0,48.0,2321,0.0,1
008479,Homokbánya utca,47.399559,18.941035,,,008479,2.0,-41.0,2323,0.0,1
008332,Hosszúrét utca,47.446066,18.881264,,,008332,2.0,172.0,2324,0.0,1
008333,"Törökbálint, bevásárlóközpont",47.443242,18.887398,,,008333,2.0,,2325,0.0,1
011327,Budaörsi Ipari és Technológiai Park,47.46331,18.894407,,,011327,2.0,-7.0,2326,0.0,1
071135,Budaörs Metro MOL kút,47.460514,18.893215,,,071135,2.0,,2327,0.0,1
074495,Törökbálint Sportközpont,47.440514,18.897223,,,074495,,,2330,0.0,1
F04761,Széchenyi tér,47.439365,18.900827,,,F04761,2.0,29.0,2333,0.0,1
007817,Márta utca,47.429184,18.929497,,,007817,2.0,158.0,2341,0.0,1
098527,"Törökbálint, Telenor",47.430124,18.93517,,,098527,1.0,-45.0,2344,0.0,1
008447,Dióskert,47.42563,18.911984,,,008447,2.0,-85.0,2357,0.0,1
008345,Katona József utca,47.438346,18.906478,,,008345,2.0,138.0,2359,0.0,1
F04815,Zrínyi utca,47.435086,18.910623,,,F04815,2.0,139.0,2360,0.0,1
009085,Budaörs vasútállomás,47.44819,18.964863,,,009085,2.0,-90.0,2372,0.0,1
F04721,Károly király utca,47.460653,18.956866,,,F04721,1.0,-99.0,2376,0.0,1
F04722,Károly király utca,47.460881,18.959796,,,F04722,1.0,63.0,2377,0.0,1
009438,"Budakeszi, Honfoglalás sétány",47.517762,18.923668,,,009438,1.0,-144.0,2390,0.0,1
F04633,Horgásztanyák,47.213029,18.952835,F04633,,CSF04634,2.0,-164.0,2405,0.0,1
F04636,Angyalisziget,47.200276,18.945335,F04636,,CSF04636,2.0,12.0,2408,0.0,1
F04672,"Gödöllő, Erzsébet park",47.595209,19.341536,F04672,,CSF04672,2.0,73.0,2414,0.0,1
008904,Kétújfalu utca,47.419522,19.209134,,,008904,2.0,28.0,1,71.85822998942135,2
F03798,Kétújfalu utca,47.419522,19.209134,,,008904,2.0,-149.0,1,71.85822998942135,2
F03799,Alacskai út,47.416971,19.206595,,,F03799,2.0,49.0,2,110.6049566228717,2
022005,Tölgy utca,47.416971,19.206595,,,F03799,1.0,-135.0,2,110.6049566228717,2
F03846,Beszterce utca,47.425784,19.21472,,,F03846,2.0,-145.0,3,56.157101891617366,2
F03847,Beszterce utca,47.425784,19.21472,,,F03846,2.0,31.0,3,56.157101891617366,2
F03848,Halomi út,47.422774,19.211994,,,F03848,2.0,-146.0,4,82.77414932799724,3
F03849,Halomi út,47.422774,19.211994,,,F03848,2.0,29.0,4,82.77414932799724,3
F03850,Királyhágó út,47.422774,19.211994,,,F03848,2.0,130.0,4,82.77414932799724,3
F03868,Rába utca,47.427797,19.221858,,,F03868,2.0,-61.0,5,24.017828132469496,2
F03867,Rába utca,47.427797,19.221858,,,F03868,2.0,119.0,5,24.017828132469496,2
F03794,Gyergyó utca,47.426253,19.225617,,,F03794,2.0,122.0,6,50.62121362882569,2
F03793,Gyergyó utca,47.426253,19.225617,,,F03794,2.0,-59.0,6,50.62121362882569,2
F03810,Ferihegy vasútállomás,47.436741,19.222565,,,F03810,2.0,-160.0,7,187.3502757179839,3
007927,Ferihegy vasútállomás,47.436741,19.222565,,,F03810,1.0,-43.0,7,187.3502757179839,3
007928,Ferihegy vasútállomás,47.436741,19.222565,,,F03810,1.0,134.0,7,187.3502757179839,3
F03784,Duna utca,47.433457,19.220683,F03784,,CS050182,2.0,-156.0,8,51.074990662387535,6
CSF03785,Duna utca,47.433457,19.220683,CSF03785,1.0,CS050182,,,8,51.074990662387535,6
F03785,Duna utca,47.433457,19.220683,F03785,,CS050182,2.0,21.0,8,51.074990662387535,6
050182,Duna utca,47.433457,19.220683,050182,,CS050182,2.0,-153.0,8,51.074990662387535,6
050180,Duna utca,47.433457,19.220683,050180,,CS050182,2.0,17.0,8,51.074990662387535,6
CS050182,Duna utca,47.433457,19.220683,CS050182,1.0,CS050182,,,8,51.074990662387535,6
F03787,"Pestszentlőrinc, Béke tér",47.428881,19.218932,,,F03787,2.0,-60.0,9,53.27582734088265,3
009372,"Pestszentlőrinc, Béke tér",47.428881,19.218932,,,F03787,2.0,,9,53.27582734088265,3
F03790,"Pestszentlőrinc, Béke tér",47.428881,19.218932,,,F03787,2.0,110.0,9,53.27582734088265,3
F03791,"Pestszentlőrinc, Béke tér",47.429346,19.217836,,,F03791,2.0,,10,74.23741700819588,8
F03788,"Pestszentlőrinc, Béke tér",47.429346,19.217836,F03788,,F03791,2.0,27.0,10,74.23741700819588,8
050183,"Pestszentlőrinc, Béke tér",47.429346,19.217836,050183,,F03791,2.0,-153.0,10,74.23741700819588,8
F03792,Béke tér,47.429346,19.217836,,,F03791,1.0,122.0,10,74.23741700819588,8
050178,"Pestszentlőrinc, Béke tér",47.429346,19.217836,050178,,F03791,2.0,27.0,10,74.23741700819588,8
CSF03788,"Pestszentlőrinc, Béke tér",47.429346,19.217836,CSF03788,1.0,F03791,,,10,74.23741700819588,8
F03789,"Pestszentlőrinc, Béke tér",47.429346,19.217836,F03789,,F03791,2.0,-153.0,10,74.23741700819588,8
CS050183,"Pestszentlőrinc, Béke tér",47.429346,19.217836,CS050183,1.0,F03791,,,10,74.23741700819588,8
F03808,Szemeretelep vasútállomás,47.443151,19.212205,,,F03808,2.0,,14,142.03004325344267,3
F03870,Szemeretelep vasútállomás,47.443151,19.212205,,,F03808,1.0,-46.0,14,142.03004325344267,3
F03869,Szemeretelep vasútállomás,47.443151,19.212205,,,F03808,1.0,131.0,14,142.03004325344267,3
F03856,Ungvár utca,47.431518,19.211331,,,F03856,2.0,-63.0,17,98.20439024707517,4
F03855,Ungvár utca,47.431518,19.211331,,,F03856,2.0,117.0,17,98.20439024707517,4
F03854,Ungvár utca,47.431518,19.211331,,,F03856,2.0,-63.0,17,98.20439024707517,4
F03853,Ungvár utca,47.431518,19.211331,,,F03856,2.0,116.0,17,98.20439024707517,4
F03865,Nagyenyed utca,47.427365,19.203167,,,F03865,2.0,128.0,18,8.59393613301907,2
F03866,Nagyenyed utca,47.427365,19.203167,,,F03865,2.0,-48.0,18,8.59393613301907,2
F03863,Tarkő utca,47.425102,19.207017,,,F03863,2.0,130.0,19,13.0912608394753,2
F03864,Tarkő utca,47.425102,19.207017,,,F03863,2.0,-49.0,19,13.0912608394753,2
F03885,Bajcsy-Zsilinszky út,47.43295,19.206964,,,F03885,2.0,105.0,20,55.07104489590144,6
F03886,Bajcsy-Zsilinszky út,47.43295,19.206964,F03886,,F03885,2.0,-61.0,20,55.07104489590144,6
F03887,Bajcsy-Zsilinszky út,47.43295,19.206964,,,F03885,2.0,119.0,20,55.07104489590144,6
CSF03884,Bajcsy-Zsilinszky út,47.43295,19.206964,CSF03884,1.0,F03885,,,20,55.07104489590144,6
F03884,Bajcsy-Zsilinszky út,47.43295,19.206964,F03884,,F03885,2.0,-62.0,20,55.07104489590144,6
F03883,Üllői út,47.43295,19.206964,,,F03885,2.0,-153.0,20,55.07104489590144,6
F03806,Honvéd utca,47.435036,19.200806,,,F03806,2.0,-35.0,22,149.0693688568832,5
F03803,Honvéd utca,47.435036,19.200806,,,F03806,2.0,117.0,22,149.0693688568832,5
F03801,Honvéd utca,47.435036,19.200806,,,F03806,2.0,-103.0,22,149.0693688568832,5
F03802,Üllői út,47.435036,19.200806,,,F03806,2.0,29.0,22,149.0693688568832,5
F03805,Honvéd utca,47.435036,19.200806,,,F03806,2.0,-64.0,22,149.0693688568832,5
F03816,Gyékény tér,47.430909,19.196271,,,F03816,2.0,118.0,24,9.91394284866611,2
F03817,Gyékény tér,47.430909,19.196271,,,F03816,2.0,-62.0,24,9.91394284866611,2
F03878,Olt utca,47.429709,19.199369,,,F03878,2.0,-48.0,25,50.721504604661526,2
F03877,Olt utca,47.429709,19.199369,,,F03878,2.0,124.0,25,50.721504604661526,2
F03641,Péterhalmi út,47.423128,19.189609,,,F03641,2.0,135.0,26,26.925144377551526,2
F03642,Péterhalmi út,47.423128,19.189609,,,F03641,2.0,-41.0,26,26.925144377551526,2
F03643,Kettős-Körös utca,47.418773,19.182732,,,F03643,2.0,-39.0,27,90.4230004237063,2
F03644,Kettős-Körös utca,47.418773,19.182732,,,F03643,2.0,-100.0,27,90.4230004237063,2
F03818,Bethlen Gábor utca,47.410871,19.176728,,,F03818,1.0,135.0,28,63.3244512887402,2
F03819,Arany János utca,47.410871,19.176728,,,F03818,1.0,-38.0,28,63.3244512887402,2
F03653,Damjanich utca,47.411541,19.198019,,,F03653,2.0,43.0,31,69.63044479284974,2
F03654,Damjanich utca,47.411541,19.198019,,,F03653,2.0,-129.0,31,69.63044479284974,2
F03862,Alacskai úti lakótelep,47.413047,19.201813,,,F03862,2.0,,32,128.99146066123228,4
F03861,Alacskai úti lakótelep,47.413047,19.201813,,,F03862,2.0,,32,128.99146066123228,4
F03860,Alacskai úti lakótelep,47.413047,19.201813,,,F03862,2.0,43.0,32,128.99146066123228,4
F03859,Alacskai úti lakótelep,47.413047,19.201813,,,F03862,2.0,-126.0,32,128.99146066123228,4
F03648,Vezér utca,47.410723,19.190543,,,F03648,2.0,-26.0,33,43.13665039834442,2
F03647,Vezér utca,47.410723,19.190543,,,F03648,2.0,155.0,33,43.13665039834442,2
F03650,Kisfaludy utca,47.408991,19.193891,,,F03650,2.0,-127.0,34,100.46270167517973,4
F03652,Kisfaludy utca,47.408991,19.193891,,,F03650,1.0,138.0,34,100.46270167517973,4
F03651,Kisfaludy utca,47.408991,19.193891,,,F03650,2.0,42.0,34,100.46270167517973,4
F03649,Kisfaludy utca (Nemes utca),47.408991,19.193891,,,F03650,2.0,-45.0,34,100.46270167517973,4
F03646,Szálfa utca,47.415131,19.186915,,,F03646,2.0,-27.0,35,41.75127256790813,2
F03645,Szálfa utca,47.415131,19.186915,,,F03646,2.0,144.0,35,41.75127256790813,2
F03687,Törvény utca,47.413163,19.188416,,,F03687,2.0,152.0,36,73.85845559491683,2
F03688,Törvény utca,47.413163,19.188416,,,F03687,2.0,-29.0,36,73.85845559491683,2
F03662,Törvény utca,47.408881,19.180932,,,F03662,2.0,47.0,37,117.33646412690508,2
F03873,Eke utca,47.408881,19.180932,,,F03662,1.0,-42.0,37,117.33646412690508,2
F04566,Tangazdaság (Óvoda),47.390734,19.159667,,,F04566,2.0,-42.0,40,31.066099568878037,2
F04567,Tangazdaság (Óvoda),47.390734,19.159667,,,F04566,2.0,132.0,40,31.066099568878037,2
F04562,Víztorony tér,47.389444,19.161379,,,F04562,1.0,-41.0,41,77.40767829633329,2
F04563,Víztorony tér,47.389444,19.161379,,,F04562,1.0,142.0,41,77.40767829633329,2
F03657,Ár utca,47.396871,19.195292,,,F03657,1.0,140.0,42,50.019190384132806,2
F03658,Paula utca,47.396871,19.195292,,,F03657,1.0,-38.0,42,50.019190384132806,2
F03724,Kapocs utca,47.402134,19.201692,,,F03724,1.0,134.0,43,82.23612146469267,2
F03725,Kapocs utca,47.402134,19.201692,,,F03724,1.0,-39.0,43,82.23612146469267,2
F03876,Csolt utca,47.399367,19.192186,,,F03876,1.0,-43.0,44,50.56473176546737,2
F03875,Csolt utca,47.399367,19.192186,,,F03876,1.0,132.0,44,50.56473176546737,2
F03656,Szigeti Kálmán utca,47.404215,19.198943,,,F03656,1.0,137.0,45,114.8304088675792,2
F03655,Szigeti Kálmán utca,47.404215,19.198943,,,F03656,1.0,-38.0,45,114.8304088675792,2
F03664,Ady Endre utca,47.406313,19.189953,,,F03664,1.0,44.0,46,86.6573348499772,2
F03663,Ady Endre utca,47.406313,19.189953,,,F03664,1.0,-133.0,46,86.6573348499772,2
F03668,Pestszentimre vasútállomás (Bocskai u.),47.403182,19.185687,,,F03668,2.0,,47,90.54108076330967,4
008949,Pestszentimre vasútáll. (Nagykőrösi út),47.403182,19.185687,,,F03668,1.0,134.0,47,90.54108076330967,4
F03672,Pestszentimre vasútállomás (Dózsa Gy.u.),47.403182,19.185687,,,F03668,1.0,-125.0,47,90.54108076330967,4
008754,Pestszentimre vasútállomás (Dózsa Gy.u.),47.403182,19.185687,,,F03668,2.0,49.0,47,90.54108076330967,4
F03665,Pestszentimre vasútállomás (Vasút utca),47.404504,19.185823,,,F03665,2.0,,48,114.53473732741944,4
009234,Pestszentimre vasútállomás (Nemes utca),47.404504,19.185823,,,F03665,1.0,46.0,48,114.53473732741944,4
008950,Pestszentimre vasútáll. (Nagykőrösi út),47.404504,19.185823,,,F03665,1.0,-40.0,48,114.53473732741944,4
008399,Pestszentimre vasútállomás,47.404504,19.185823,,,F03665,2.0,-137.0,48,114.53473732741944,4
007924,Ültetvény utca,47.396895,19.175423,,,007924,2.0,43.0,49,28.679016321580384,2
F03659,"Pestszentimre, Ültetvény utca",47.396895,19.175423,,,007924,2.0,-131.0,49,28.679016321580384,2
F03677,Lajos utca,47.398951,19.178541,,,F03677,1.0,45.0,50,18.68732647982054,2
F03676,Lajos utca,47.398951,19.178541,,,F03677,1.0,-133.0,50,18.68732647982054,2
F03820,Szélső utca,47.401169,19.181805,,,F03820,1.0,-133.0,51,42.97407307680782,2
F03821,Szélső utca,47.401169,19.181805,,,F03820,1.0,44.0,51,42.97407307680782,2
F04528,Festékgyár,47.417015,19.109916,,,F04528,1.0,154.0,52,38.83732461103009,2
F04529,Festékgyár,47.417015,19.109916,,,F04528,1.0,-10.0,52,38.83732461103009,2
008958,Alsó határút,47.416534,19.116568,,,008958,2.0,24.0,53,44.96877787057727,2
009243,Alsó határút,47.416534,19.116568,,,008958,2.0,-153.0,53,44.96877787057727,2
008955,Gombosszeg köz,47.413107,19.118352,,,008955,1.0,-167.0,54,54.65014370835906,2
008956,Gombosszeg köz,47.413107,19.118352,,,008955,2.0,-53.0,54,54.65014370835906,2
008953,Csillag utca,47.409214,19.119,,,008953,2.0,173.0,55,39.228242188304456,2
008954,Csillag utca,47.409214,19.119,,,008953,2.0,-7.0,55,39.228242188304456,2
008481,Soroksár felső H,47.40998,19.111405,,,008481,1.0,171.0,56,115.20097935742757,6
F04535,Soroksár felső,47.40998,19.111405,F04535,,008481,2.0,-7.0,56,115.20097935742757,6
F04534,Soroksár felső,47.40998,19.111405,F04534,,008481,2.0,173.0,56,115.20097935742757,6
F04531,Soroksár felső H,47.40998,19.111405,,,008481,1.0,-8.0,56,115.20097935742757,6
F04530,Soroksár felső H,47.40998,19.111405,,,008481,1.0,172.0,56,115.20097935742757,6
CSF04534,Soroksár felső,47.40998,19.111405,CSF04534,1.0,008481,,,56,115.20097935742757,6
075654,Köves út / Szentlőrinci út,47.416057,19.143215,,,075654,1.0,49.0,58,23.228542611695026,2
075655,Köves út / Szentlőrinci út,47.416057,19.143215,,,075654,1.0,-131.0,58,23.228542611695026,2
F04577,Szentlőrinci úti lakótelep,47.416615,19.131038,,,F04577,1.0,-48.0,60,68.22911888652682,5
043331,Szentlőrinci úti lakótelep,47.416615,19.131038,,,F04577,2.0,,60,68.22911888652682,5
008967,Szentlőrinci úti lakótelep,47.416615,19.131038,,,F04577,1.0,140.0,60,68.22911888652682,5
008966,Szentlőrinci úti lakótelep,47.416615,19.131038,,,F04577,1.0,-35.0,60,68.22911888652682,5
F04576,Szentlőrinci úti lakótelep,47.416615,19.131038,,,F04577,1.0,,60,68.22911888652682,5
F04575,Szent László utca,47.415642,19.133276,,,F04575,1.0,-127.0,61,133.5709304367269,4
F04574,Újtelep út,47.415642,19.133276,,,F04575,1.0,133.0,61,133.5709304367269,4
F04524,Dinnyehegyi út,47.415642,19.133276,,,F04575,1.0,53.0,61,133.5709304367269,4
009568,Sósmocsár út,47.415642,19.133276,,,F04575,2.0,-37.0,61,133.5709304367269,4
F04166,Mesgye utca,47.420434,19.135842,,,F04166,1.0,130.0,62,86.48290539059623,2
F04165,Mesgye utca,47.420434,19.135842,,,F04166,2.0,-42.0,62,86.48290539059623,2
F04086,Írisz utca,47.417534,19.14013,,,F04086,2.0,-41.0,63,40.82386750114839,2
F04085,Írisz utca,47.417534,19.14013,,,F04086,1.0,136.0,63,40.82386750114839,2
F04164,Frangepán utca,47.424265,19.12335,,,F04164,2.0,-28.0,66,0.0,2
F04164,Frangepán utca,47.424265,19.12335,,,F04164,2.0,-22.0,66,0.0,2
F04081,"Pesterzsébet, Pacsirtatelep",47.422179,19.122499,,,F04081,2.0,,67,180.6015220482508,2
085772,"Pesterzsébet, Pacsirtatelep",47.422179,19.122499,,,F04081,1.0,-33.0,67,180.6015220482508,2
F04073,Előd utca,47.425827,19.128084,,,F04073,1.0,132.0,68,86.53529764422603,2
F04075,Előd utca,47.425827,19.128084,,,F04073,1.0,-40.0,68,86.53529764422603,2
F04084,Jahn Ferenc Kórház,47.423756,19.131116,,,F04084,1.0,138.0,69,110.89328011728254,4
F04083,Jahn Ferenc Kórház,47.423756,19.131116,,,F04084,1.0,-52.0,69,110.89328011728254,4
F04082,Jahn Ferenc Kórház,47.423756,19.131116,,,F04084,2.0,-44.0,69,110.89328011728254,4
069403,Jahn Ferenc Kórház,47.423756,19.131116,,,F04084,1.0,135.0,69,110.89328011728254,4
F04077,Vágóhíd utca,47.419341,19.116677,,,F04077,1.0,-31.0,70,47.85354714428919,2
109462,Ábrahám Géza utca,47.419341,19.116677,,,F04077,2.0,49.0,70,47.85354714428919,2
F04080,Ábrahám Géza utca,47.421219,19.119105,,,F04080,2.0,143.0,72,0.0,2
F04080,Ábrahám Géza utca,47.421219,19.119105,,,F04080,2.0,137.0,72,0.0,2
F04079,"Pesterzsébet, Pacsirtatelep",47.420355,19.120071,,,F04079,1.0,144.0,73,96.8974005414249,3
009147,Vörösmarty utca,47.420355,19.120071,,,F04079,1.0,46.0,73,96.8974005414249,3
F04078,Előd utca,47.420355,19.120071,,,F04079,1.0,-129.0,73,96.8974005414249,3
F04564,Erzsébeti temető,47.418618,19.122136,,,F04564,1.0,134.0,74,33.76257632058657,4
F04564,Erzsébeti temető,47.418618,19.122136,,,F04564,1.0,132.0,74,33.76257632058657,4
F04565,Erzsébeti temető,47.418618,19.122136,,,F04564,1.0,-127.0,74,33.76257632058657,4
F04564,Erzsébeti temető,47.418618,19.122136,,,F04564,1.0,131.0,74,33.76257632058657,4
008965,Szent László utca,47.421187,19.126871,,,008965,1.0,-131.0,75,95.00238592890729,6
008964,Tartsay utca,47.421187,19.126871,,,008965,1.0,47.0,75,95.00238592890729,6
F04573,Szent László utca,47.421187,19.126871,,,008965,1.0,46.0,75,95.00238592890729,6
008964,Tartsay utca,47.421187,19.126871,,,008965,1.0,50.0,75,95.00238592890729,6
008965,Szent László utca,47.421187,19.126871,,,008965,1.0,-129.0,75,95.00238592890729,6
F04572,Szent László utca,47.421187,19.126871,,,008965,1.0,-130.0,75,95.00238592890729,6
F04561,Kertészeti Egyetem,47.398596,19.149257,,,F04561,2.0,-45.0,76,24.138700253154745,2
F04560,Kertészeti Egyetem,47.398596,19.149257,,,F04561,2.0,135.0,76,24.138700253154745,2
F04557,Szamaránszki dűlő,47.399921,19.134143,,,F04557,2.0,-104.0,77,16.89895895924023,2
F04556,Szamaránszki dűlő,47.399921,19.134143,,,F04557,2.0,75.0,77,16.89895895924023,2
F04558,Telefondűlő út,47.401032,19.140134,,,F04558,2.0,62.0,78,61.59727459376086,2
F04559,Telefondűlő út,47.401032,19.140134,,,F04558,2.0,-112.0,78,61.59727459376086,2
F03680,Közdűlő út,47.419841,19.165194,,,F03680,2.0,-40.0,86,62.24336344372493,2
F03679,Közdűlő út,47.419841,19.165194,,,F03680,2.0,139.0,86,62.24336344372493,2
F03681,Kamiontelep,47.421742,19.162402,,,F03681,1.0,138.0,87,67.95866238809774,2
F03682,Kamiontelep,47.421742,19.162402,,,F03681,1.0,-39.0,87,67.95866238809774,2
CSF04548,Millenniumtelep,47.379741,19.104897,CSF04548,1.0,CSF04548,,,88,60.51785638918842,4
009358,Millenniumtelep H,47.379741,19.104897,,,CSF04548,2.0,,88,60.51785638918842,4
F04548,Millenniumtelep,47.379741,19.104897,F04548,,CSF04548,2.0,-154.0,88,60.51785638918842,4
F04549,Millenniumtelep,47.379741,19.104897,F04549,,CSF04548,2.0,31.0,88,60.51785638918842,4
F04571,Ócsai úti felüljáró,47.383681,19.12569,,,F04571,1.0,-33.0,89,37.13931918815104,2
F04570,Ócsai úti felüljáró,47.383681,19.12569,,,F04571,1.0,142.0,89,37.13931918815104,2
F04552,Polimer,47.382322,19.126866,,,F04552,2.0,140.0,90,37.86186198298384,2
F04553,Polimer,47.382322,19.126866,,,F04552,1.0,-36.0,90,37.86186198298384,2
009311,"BILK, bekötőút",47.378957,19.129179,,,009311,2.0,-128.0,91,122.96123873568533,2
F04523,"Soroksár, központi raktárak",47.378957,19.129179,,,009311,2.0,135.0,91,122.96123873568533,2
009312,MNB,47.376882,19.124303,,,009312,2.0,-40.0,92,23.774623142462012,2
009315,MNB,47.376882,19.124303,,,009312,2.0,129.0,92,23.774623142462012,2
F04229,"Csepel, Hollandi út",47.392139,19.105397,,,F04229,1.0,121.0,95,101.2653371954781,4
F04230,Szent István út,47.392139,19.105397,,,F04229,2.0,16.0,95,101.2653371954781,4
F04228,"Csepel, Hollandi út",47.392139,19.105397,,,F04229,1.0,-42.0,95,101.2653371954781,4
F04231,Szent István út,47.392139,19.105397,,,F04229,1.0,-147.0,95,101.2653371954781,4
F04247,"Csepel, Királyerdő út",47.390669,19.096418,,,F04247,1.0,,96,22.013334394487313,3
F04246,"Csepel, Királyerdő út",47.390669,19.096418,,,F04247,2.0,160.0,96,22.013334394487313,3
F04247,"Csepel, Királyerdő út",47.390669,19.096418,,,F04247,1.0,-25.0,96,22.013334394487313,3
109519,Vihorlát út,47.389118,19.100179,,,109519,1.0,107.0,97,16.11814086552147,2
109518,Vihorlát út,47.389118,19.100179,,,109519,1.0,-64.0,97,16.11814086552147,2
F04180,"Csepel, Horgásztanya",47.388092,19.103472,,,F04180,1.0,-20.0,98,28.036892969719236,4
F04180,"Csepel, Horgásztanya",47.388092,19.103472,,,F04180,1.0,,98,28.036892969719236,4
009369,"Csepel, Horgásztanya",47.388092,19.103472,,,F04180,1.0,,98,28.036892969719236,4
009369,"Csepel, Horgásztanya",47.388092,19.103472,,,F04180,1.0,-147.0,98,28.036892969719236,4
049172,Gyáli-patak,47.394752,19.116782,,,049172,2.0,35.0,99,17.093723327850455,2
008960,Gyáli-patak,47.394752,19.116782,,,049172,2.0,-150.0,99,17.093723327850455,2
009339,Szent István utca H,47.391083,19.114168,,,009339,2.0,-153.0,100,155.92074435162232,6
008962,Szent István utca H,47.391083,19.114168,,,009339,2.0,31.0,100,155.92074435162232,6
F04547,Szent István utca,47.391083,19.114168,F04547,,009339,2.0,29.0,100,155.92074435162232,6
049170,Szent István utca H,47.391083,19.114168,,,009339,2.0,6.0,100,155.92074435162232,6
CSF04546,Szent István utca,47.391083,19.114168,CSF04546,1.0,009339,,,100,155.92074435162232,6
F04546,Szent István utca,47.391083,19.114168,F04546,,009339,2.0,-150.0,100,155.92074435162232,6
009338,Orbánhegyi dűlő,47.38639,19.11048,,,009338,2.0,27.0,102,20.275738258256478,2
009337,Orbánhegyi dűlő,47.38639,19.11048,,,009338,2.0,-154.0,102,20.275738258256478,2
F04551,Zsellér dűlő,47.389252,19.120215,,,F04551,1.0,148.0,103,22.570292621502496,2
F04550,Zsellér dűlő,47.389252,19.120215,,,F04551,1.0,-33.0,103,22.570292621502496,2
008963,Grassalkovich út,47.390505,19.118896,,,008963,2.0,153.0,104,94.25214411297426,2
049171,Zsellér dűlő,47.390505,19.118896,,,008963,1.0,-25.0,104,94.25214411297426,2
F04347,Olt utca,47.398498,19.089894,,,F04347,2.0,154.0,105,51.09892232824418,2
F04348,Orsova utca,47.398498,19.089894,,,F04347,2.0,-30.0,105,51.09892232824418,2
F04259,Királyerdei Művelődési Ház,47.401068,19.094678,,,F04259,2.0,-48.0,106,52.47754276840099,2
F04258,Királyerdei Művelődési Ház,47.401068,19.094678,,,F04259,2.0,132.0,106,52.47754276840099,2
F04245,Fátra utca,47.401485,19.087617,,,F04245,2.0,-30.0,107,51.86578932174523,2
F04244,Fátra utca,47.401485,19.087617,,,F04245,2.0,154.0,107,51.86578932174523,2
F04262,Sólyom utca,47.395327,19.100436,,,F04262,2.0,-25.0,108,42.67028678382082,2
F04263,Sólyom utca,47.395327,19.100436,,,F04262,2.0,155.0,108,42.67028678382082,2
F04345,Csorbatói utca,47.393342,19.094062,,,F04345,2.0,152.0,110,29.860504891504068,2
F04346,Csorbatói utca,47.393342,19.094062,,,F04345,2.0,-32.0,110,29.860504891504068,2
F04344,Uzsoki utca,47.395535,19.092446,,,F04344,1.0,-23.0,111,36.1292379121733,2
F04343,Uzsoki utca,47.395535,19.092446,,,F04344,2.0,146.0,111,36.1292379121733,2
F04227,"Csepel, Soroksári rév",47.397661,19.106622,,,F04227,1.0,-31.0,112,206.99238601274348,4
F04226,"Csepel, Soroksári rév",47.397661,19.106622,,,F04227,1.0,150.0,112,206.99238601274348,4
F04181,Csepel-Királyerdő,47.397661,19.106622,,,F04227,2.0,,112,206.99238601274348,4
F04526,"Soroksár, Molnár-sziget",47.397661,19.106622,,,F04227,2.0,,112,206.99238601274348,4
F04554,"Vecsés út, sorompó",47.398722,19.12512,,,F04554,2.0,85.0,115,109.06386125941575,2
F04555,"Vecsés út, sorompó",47.398722,19.12512,,,F04554,2.0,-99.0,115,109.06386125941575,2
F04544,Soroksár vasútállomás,47.400947,19.121294,,,F04544,2.0,65.0,116,50.75642592055457,2
F04545,Soroksár vasútállomás,47.400947,19.121294,,,F04544,2.0,-24.0,116,50.75642592055457,2
030328,"Soroksár, Hősök tere H",47.399367,19.115423,,,030328,1.0,,118,207.62429440068797,9
F04538,"Soroksár, Hősök tere H",47.399367,19.115423,,,030328,1.0,-11.0,118,207.62429440068797,9
F04543,"Soroksár, Hősök tere H",47.399367,19.115423,,,030328,2.0,-13.0,118,207.62429440068797,9
F04541,"Soroksár, Hősök tere",47.399367,19.115423,F04541,,030328,2.0,-13.0,118,207.62429440068797,9
F04542,"Soroksár, Hősök tere H",47.399367,19.115423,,,030328,2.0,168.0,118,207.62429440068797,9
008961,"Soroksár, Hősök tere H",47.399367,19.115423,,,030328,2.0,75.0,118,207.62429440068797,9
F04539,"Soroksár, Hősök tere H",47.399367,19.115423,,,030328,1.0,163.0,118,207.62429440068797,9
CSF04540,"Soroksár, Hősök tere",47.399367,19.115423,CSF04540,1.0,030328,,,118,207.62429440068797,9
F04540,"Soroksár, Hősök tere",47.399367,19.115423,F04540,,030328,2.0,168.0,118,207.62429440068797,9
F04224,Ladik utca,47.40126,19.103261,,,F04224,1.0,-28.0,119,33.29952975348657,2
F04223,Ladik utca,47.40126,19.103261,,,F04224,1.0,143.0,119,33.29952975348657,2
F04222,Csepel csónakház,47.404013,19.101502,,,F04222,1.0,-14.0,120,71.73202232840687,2
F04221,Csepel csónakház,47.404013,19.101502,,,F04222,1.0,164.0,120,71.73202232840687,2
F04568,Erzsébet utca,47.403244,19.115494,,,F04568,2.0,167.0,121,59.255016974652584,2
F04569,Erzsébet utca,47.403244,19.115494,,,F04568,2.0,-13.0,121,59.255016974652584,2
F04533,Tárcsás utca,47.40624,19.11465,,,F04533,2.0,-11.0,122,47.929782883734504,2
F04532,Tárcsás utca,47.40624,19.11465,,,F04533,2.0,167.0,122,47.929782883734504,2
F04536,Tárcsás utca,47.405087,19.112539,,,F04536,2.0,169.0,123,68.6679622633222,2
F04537,Tárcsás utca,47.405087,19.112539,,,F04536,2.0,-8.0,123,68.6679622633222,2
F03881,Vajk utca,47.455328,19.186105,,,F03881,2.0,110.0,124,70.8091103974249,2
F03843,Vajk utca,47.455328,19.186105,,,F03881,1.0,-71.0,124,70.8091103974249,2
F03880,Pestszentlőrinc vasútállomás (átjáró),47.456087,19.183004,,,F03880,2.0,108.0,125,28.455884307464157,2
F03845,Pestszentlőrinc vasútállomás (átjáró),47.456087,19.183004,,,F03880,1.0,-57.0,125,28.455884307464157,2
008772,Pestszentlőrinc vasútállomás,47.454622,19.181767,,,008772,1.0,,126,28.488705973988935,2
F03776,Pestszentlőrinc vasútállomás,47.454622,19.181767,,,008772,1.0,,126,28.488705973988935,2
F03826,Csaba utca,47.454576,19.190135,,,F03826,1.0,-72.0,127,26.04928534674881,2
F03882,Csaba utca,47.454576,19.190135,,,F03826,2.0,110.0,127,26.04928534674881,2
F03827,Thököly út,47.448651,19.185752,,,F03827,2.0,-68.0,128,15.675754366466222,2
F03828,Thököly út,47.448651,19.185752,,,F03827,2.0,110.0,128,15.675754366466222,2
F03831,Csörötnek utca,47.449718,19.181219,,,F03831,2.0,105.0,129,63.364583259239005,2
F03832,Csörötnek utca,47.449718,19.181219,,,F03831,2.0,-66.0,129,63.364583259239005,2
F03830,Kosztolányi Dezső utca,47.449554,19.193118,,,F03830,2.0,-153.0,130,53.4299760070238,2
F03829,Kosztolányi Dezső utca,47.449554,19.193118,,,F03830,2.0,24.0,130,53.4299760070238,2
F03700,Lőrinci temető,47.447406,19.191614,,,F03700,1.0,-155.0,131,97.07491158989137,3
F03702,Lőrinci temető,47.447406,19.191614,,,F03700,1.0,13.0,131,97.07491158989137,3
F03701,Lőrinci temető,47.447406,19.191614,,,F03700,2.0,110.0,131,97.07491158989137,3
F03428,Frangepán utca,47.456019,19.201172,,,F03428,1.0,47.0,132,45.06031124254678,2
F03427,Frangepán utca,47.456019,19.201172,,,F03428,2.0,-126.0,132,45.06031124254678,2
F03699,"Pestszentlőrinc, Fedezék utca",47.452177,19.195339,,,F03699,1.0,,133,44.36855548577369,3
F03698,Fedezék utca,47.452177,19.195339,,,F03699,1.0,20.0,133,44.36855548577369,3
F03697,Fedezék utca,47.452177,19.195339,,,F03699,1.0,-136.0,133,44.36855548577369,3
F03695,Csévéző utca,47.45357,19.196908,,,F03695,1.0,48.0,134,101.72561327022763,4
F03693,Csévéző utca,47.45357,19.196908,,,F03695,2.0,-59.0,134,101.72561327022763,4
F03694,Gyömrői út,47.45357,19.196908,,,F03695,1.0,-125.0,134,101.72561327022763,4
F03696,Csévéző utca,47.45357,19.196908,,,F03695,1.0,112.0,134,101.72561327022763,4
F03710,Thököly út,47.44259,19.180066,,,F03710,2.0,-57.0,135,95.54425815805737,2
009569,Thököly út,47.44259,19.180066,,,F03710,1.0,120.0,135,95.54425815805737,2
F03707,Thököly út,47.44305,19.178755,,,F03707,1.0,-55.0,136,67.38284957247112,3
F03708,Thököly út,47.44305,19.178755,,,F03707,2.0,116.0,136,67.38284957247112,3
F03709,Thököly út,47.44305,19.178755,,,F03707,2.0,123.0,136,67.38284957247112,3
F03704,Gárdonyi Géza utca,47.443151,19.18896,,,F03704,2.0,25.0,138,38.39147217476873,2
F03703,Gárdonyi Géza utca,47.443151,19.18896,,,F03704,2.0,-153.0,138,38.39147217476873,2
F03705,Regény utca,47.443505,19.186521,,,F03705,2.0,-150.0,139,96.64295604575092,2
F03706,Regény utca,47.443505,19.186521,,,F03705,1.0,46.0,139,96.64295604575092,2
F03721,Szarvas csárda tér,47.441136,19.185048,,,F03721,1.0,8.0,141,114.5449303023077,4
F03720,Szarvas csárda tér,47.441136,19.185048,,,F03721,2.0,-167.0,141,114.5449303023077,4
F03711,"Pestszentlőrinc, Szarvas csárda tér",47.441136,19.185048,,,F03721,2.0,99.0,141,114.5449303023077,4
009208,"Pestszentlőrinc, Szarvas csárda tér",47.441136,19.185048,,,F03721,1.0,,141,114.5449303023077,4
F03719,Szarvas csárda tér,47.439975,19.186158,,,F03719,2.0,115.0,142,110.07096768488874,4
F03718,Szarvas csárda tér,47.439975,19.186158,,,F03719,2.0,-62.0,142,110.07096768488874,4
F03715,Szarvas csárda tér,47.439975,19.186158,,,F03719,2.0,29.0,142,110.07096768488874,4
F03713,Szarvas csárda tér,47.439975,19.186158,,,F03719,2.0,-47.0,142,110.07096768488874,4
F03683,Wlassics Gyula utca,47.437446,19.183973,,,F03683,2.0,11.0,143,78.38276737526003,2
F03684,Wlassics Gyula utca,47.437446,19.183973,,,F03683,2.0,-171.0,143,78.38276737526003,2
F03640,Dalmady Győző utca,47.433381,19.194267,,,F03640,1.0,76.0,145,21.600812152873207,2
F03639,Dalmady Győző utca,47.433381,19.194267,,,F03640,2.0,-102.0,145,21.600812152873207,2
F03691,Iparvasút,47.436522,19.196233,,,F03691,2.0,113.0,146,92.17043972929224,4
F03690,Iparvasút,47.436522,19.196233,,,F03691,2.0,-64.0,146,92.17043972929224,4
F03689,Iparvasút,47.436522,19.196233,,,F03691,2.0,-59.0,146,92.17043972929224,4
F03692,Iparvasút,47.436522,19.196233,,,F03691,2.0,79.0,146,92.17043972929224,4
F03857,Sas utca,47.432712,19.189811,,,F03857,1.0,75.0,147,56.05091985315852,2
F03858,Sas utca,47.432712,19.189811,,,F03857,1.0,-102.0,147,56.05091985315852,2
F03825,Madarász utca,47.437813,19.192353,,,F03825,2.0,117.0,148,58.25472161679791,4
F03823,Madarász utca,47.437813,19.192353,,,F03825,2.0,114.0,148,58.25472161679791,4
F03824,Madarász utca,47.437813,19.192353,,,F03825,2.0,-62.0,148,58.25472161679791,4
F03822,Madarász utca,47.437813,19.192353,,,F03825,2.0,-64.0,148,58.25472161679791,4
F03634,Varjú utca,47.434083,19.182904,,,F03634,2.0,-171.0,149,37.13942267260044,2
F03633,Varjú utca,47.434083,19.182904,,,F03634,2.0,15.0,149,37.13942267260044,2
F03685,Dobozi utca,47.435611,19.183464,,,F03685,2.0,11.0,150,38.22513564216225,2
F03686,Dobozi utca,47.435611,19.183464,,,F03685,2.0,-169.0,150,38.22513564216225,2
F03636,Obszervatórium,47.429918,19.182827,,,F03636,2.0,151.0,151,32.76325228251823,2
F03635,Obszervatórium,47.429918,19.182827,,,F03636,2.0,-29.0,151,32.76325228251823,2
F03638,Gilice tér,47.432101,19.185643,,,F03638,2.0,60.0,152,63.13222070290797,2
F03637,Gilice tér,47.432101,19.185643,,,F03638,1.0,-86.0,152,63.13222070290797,2
009480,Margó Tivadar utca,47.433265,19.177803,,,009480,1.0,51.0,156,104.25212331180059,2
009551,Margó Tivadar utca,47.433265,19.177803,,,009480,1.0,-106.0,156,104.25212331180059,2
F03620,Szent Lőrinc-telep,47.433395,19.174344,,,F03620,1.0,-161.0,157,34.07309738381119,2
F03621,Szent Lőrinc-telep,47.433395,19.174344,,,F03620,1.0,28.0,157,34.07309738381119,2
009478,Szent Lőrinc-telep,47.432106,19.17293,,,009478,2.0,,158,73.79130284287788,3
007923,Kele utca,47.432106,19.17293,,,009478,1.0,29.0,158,73.79130284287788,3
009479,Szent Lőrinc-telep,47.432106,19.17293,,,009478,2.0,,158,73.79130284287788,3
F03993,Hofherr Albert utca,47.438571,19.147437,,,F03993,2.0,-51.0,159,98.7050013403243,2
F03992,Hofherr Albert utca,47.438571,19.147437,,,F03993,2.0,132.0,159,98.7050013403243,2
F03907,Naszód utca (Használtcikk piac),47.435889,19.143754,,,F03907,2.0,133.0,160,133.18147792165036,3
009074,Használtcikk piac,47.435889,19.143754,,,F03907,1.0,-37.0,160,133.18147792165036,3
F03908,Használtcikk piac,47.435889,19.143754,,,F03907,1.0,-42.0,160,133.18147792165036,3
F03889,Autópiac,47.432007,19.149792,,,F03889,1.0,125.0,161,108.45546515621321,2
F03888,Autópiac,47.432007,19.149792,,,F03889,2.0,-26.0,161,108.45546515621321,2
F03996,Ipolyság utca,47.436112,19.151741,,,F03996,2.0,-56.0,162,67.98331355149935,2
F03995,Ajtósi utca,47.436112,19.151741,,,F03996,2.0,132.0,162,67.98331355149935,2
F03999,Kassa utca,47.43649,19.156243,,,F03999,1.0,-54.0,163,55.08583109962785,3
F03998,Kassa utca,47.43649,19.156243,,,F03999,2.0,30.0,163,55.08583109962785,3
F03997,Kassa utca,47.43649,19.156243,,,F03999,1.0,-150.0,163,55.08583109962785,3
F03727,Kolozsvár utca (temető),47.438548,19.157692,,,F03727,1.0,41.0,164,64.35729584043547,2
F03726,Kolozsvár utca (temető),47.438548,19.157692,,,F03727,1.0,-151.0,164,64.35729584043547,2
008093,Dél-pesti autóbuszgarázs,47.426707,19.161776,,,008093,1.0,-120.0,165,171.3306023884399,7
008094,Dél-pesti autóbuszgarázs,47.426707,19.161776,,,008093,1.0,51.0,165,171.3306023884399,7
008471,Dél-pesti autóbuszgarázs,47.426707,19.161776,,,008093,1.0,,165,171.3306023884399,7
008921,Dél-pesti autóbuszgarázs,47.426707,19.161776,,,008093,2.0,,165,171.3306023884399,7
008472,Dél-pesti autóbuszgarázs,47.426707,19.161776,,,008093,1.0,,165,171.3306023884399,7
043154,Dél-pesti autóbuszgarázs (kapu),47.426707,19.161776,,,008093,,,165,171.3306023884399,7
F03630,Nagykőrösi út,47.426707,19.161776,,,008093,2.0,,165,171.3306023884399,7
F03631,Szentlőrinci út,47.425254,19.158248,,,F03631,1.0,-37.0,166,91.97415144270914,5
008095,Nagykőrösi út,47.425254,19.158248,,,F03631,2.0,-104.0,166,91.97415144270914,5
008096,Nagykőrösi út,47.425254,19.158248,,,F03631,2.0,73.0,166,91.97415144270914,5
008267,Szentlőrinci út,47.425254,19.158248,,,F03631,1.0,-128.0,166,91.97415144270914,5
F03632,Szentlőrinci út,47.425254,19.158248,,,F03631,1.0,141.0,166,91.97415144270914,5
F03892,Csíky utca,47.432307,19.16554,,,F03892,1.0,119.0,168,53.37573825583139,3
F03894,Csíky utca,47.432307,19.16554,,,F03892,1.0,-148.0,168,53.37573825583139,3
F03893,Csíky utca,47.432307,19.16554,,,F03892,2.0,-36.0,168,53.37573825583139,3
F03626,Besence utca,47.428089,19.165106,,,F03626,1.0,54.0,169,15.616463057868721,2
F03625,Besence utca,47.428089,19.165106,,,F03626,1.0,-117.0,169,15.616463057868721,2
F03624,Ipacsfa utca,47.42992,19.168981,,,F03624,1.0,51.0,170,127.74298260933666,4
F03623,Ipacsfa utca,47.42992,19.168981,,,F03624,1.0,-125.0,170,127.74298260933666,4
F03622,Ipacsfa utca,47.42992,19.168981,,,F03624,2.0,-126.0,170,127.74298260933666,4
056189,Ipacsfa utca,47.42992,19.168981,,,F03624,2.0,123.0,170,127.74298260933666,4
F03763,Baross utca,47.439793,19.171774,,,F03763,2.0,162.0,171,61.48557739401757,2
F03762,Margó Tivadar utca,47.439793,19.171774,,,F03763,1.0,-145.0,171,61.48557739401757,2
F03766,Kinizsi Pál utca,47.436733,19.173503,,,F03766,1.0,159.0,172,67.06442561106086,2
F03765,Fiatalság utca,47.436733,19.173503,,,F03766,1.0,-49.0,172,67.06442561106086,2
F03722,Iker utca,47.435883,19.169193,,,F03722,1.0,-146.0,173,46.57778743514969,2
F03723,Iker utca,47.435883,19.169193,,,F03722,1.0,34.0,173,46.57778743514969,2
F03764,Margó Tivadar utca,47.437752,19.17108,,,F03764,1.0,33.0,174,69.07468790527743,2
086876,Fiatalság utca,47.437752,19.17108,,,F03764,1.0,122.0,174,69.07468790527743,2
F03891,Karton utca,47.434327,19.160918,,,F03891,1.0,110.0,176,54.04904730620705,2
F03890,Karton utca,47.434327,19.160918,,,F03891,1.0,-54.0,176,54.04904730620705,2
086874,Vörösmarty Mihály utca,47.43954,19.164256,,,086874,1.0,59.0,177,16.485392177781687,2
F03759,Vörösmarty Mihály utca,47.43954,19.164256,,,086874,2.0,-95.0,177,16.485392177781687,2
086875,Kondor Béla sétány,47.438745,19.167224,,,086875,1.0,122.0,178,62.96659240329436,2
F03760,Kondor Béla sétány,47.438745,19.167224,,,086875,1.0,-57.0,178,62.96659240329436,2
F03767,Kossuth Lajos utca,47.442919,19.175758,,,F03767,1.0,27.0,179,42.332234103343076,2
F03769,Baross utca,47.442919,19.175758,,,F03767,1.0,-145.0,179,42.332234103343076,2
F03772,Baross utca,47.444349,19.175696,,,F03772,1.0,-51.0,180,80.13760985437021,4
F03771,Baross utca,47.444349,19.175696,,,F03772,2.0,-57.0,180,80.13760985437021,4
F03770,Baross utca,47.444349,19.175696,,,F03772,2.0,118.0,180,80.13760985437021,4
F03768,Baross utca,47.444349,19.175696,,,F03772,2.0,120.0,180,80.13760985437021,4
F03835,Kemény Zsigmond utca,47.445377,19.173006,,,F03835,1.0,114.0,181,125.76549489284695,4
F03833,Kemény Zsigmond utca,47.445377,19.173006,,,F03835,2.0,110.0,181,125.76549489284695,4
F03834,Kemény Zsigmond utca,47.445377,19.173006,,,F03835,2.0,-58.0,181,125.76549489284695,4
F03836,Kemény Zsigmond utca,47.445377,19.173006,,,F03835,1.0,-59.0,181,125.76549489284695,4
F03751,Lakatos út,47.448087,19.170958,,,F03751,1.0,23.0,183,107.56973788860438,2
F03750,Üllői út,47.448087,19.170958,,,F03751,1.0,-158.0,183,107.56973788860438,2
F03753,Margó Tivadar utca,47.446692,19.168045,,,F03753,2.0,159.0,184,80.01325532173355,2
F03754,Margó Tivadar utca,47.446692,19.168045,,,F03753,2.0,123.0,184,80.01325532173355,2
F03755,Margó Tivadar utca,47.44791,19.167324,,,F03755,2.0,122.0,185,64.6154442190122,3
F03756,Margó Tivadar utca,47.44791,19.167324,,,F03755,2.0,-55.0,185,64.6154442190122,3
F03752,Margó Tivadar utca,47.44791,19.167324,,,F03755,2.0,-58.0,185,64.6154442190122,3
008850,Mikszáth Kálmán utca,47.451162,19.176781,,,008850,2.0,-55.0,186,57.96636005930262,2
F03774,Mikszáth Kálmán utca,47.451162,19.176781,,,008850,2.0,119.0,186,57.96636005930262,2
F03749,Lakatos úti lakótelep,47.452271,19.174197,,,F03749,2.0,-53.0,187,156.74757123254378,4
F03748,Lakatos úti lakótelep,47.452271,19.174197,,,F03749,2.0,122.0,187,156.74757123254378,4
F03839,Lakatos úti lakótelep,47.452271,19.174197,,,F03749,1.0,25.0,187,156.74757123254378,4
F03840,Lakatos úti lakótelep,47.452271,19.174197,,,F03749,1.0,-156.0,187,156.74757123254378,4
F03837,Kispesti temető,47.442946,19.157555,,,F03837,1.0,127.0,188,49.39706748462357,2
F03838,Kispesti temető,47.442946,19.157555,,,F03837,1.0,-45.0,188,49.39706748462357,2
F03729,Csapó utca,47.440907,19.160673,,,F03729,1.0,45.0,189,82.00835261221096,3
F03728,Csapó utca,47.440907,19.160673,,,F03729,1.0,127.0,189,82.00835261221096,3
050129,Csapó utca,47.440907,19.160673,,,F03729,2.0,,189,82.00835261221096,3
F03730,Bozsik Stadion,47.444567,19.155185,,,F03730,2.0,-134.0,191,48.426130485235944,2
F03731,Bozsik Stadion,47.444567,19.155185,,,F03730,2.0,-52.0,191,48.426130485235944,2
F04039,"Kispest, Tulipán utca",47.445694,19.152669,,,F04039,2.0,,192,136.6736967308901,2
F04000,Ady Endre út,47.445694,19.152669,,,F04039,1.0,41.0,192,136.6736967308901,2
F03741,Tinódi utca,47.44984,19.163032,,,F03741,2.0,-55.0,193,92.7602805008145,4
F03740,Tinódi utca,47.44984,19.163032,,,F03741,2.0,-59.0,193,92.7602805008145,4
F03738,Tinódi utca,47.44984,19.163032,,,F03741,2.0,124.0,193,92.7602805008145,4
F03739,Tinódi utca,47.44984,19.163032,,,F03741,2.0,118.0,193,92.7602805008145,4
F03732,Kispest vasútállomás,47.447568,19.158533,,,F03732,1.0,-140.0,194,48.27041523270974,2
F03733,Kispest vasútállomás,47.447568,19.158533,,,F03732,1.0,33.0,194,48.27041523270974,2
F03734,Lajosmizsei sorompó,47.450561,19.161323,,,F03734,2.0,-57.0,195,114.54426552534521,3
F03737,Lajosmizsei sorompó,47.450561,19.161323,,,F03734,2.0,120.0,195,114.54426552534521,3
008047,Lajosmizsei sorompó,47.450561,19.161323,,,F03734,2.0,-59.0,195,114.54426552534521,3
F01549,Árpád utca,47.463657,19.177904,,,F01549,2.0,-173.0,196,50.99639308335919,2
F01550,Árpád utca,47.463657,19.177904,,,F01549,1.0,10.0,196,50.99639308335919,2
F01551,Álmos utca,47.467524,19.178576,,,F01551,1.0,169.0,197,56.736470196081505,2
F01552,Álmos utca,47.467524,19.178576,,,F01551,2.0,5.0,197,56.736470196081505,2
008692,Felsőcsatári köz,47.458756,19.177096,,,008692,1.0,,200,96.57987224585658,2
F01870,Felsőcsatári út,47.458756,19.177096,,,008692,1.0,-59.0,200,96.57987224585658,2
F03746,Felsőcsatári köz,47.456346,19.1766,,,F03746,1.0,-60.0,201,149.07732707490578,3
F01545,Felsőcsatári út,47.456346,19.1766,,,F03746,1.0,107.0,201,149.07732707490578,3
F03747,Felsőcsatári köz,47.456346,19.1766,,,F03746,1.0,115.0,201,149.07732707490578,3
F01587,Hangár utca,47.462465,19.165951,,,F01587,1.0,-28.0,202,117.46477878303074,2
F01546,Hangár utca,47.462465,19.165951,,,F01587,1.0,120.0,202,117.46477878303074,2
F04005,Bocskai utca,47.459196,19.15798,,,F04005,2.0,-59.0,205,72.99558368866496,2
F04006,Bocskai utca,47.459196,19.15798,,,F04005,2.0,122.0,205,72.99558368866496,2
F01548,Gyömrői út 132.,47.463566,19.162107,,,F01548,1.0,118.0,206,111.98123307235822,2
F01547,Gyömrői út 105.,47.463566,19.162107,,,F01548,1.0,-61.0,206,111.98123307235822,2
F03903,Árpád utca,47.454545,19.151784,,,F03903,2.0,121.0,207,121.41432476221395,4
F03904,Árpád utca,47.454545,19.151784,,,F03903,2.0,-57.0,207,121.41432476221395,4
F03905,Árpád utca,47.454545,19.151784,,,F03903,1.0,112.0,207,121.41432476221395,4
F03906,Árpád utca,47.454545,19.151784,,,F03903,2.0,-57.0,207,121.41432476221395,4
F04030,Villanytelep,47.452454,19.156673,,,F04030,2.0,121.0,208,41.88097210140496,4
F04031,Villanytelep,47.452454,19.156673,,,F04030,2.0,-59.0,208,41.88097210140496,4
F04028,Villanytelep,47.452454,19.156673,,,F04030,1.0,116.0,208,41.88097210140496,4
F04029,Villanytelep,47.452454,19.156673,,,F04030,2.0,-39.0,208,41.88097210140496,4
F03744,Csillag utca,47.457252,19.1622,,,F03744,1.0,118.0,210,75.57909041917907,2
F03745,Csillag utca,47.457252,19.1622,,,F03744,1.0,-50.0,210,75.57909041917907,2
F03742,Hőerőmű,47.456437,19.164314,,,F03742,2.0,-55.0,211,82.1721724022355,2
F03743,Hőerőmű,47.456437,19.164314,,,F03742,2.0,123.0,211,82.1721724022355,2
F03975,Áchim András utca,47.452181,19.135435,,,F03975,2.0,-135.0,212,61.27605026432232,2
F03976,Áchim András utca,47.452181,19.135435,,,F03975,2.0,42.0,212,61.27605026432232,2
F03972,Hunyadi tér,47.449265,19.130705,,,F03972,1.0,132.0,213,94.27701842175172,4
F03973,Hunyadi tér,47.449265,19.130705,,,F03972,1.0,41.0,213,94.27701842175172,4
F03974,Hunyadi tér,47.449265,19.130705,,,F03972,1.0,-47.0,213,94.27701842175172,4
F03971,Hunyadi tér,47.449265,19.130705,,,F03972,1.0,-136.0,213,94.27701842175172,4
F04037,Pannónia út,47.447641,19.124934,,,F04037,2.0,-43.0,214,62.04684972630253,2
F04038,Irányi utca,47.447641,19.124934,,,F04037,1.0,134.0,214,62.04684972630253,2
F03916,Hunyadi utca,47.446272,19.126934,,,F03916,1.0,-45.0,215,24.994692992607813,2
F03915,Nagysándor József utca,47.446272,19.126934,,,F03916,1.0,135.0,215,24.994692992607813,2
F04043,Nagykőrösi út,47.444861,19.124798,,,F04043,1.0,46.0,216,26.951697034341073,2
F04042,Nagykőrösi út,47.444861,19.124798,,,F04043,1.0,-133.0,216,26.951697034341073,2
F04024,Batthyány utca,47.44656,19.134763,,,F04024,2.0,-42.0,217,51.05661699633801,2
F04025,Batthyány utca,47.44656,19.134763,,,F04024,2.0,135.0,217,51.05661699633801,2
F03895,Batthyány utca,47.443805,19.130723,,,F03895,1.0,-42.0,218,69.7566201622515,2
F03896,Debrecen utca,47.443805,19.130723,,,F03895,1.0,132.0,218,69.7566201622515,2
F04026,Áchim András utca,47.447079,19.141971,,,F04026,1.0,41.0,219,40.00233327186826,2
F04027,Áchim András utca,47.447079,19.141971,,,F04026,1.0,-131.0,219,40.00233327186826,2
F03980,Kossuth Lajos utca,47.450152,19.146167,,,F03980,2.0,136.0,220,61.00459891668134,4
F03978,Ady Endre út,47.450152,19.146167,,,F03980,1.0,40.0,220,61.00459891668134,4
F03977,Kossuth Lajos utca,47.450152,19.146167,,,F03980,1.0,-125.0,220,61.00459891668134,4
F03979,Kossuth Lajos utca,47.450152,19.146167,,,F03980,2.0,-43.0,220,61.00459891668134,4
F04035,Mészáros Lőrinc utca,47.444043,19.143868,,,F04035,2.0,-134.0,221,130.14975050476158,2
109566,Áchim András utca,47.444043,19.143868,,,F04035,2.0,,221,130.14975050476158,2
F04003,Vas Gereben utca,47.447793,19.149543,,,F04003,2.0,135.0,222,37.288360272772486,3
F04004,Vas Gereben utca,47.447793,19.149543,,,F04003,2.0,-43.0,222,37.288360272772486,3
F04002,Vas Gereben utca (Ady Endre út),47.447793,19.149543,,,F04003,1.0,-135.0,222,37.288360272772486,3
F03984,Kossuth Lajos utca,47.444771,19.138573,,,F03984,1.0,44.0,224,80.92732252940257,4
F03983,Kossuth Lajos utca,47.444771,19.138573,,,F03984,2.0,137.0,224,80.92732252940257,4
F03981,Kossuth Lajos utca,47.444771,19.138573,,,F03984,2.0,-46.0,224,80.92732252940257,4
F03982,Nádasdy utca,47.444771,19.138573,,,F03984,1.0,-130.0,224,80.92732252940257,4
F03914,Radnó utca,47.440465,19.135464,,,F03914,1.0,133.0,225,87.32191291402597,2
F03913,Zrínyi utca,47.440465,19.135464,,,F03914,2.0,-45.0,225,87.32191291402597,2
F04034,Madarassy László utca,47.440418,19.143543,,,F04034,2.0,-45.0,228,49.91288312033627,2
F04033,Garázs utca,47.440418,19.143543,,,F04034,2.0,135.0,228,49.91288312033627,2
F03990,"Kispest, Vas Gereben utca",47.44172,19.140928,,,F03990,1.0,,230,85.11587671967415,3
F03989,Vas Gereben utca,47.44172,19.140928,,,F03990,1.0,-45.0,230,85.11587671967415,3
109565,Pincér utca,47.44172,19.140928,,,F03990,2.0,45.0,230,85.11587671967415,3
F03911,Kéreg utca,47.439015,19.13802,,,F03911,1.0,124.0,232,36.40200512659159,2
F03912,Vas Gereben utca,47.439015,19.13802,,,F03911,1.0,-54.0,232,36.40200512659159,2
F03964,Gutenberg körút,47.455791,19.131223,,,F03964,2.0,87.0,234,86.18661429425443,2
F03963,Gutenberg körút,47.455791,19.131223,,,F03964,2.0,-92.0,234,86.18661429425443,2
F03922,Kós Károly tér,47.454718,19.126562,,,F03922,1.0,84.0,235,74.96411481258392,2
F03921,Pannónia út,47.454718,19.126562,,,F03922,1.0,84.0,235,74.96411481258392,2
F03925,Corvin körút,47.459179,19.126516,,,F03925,1.0,4.0,237,55.76066830294195,2
F03924,Corvin körút,47.459179,19.126516,,,F03925,1.0,-175.0,237,55.76066830294195,2
F03927,Corvin körút,47.460192,19.132127,,,F03927,1.0,-34.0,238,41.87670074333519,2
F03926,Corvin körút,47.460192,19.132127,,,F03927,1.0,136.0,238,41.87670074333519,2
F03902,Nyáry Pál utca,47.46232,19.133621,,,F03902,2.0,-58.0,239,116.96779699920026,4
F03900,Corvin körút,47.46232,19.133621,,,F03902,2.0,-58.0,239,116.96779699920026,4
F03901,Nyáry Pál utca,47.46232,19.133621,,,F03902,1.0,121.0,239,116.96779699920026,4
F03899,Corvin körút,47.46232,19.133621,,,F03902,2.0,117.0,239,116.96779699920026,4
F03958,Hungária út,47.456057,19.136675,,,F03958,2.0,-91.0,240,102.8476695758507,4
F03961,Hungária út,47.456057,19.136675,,,F03958,1.0,-39.0,240,102.8476695758507,4
F03959,Ady Endre út (Rendőrség),47.456057,19.136675,,,F03958,1.0,90.0,240,102.8476695758507,4
F03960,Hungária út,47.456057,19.136675,,,F03958,1.0,136.0,240,102.8476695758507,4
F03932,Lehel utca,47.459312,19.140826,,,F03932,2.0,-38.0,241,115.51025891344707,4
F03933,Lehel utca,47.459312,19.140826,,,F03932,2.0,122.0,241,115.51025891344707,4
F03934,Lehel utca,47.459312,19.140826,,,F03932,2.0,-58.0,241,115.51025891344707,4
F03931,Lehel utca,47.459312,19.140826,,,F03932,2.0,113.0,241,115.51025891344707,4
F04022,Templom tér,47.452574,19.142697,,,F04022,2.0,135.0,242,83.5048493403635,3
F04021,Templom tér,47.452574,19.142697,,,F04022,2.0,-26.0,242,83.5048493403635,3
F04020,Templom tér,47.452574,19.142697,,,F04022,1.0,-40.0,242,83.5048493403635,3
F03956,Ady Endre út (Báthory utca),47.454662,19.14091,,,F03956,1.0,-135.0,243,103.16572088415188,2
F03955,Kisfaludy utca,47.454662,19.14091,,,F03956,1.0,38.0,243,103.16572088415188,2
F03947,Kossuth tér,47.457483,19.144894,,,F03947,2.0,122.0,245,130.651484315798,4
F03945,"Kispest, Kossuth tér",47.457483,19.144894,,,F03947,1.0,-161.0,245,130.651484315798,4
F03946,Kossuth tér,47.457483,19.144894,,,F03947,2.0,-57.0,245,130.651484315798,4
F03949,Kossuth tér,47.457483,19.144894,,,F03947,2.0,-60.0,245,130.651484315798,4
F03954,Fő utca,47.456627,19.14712,,,F03954,2.0,-58.0,247,81.29792997215253,4
F03953,Fő utca,47.456627,19.14712,,,F03954,2.0,122.0,247,81.29792997215253,4
F03951,Fő utca,47.456627,19.14712,,,F03954,1.0,121.0,247,81.29792997215253,4
F03952,Fő utca,47.456627,19.14712,,,F03954,1.0,-55.0,247,81.29792997215253,4
F01583,Felüljáró,47.465158,19.152296,,,F01583,1.0,-149.0,254,47.14796034266394,2
F01584,Felüljáró (Gyömrői út),47.465158,19.152296,,,F01583,1.0,31.0,254,47.14796034266394,2
F01806,Sibrik Miklós út,47.467152,19.153022,,,F01806,2.0,-63.0,255,46.74617688137232,2
F01807,Sibrik Miklós út,47.467152,19.153022,,,F01806,1.0,79.0,255,46.74617688137232,2
038680,Kőbánya-Kispest M,47.462929,19.148252,,,038680,1.0,,256,422.2136429927426,24
038690,Kőbánya-Kispest M,47.462929,19.148252,,,038680,1.0,,256,422.2136429927426,24
038673,Kőbánya-Kispest M,47.462929,19.148252,,,038680,1.0,,256,422.2136429927426,24
F03941,Kőbánya-Kispest M,47.462929,19.148252,,,038680,1.0,29.0,256,422.2136429927426,24
038678,Kőbánya-Kispest M,47.462929,19.148252,,,038680,1.0,,256,422.2136429927426,24
038674,Kőbánya-Kispest M,47.462929,19.148252,,,038680,1.0,107.0,256,422.2136429927426,24
038692,Kőbánya-Kispest M,47.462929,19.148252,,,038680,1.0,,256,422.2136429927426,24
038675,Kőbánya-Kispest M,47.462929,19.148252,,,038680,1.0,,256,422.2136429927426,24
038671,Kőbánya-Kispest M,47.462929,19.148252,,,038680,1.0,,256,422.2136429927426,24
F03940,Kőbánya-Kispest M,47.462929,19.148252,,,038680,1.0,-147.0,256,422.2136429927426,24
038682,Kőbánya-Kispest M,47.462929,19.148252,,,038680,1.0,,256,422.2136429927426,24
038681,Kőbánya-Kispest M,47.462929,19.148252,,,038680,1.0,,256,422.2136429927426,24
043176,Kőbánya-Kispest M,47.462929,19.148252,,,038680,2.0,-152.0,256,422.2136429927426,24
038688,Kőbánya-Kispest M,47.462929,19.148252,,,038680,1.0,,256,422.2136429927426,24
038670,Kőbánya-Kispest M,47.462929,19.148252,,,038680,1.0,,256,422.2136429927426,24
F01543,Kőbánya-Kispest,47.462929,19.148252,,,038680,1.0,,256,422.2136429927426,24
009592,Kőbánya-Kispest P+R,47.462929,19.148252,,,038680,1.0,-66.0,256,422.2136429927426,24
038687,Kőbánya-Kispest M,47.462929,19.148252,,,038680,1.0,,256,422.2136429927426,24
F01544,Kőbánya-Kispest,47.462929,19.148252,,,038680,1.0,,256,422.2136429927426,24
088969,Kőbánya-Kispest M,47.462929,19.148252,,,038680,1.0,,256,422.2136429927426,24
082333,Kőbánya-Kispest M,47.462929,19.148252,,,038680,2.0,,256,422.2136429927426,24
038683,Kőbánya-Kispest M,47.462929,19.148252,,,038680,1.0,,256,422.2136429927426,24
038686,Kőbánya-Kispest M,47.462929,19.148252,,,038680,1.0,,256,422.2136429927426,24
099640,Kőbánya-Kispest M,47.462929,19.148252,,,038680,,,256,422.2136429927426,24
F01459,Határ út M,47.464405,19.126338,,,F01459,1.0,,259,223.29176846174047,19
F04014,Határ út M,47.464405,19.126338,,,F01459,1.0,,259,223.29176846174047,19
CSF03930,Határ út,47.464405,19.126338,CSF03930,1.0,F01459,,,259,223.29176846174047,19
040762,Határ út M,47.464405,19.126338,,,F01459,2.0,-24.0,259,223.29176846174047,19
040763,Határ út M,47.464405,19.126338,,,F01459,2.0,107.0,259,223.29176846174047,19
072924,Határ út M,47.464405,19.126338,,,F01459,2.0,,259,223.29176846174047,19
F04015,Határ út M,47.464405,19.126338,,,F01459,1.0,,259,223.29176846174047,19
F01460,Határ út M,47.464405,19.126338,,,F01459,2.0,,259,223.29176846174047,19
F03930,Határ út M,47.464405,19.126338,F03930,,F01459,1.0,,259,223.29176846174047,19
099654,Határ út M,47.464405,19.126338,,,F01459,,,259,223.29176846174047,19
F01462,Határ út M,47.464405,19.126338,,,F01459,1.0,147.0,259,223.29176846174047,19
F03928,Határ út M,47.464405,19.126338,,,F01459,2.0,117.0,259,223.29176846174047,19
040761,Határ út M,47.464405,19.126338,,,F01459,2.0,78.0,259,223.29176846174047,19
F03929,Határ út M,47.464405,19.126338,F03929,,F01459,2.0,-55.0,259,223.29176846174047,19
F04019,Határ út M,47.464405,19.126338,,,F01459,2.0,43.0,259,223.29176846174047,19
F01461,Határ út M,47.464405,19.126338,,,F01459,1.0,153.0,259,223.29176846174047,19
008490,Határ út M,47.464405,19.126338,,,F01459,1.0,149.0,259,223.29176846174047,19
F04018,Határ út M,47.464405,19.126338,,,F01459,1.0,,259,223.29176846174047,19
F04017,Határ út M,47.464405,19.126338,,,F01459,1.0,,259,223.29176846174047,19
044127,Száva kocsiszín,47.46642,19.123095,,,044127,2.0,117.0,261,38.478218950310506,2
044126,Száva kocsiszín,47.46642,19.123095,,,044127,1.0,-56.0,261,38.478218950310506,2
F01463,Kőér utcai uszoda,47.466517,19.126213,,,F01463,2.0,-153.0,262,132.72601412668695,4
F01541,Határ út,47.466517,19.126213,,,F01463,2.0,,262,132.72601412668695,4
F01464,Kőér utcai uszoda,47.466517,19.126213,,,F01463,1.0,26.0,262,132.72601412668695,4
F01542,Határ út,47.466517,19.126213,,,F01463,2.0,,262,132.72601412668695,4
F01638,Hízlaló tér,47.472511,19.123644,,,F01638,2.0,130.0,263,52.48311369858467,2
F01637,Hízlaló tér,47.472511,19.123644,,,F01638,1.0,-39.0,263,52.48311369858467,2
F01540,Basa utca,47.470269,19.126824,,,F01540,2.0,135.0,264,43.03420511226296,2
F01539,Basa utca,47.470269,19.126824,,,F01540,1.0,-44.0,264,43.03420511226296,2
009225,Noszlopy utca,47.471959,19.148362,,,009225,2.0,-52.0,266,11.896264430266369,2
F01692,Noszlopy utca,47.471959,19.148362,,,009225,2.0,127.0,266,11.896264430266369,2
F01805,Vasgyár utca,47.469127,19.147388,,,F01805,2.0,120.0,267,46.87964870533218,2
F01804,Vasgyár utca,47.469127,19.147388,,,F01805,2.0,-62.0,267,46.87964870533218,2
F01582,Diósgyőri utca,47.47056,19.143822,,,F01582,2.0,-52.0,268,13.044926098377138,2
F01581,Diósgyőri utca,47.47056,19.143822,,,F01582,2.0,119.0,268,13.044926098377138,2
F01580,Kada utca,47.471722,19.14218,,,F01580,2.0,45.0,269,26.953674488464834,2
F01579,Gyömrői út,47.471722,19.14218,,,F01580,2.0,-135.0,269,26.953674488464834,2
F01689,Kemence utca,47.475757,19.147607,,,F01689,1.0,121.0,270,36.97921552933225,2
F01688,Kemence utca,47.475757,19.147607,,,F01689,1.0,-128.0,270,36.97921552933225,2
009631,Gergely utca 80.,47.474086,19.144346,,,009631,2.0,-49.0,271,74.1739435112134,3
F01690,Kada utca,47.474086,19.144346,,,009631,2.0,131.0,271,74.1739435112134,3
F01691,Gergely utca,47.474086,19.144346,,,009631,2.0,41.0,271,74.1739435112134,3
F01794,Kelemen utca,47.47691,19.132424,,,F01794,2.0,-28.0,272,52.54498097709129,2
F01795,Kelemen utca,47.47691,19.132424,,,F01794,2.0,153.0,272,52.54498097709129,2
F01659,Ihász utca,47.479562,19.135307,,,F01659,2.0,-45.0,273,20.901110454094187,2
F01660,Ihász utca,47.479562,19.135307,,,F01659,2.0,136.0,273,20.901110454094187,2
F01662,Kápolna tér,47.481127,19.136631,,,F01662,1.0,95.0,274,128.3570518462686,3
F01655,Kápolna utca,47.481127,19.136631,,,F01662,2.0,149.0,274,128.3570518462686,3
F01661,Kápolna tér,47.481127,19.136631,,,F01662,1.0,-71.0,274,128.3570518462686,3
F01578,Kőér utca,47.473733,19.135046,,,F01578,2.0,117.0,275,8.385396955205271,2
F01577,Kőér utca,47.473733,19.135046,,,F01578,2.0,-62.0,275,8.385396955205271,2
F01796,Gyógyszergyár,47.472399,19.138559,,,F01796,2.0,120.0,276,35.882070046673654,2
F01797,Gyógyszergyár,47.472399,19.138559,,,F01796,2.0,-60.0,276,35.882070046673654,2
F01686,Márga utca,47.47782,19.144082,,,F01686,1.0,133.0,277,35.812067226071036,2
F01687,Márga utca,47.47782,19.144082,,,F01686,1.0,-45.0,277,35.812067226071036,2
F01839,Szlávy utca,47.475743,19.141284,,,F01839,2.0,131.0,278,82.91972342937035,2
F01840,Szlávy utca,47.475743,19.141284,,,F01839,2.0,-50.0,278,82.91972342937035,2
F01665,Kőér utca,47.477608,19.138064,,,F01665,2.0,131.0,279,87.41443651669033,2
F01664,Kőér utca,47.477608,19.138064,,,F01665,2.0,-49.0,279,87.41443651669033,2
F01667,Óhegy park,47.479441,19.141683,,,F01667,1.0,135.0,280,106.78865857682808,2
F01666,Óhegy park,47.479441,19.141683,,,F01667,1.0,-58.0,280,106.78865857682808,2
F01366,Epreserdő utca,47.459683,19.111743,,,F01366,1.0,-24.0,281,142.88352241277335,4
F01367,Epreserdő utca,47.459683,19.111743,,,F01366,1.0,155.0,281,142.88352241277335,4
F01367,Epreserdő utca,47.459683,19.111743,,,F01366,1.0,154.0,281,142.88352241277335,4
088018,"Gyáli út, MOL Töltőállomás",47.459683,19.111743,,,F01366,,,281,142.88352241277335,4
044129,Napfény utca,47.458582,19.11445,,,044129,2.0,-165.0,282,10.112331503349512,2
066826,Napfény utca,47.458582,19.11445,,,044129,2.0,17.0,282,10.112331503349512,2
008587,Gyáli út,47.456472,19.111009,,,008587,2.0,-102.0,283,52.90005414881625,2
008588,Gyáli út,47.456472,19.111009,,,008587,2.0,76.0,283,52.90005414881625,2
F01456,Mészáros Lőrinc utca,47.4593,19.120044,,,F01456,1.0,-133.0,284,86.8157849246724,4
F01455,Mészáros Lőrinc utca,47.4593,19.120044,,,F01456,1.0,44.0,284,86.8157849246724,4
F01458,Mészáros Lőrinc utca,47.4593,19.120044,,,F01456,2.0,-134.0,284,86.8157849246724,4
F01457,Mészáros Lőrinc utca,47.4593,19.120044,,,F01456,2.0,45.0,284,86.8157849246724,4
F01470,Lobogó utca,47.462029,19.114915,,,F01470,1.0,-178.0,286,62.09762192288756,2
F01471,Lobogó utca,47.462029,19.114915,,,F01470,1.0,90.0,286,62.09762192288756,2
F01526,Csengettyű utca,47.463444,19.109691,,,F01526,1.0,-16.0,289,21.253888730840714,2
F01525,Csengettyű utca,47.463444,19.109691,,,F01526,1.0,162.0,289,21.253888730840714,2
008498,Aszódi utca,47.463484,19.100991,,,008498,1.0,,290,26.640408262873557,2
F01476,Aszódi utca,47.463484,19.100991,,,008498,1.0,,290,26.640408262873557,2
008589,Gyáli út,47.46601,19.103474,,,008589,1.0,-38.0,291,103.41965496580373,2
F01478,Füleki utca,47.46601,19.103474,,,008589,2.0,-129.0,291,103.41965496580373,2
044128,Valéria tér,47.465707,19.115411,,,044128,1.0,-164.0,293,136.59653534312977,3
F01468,Valéria tér,47.465707,19.115411,,,044128,1.0,-70.0,293,136.59653534312977,3
F01469,Valéria tér,47.465707,19.115411,,,044128,1.0,140.0,293,136.59653534312977,3
F01465,Pöttyös utca M,47.4688,19.117431,,,F01465,2.0,-51.0,294,111.64434863695774,4
044115,Pöttyös utca M,47.4688,19.117431,,,F01465,2.0,-171.0,294,111.64434863695774,4
F01466,Pöttyös utca M,47.4688,19.117431,,,F01465,1.0,116.0,294,111.64434863695774,4
F01878,Pöttyös utca,47.4688,19.117431,,,F01465,2.0,,294,111.64434863695774,4
F01491,Ecseri út M,47.471087,19.10912,,,F01491,1.0,-151.0,296,236.9154761302593,11
F01490,Ecseri út M,47.471087,19.10912,F01490,,F01491,1.0,30.0,296,236.9154761302593,11
F01496,Ecseri út M,47.471087,19.10912,,,F01491,1.0,-40.0,296,236.9154761302593,11
F01494,Ecseri út,47.471087,19.10912,,,F01491,2.0,,296,236.9154761302593,11
F01489,Ecseri út M,47.471087,19.10912,F01489,,F01491,1.0,48.0,296,236.9154761302593,11
F01493,Ecseri út,47.471087,19.10912,,,F01491,2.0,,296,236.9154761302593,11
102797,Ecseri út M,47.471087,19.10912,,,F01491,2.0,-167.0,296,236.9154761302593,11
F01497,Ecseri út M,47.471087,19.10912,,,F01491,1.0,114.0,296,236.9154761302593,11
CSF01489,Ecseri út,47.471087,19.10912,CSF01489,1.0,F01491,,,296,236.9154761302593,11
008500,Ecseri út M,47.471087,19.10912,,,F01491,2.0,-150.0,296,236.9154761302593,11
F01495,Ecseri út M,47.471087,19.10912,,,F01491,1.0,27.0,296,236.9154761302593,11
F01482,Közterületfenntartó Zrt.,47.467691,19.106513,,,F01482,1.0,-150.0,298,147.3436122437904,7
F01481,Közterületfenntartó Zrt.,47.467691,19.106513,,,F01482,1.0,-7.0,298,147.3436122437904,7
F01485,Közterületfenntartó Zrt.,47.467691,19.106513,,,F01482,1.0,-6.0,298,147.3436122437904,7
F01486,Közterületfenntartó Zrt.,47.467691,19.106513,,,F01482,1.0,-18.0,298,147.3436122437904,7
F01483,Közterületfenntartó Zrt.,47.467691,19.106513,,,F01482,1.0,29.0,298,147.3436122437904,7
008499,Közterületfenntartó Zrt.,47.467691,19.106513,,,F01482,1.0,-150.0,298,147.3436122437904,7
F01484,Közterületfenntartó Zrt.,47.467691,19.106513,,,F01482,1.0,163.0,298,147.3436122437904,7
F01363,Börzsöny utca,47.467085,19.111844,,,F01363,1.0,-32.0,299,34.19006852771347,2
F01364,Börzsöny utca,47.467085,19.111844,,,F01363,1.0,141.0,299,34.19006852771347,2
F01368,Aranyvirág sétány,47.467689,19.109816,,,F01368,1.0,-98.0,300,152.12936758194434,4
F01369,Aranyvirág sétány,47.467689,19.109816,,,F01368,1.0,-95.0,300,152.12936758194434,4
F01488,Ifjúmunkás utca,47.467689,19.109816,,,F01368,1.0,161.0,300,152.12936758194434,4
F01487,Ifjúmunkás utca,47.467689,19.109816,,,F01368,1.0,165.0,300,152.12936758194434,4
F01446,Jókai Mór utca / Határ út,47.44856,19.10498,,,F01446,2.0,-45.0,301,63.62975319330164,3
F01445,Jókai Mór utca / Határ út,47.44856,19.10498,,,F01446,1.0,41.0,301,63.62975319330164,3
F01444,Jókai Mór utca / Határ út,47.44856,19.10498,,,F01446,1.0,-129.0,301,63.62975319330164,3
F01450,Mártírok útja / Határ út,47.451814,19.109426,,,F01450,1.0,-36.0,302,35.339024657252374,3
F01448,Mártírok útja / Határ út,47.451814,19.109426,,,F01450,1.0,46.0,302,35.339024657252374,3
F01447,Mártírok útja / Határ út,47.451814,19.109426,,,F01450,1.0,-119.0,302,35.339024657252374,3
F01425,Külső Mester utca,47.45424,19.096221,,,F01425,1.0,-103.0,304,92.64185455779884,2
F01426,Külső Mester utca,47.45424,19.096221,,,F01425,1.0,74.0,304,92.64185455779884,2
F01475,Táblás utca,47.455477,19.104974,,,F01475,1.0,77.0,305,130.54538150711525,2
F01474,Táblás utca,47.455477,19.104974,,,F01475,1.0,-96.0,305,130.54538150711525,2
F01428,Timót utca,47.451831,19.092254,,,F01428,2.0,-16.0,306,51.86389598450161,2
F01427,Timót utca,47.451831,19.092254,,,F01428,2.0,151.0,306,51.86389598450161,2
F01430,Timót utca / Soroksári út,47.45087,19.088872,,,F01430,1.0,159.0,307,88.5046946572903,2
F01429,Timót utca / Soroksári út,47.45087,19.088872,,,F01430,1.0,-20.0,307,88.5046946572903,2
F01358,Fegyvergyár utca,47.448322,19.094227,,,F01358,2.0,-20.0,308,87.25439185221457,2
F01357,Fegyvergyár utca,47.448322,19.094227,,,F01358,2.0,159.0,308,87.25439185221457,2
F01359,Soroksári út 158.,47.44863,19.090422,,,F01359,1.0,-21.0,309,137.93525582938403,2
F01360,Soroksári út 158.,47.44863,19.090422,,,F01359,1.0,160.0,309,137.93525582938403,2
F01414,Magyar Aszfalt,47.459828,19.087645,,,F01414,2.0,153.0,310,22.05960603116611,2
F01413,Magyar Aszfalt,47.459828,19.087645,,,F01414,2.0,-12.0,310,22.05960603116611,2
F01349,Kén utca,47.457031,19.089142,,,F01349,2.0,106.0,311,32.01976926865249,2
F01350,Kén utca,47.457031,19.089142,,,F01349,2.0,-19.0,311,32.01976926865249,2
F01416,Kén utca,47.454744,19.086715,F01416,,CSF01415,2.0,-25.0,312,131.62614906601226,7
F01415,Kén utca,47.454744,19.086715,F01415,,CSF01415,2.0,155.0,312,131.62614906601226,7
F01419,Kén utca H,47.454744,19.086715,,,CSF01415,1.0,-20.0,312,131.62614906601226,7
F01417,Kén utca H (Illatos út),47.454744,19.086715,,,CSF01415,1.0,-75.0,312,131.62614906601226,7
F01418,Kén utca H,47.454744,19.086715,,,CSF01415,1.0,138.0,312,131.62614906601226,7
CSF01415,Kén utca,47.454744,19.086715,CSF01415,1.0,CSF01415,,,312,131.62614906601226,7
F01420,Kén utca H (Illatos út),47.454744,19.086715,,,CSF01415,1.0,104.0,312,131.62614906601226,7
F01421,Illatos út,47.454674,19.090479,,,F01421,2.0,159.0,313,145.5789312037257,4
F01424,Illatos út,47.454674,19.090479,,,F01421,2.0,-19.0,313,145.5789312037257,4
F01423,Gubacsi út,47.454674,19.090479,,,F01421,1.0,104.0,313,145.5789312037257,4
F01422,Gubacsi út,47.454674,19.090479,,,F01421,1.0,-74.0,313,145.5789312037257,4
CSF04052,Torontál utca,47.423191,19.105208,CSF04052,1.0,CSF04052,,,314,109.81445051013762,5
F04050,Torontál utca H,47.423191,19.105208,,,CSF04052,1.0,-20.0,314,109.81445051013762,5
F04051,Torontál utca H,47.423191,19.105208,,,CSF04052,1.0,126.0,314,109.81445051013762,5
F04052,Torontál utca,47.423191,19.105208,F04052,,CSF04052,2.0,158.0,314,109.81445051013762,5
F04053,Torontál utca,47.423191,19.105208,F04053,,CSF04052,2.0,-24.0,314,109.81445051013762,5
F04163,Károly utca,47.423235,19.117014,,,F04163,2.0,143.0,315,0.0,2
F04163,Károly utca,47.423235,19.117014,,,F04163,2.0,129.0,315,0.0,2
F04162,Lehel utca,47.421942,19.113845,,,F04162,1.0,-32.0,316,32.83525458461896,2
F04161,Bolyai János utca,47.421942,19.113845,,,F04162,1.0,136.0,316,32.83525458461896,2
F04159,Akácfa utca,47.425912,19.114118,,,F04159,2.0,131.0,317,0.0,2
F04159,Akácfa utca,47.425912,19.114118,,,F04159,2.0,135.0,317,0.0,2
F04158,Akácfa utca,47.423688,19.111792,,,F04158,1.0,138.0,318,95.01475254381337,2
F04157,Akácfa utca,47.423688,19.111792,,,F04158,1.0,-36.0,318,95.01475254381337,2
F04061,Székelyhíd utca,47.43071,19.115486,,,F04061,2.0,-108.0,319,80.22360640216385,3
F04061,Székelyhíd utca,47.43071,19.115486,,,F04061,2.0,-103.0,319,80.22360640216385,3
F04062,Klapka utca,47.43071,19.115486,,,F04061,1.0,137.0,319,80.22360640216385,3
F04160,Klapka utca,47.428684,19.111179,,,F04160,2.0,144.0,321,0.0,2
F04160,Klapka utca,47.428684,19.111179,,,F04160,2.0,139.0,321,0.0,2
F04058,Klapka utca,47.427323,19.108006,,,F04058,1.0,-29.0,322,94.25876772973477,2
F04059,Torontál utca,47.427323,19.108006,,,F04058,1.0,136.0,322,94.25876772973477,2
F04057,Tinódi utca,47.428556,19.10655,,,F04057,1.0,127.0,323,68.13975441404814,2
F04056,Tinódi utca,47.428556,19.10655,,,F04057,1.0,-36.0,323,68.13975441404814,2
F04094,Magyar utca,47.435211,19.124598,,,F04094,1.0,-42.0,325,21.182153381362262,2
F04095,Magyar utca,47.435211,19.124598,,,F04094,1.0,133.0,325,21.182153381362262,2
F04096,Magyar utca,47.438433,19.128333,,,F04096,2.0,137.0,326,48.523270423975696,2
F04097,Magyar utca,47.438433,19.128333,,,F04096,2.0,-48.0,326,48.523270423975696,2
F04169,Kiss Ernő utca,47.437614,19.121022,,,F04169,1.0,127.0,327,53.566685658216706,2
F04168,Mézes utca,47.437614,19.121022,,,F04169,1.0,-42.0,327,53.566685658216706,2
F04171,Mézes utca,47.440846,19.124889,,,F04171,2.0,137.0,328,77.57936471096231,2
F04170,Zobor utca,47.440846,19.124889,,,F04171,1.0,-42.0,328,77.57936471096231,2
F04108,Szent Imre herceg utca,47.436657,19.112338,,,F04108,2.0,86.0,329,50.50974630003739,3
F04109,Szent Imre herceg utca,47.436657,19.112338,,,F04108,1.0,-40.0,329,50.50974630003739,3
F04108,Szent Imre herceg utca,47.436657,19.112338,,,F04108,2.0,56.0,329,50.50974630003739,3
F04098,Mártírok útja,47.442696,19.121215,,,F04098,1.0,-133.0,331,171.14132078483954,4
F04100,Zalán utca,47.442696,19.121215,,,F04098,1.0,43.0,331,171.14132078483954,4
F04101,Nagysándor József utca,47.442696,19.121215,,,F04098,1.0,-39.0,331,171.14132078483954,4
F04099,Nagyszőlős utca,47.442696,19.121215,,,F04098,1.0,131.0,331,171.14132078483954,4
F04102,Nagysándor József utca,47.439865,19.118003,,,F04102,1.0,-44.0,332,38.91715800696347,2
F04105,Nagysándor József utca,47.439865,19.118003,,,F04102,1.0,122.0,332,38.91715800696347,2
F04106,Szabótelep,47.440369,19.116638,,,F04106,2.0,-44.0,333,113.43287923676128,3
F04103,Lázár utca,47.440369,19.116638,,,F04106,2.0,44.0,333,113.43287923676128,3
F04104,Jókai Mór utca,47.440369,19.116638,,,F04106,2.0,-136.0,333,113.43287923676128,3
F04090,Mártírok útja,47.436443,19.131326,,,F04090,2.0,-45.0,334,72.99048330499832,2
F04089,Temesvár utca,47.436443,19.131326,,,F04090,2.0,136.0,334,72.99048330499832,2
F04167,Vaskapu utca,47.43431,19.139139,,,F04167,1.0,-129.0,336,141.9760734948036,2
F04087,Hunyadi János tér,47.43431,19.139139,,,F04167,1.0,131.0,336,141.9760734948036,2
F04068,Wesselényi utca,47.43123,19.125631,,,F04068,2.0,-37.0,339,51.350916902688084,2
F04069,Eperjes utca,47.43123,19.125631,,,F04068,2.0,-134.0,339,51.350916902688084,2
F04046,Ady Endre tér,47.432246,19.126905,,,F04046,2.0,49.0,340,132.52946705188376,4
F04048,Ady Endre tér,47.432246,19.126905,,,F04046,1.0,-73.0,340,132.52946705188376,4
F04045,"Pesterzsébet, Ady Endre tér",47.432246,19.126905,,,F04046,1.0,-127.0,340,132.52946705188376,4
