Node,Eigenvector Centrality,Degree Centrality,Closeness Centrality,Betweenness Centrality,stop_id,clust,stop_lat,stop_lon,stop_name
3.0,0.0013539578394654215,0.0017574692442882249,0.07058239781678348,0.0035279224302229057,1302216,3,60.18696,24.8681,Kuusiniementie
30.0,0.00025445548089406887,0.0017574692442882249,0.06596336656619523,0.0017828188446455922,1302218,30,60.184553,24.857309,Kuusisaarenkuja
4.0,0.0012719011355192625,0.0017574692442882249,0.07049495137211174,0.003477223229508171,1302217,4,60.18716,24.86985,Kuusiniementie
687.0,0.006977235953790296,0.0017574692442882249,0.07579592380444918,0.005222326815085485,1301215,687,60.192436,24.880264,Saunalahti
5.0,0.00015960733220046286,0.0026362038664323375,0.07369511721279627,0.0092740305783605,1310142,5,60.15653,24.88541,Heikkiläntie
5.0,0.00015960733220046286,0.0026362038664323375,0.07369511721279627,0.0092740305783605,1310143,5,60.15661,24.8856,Heikkiläntie
11.0,2.9113382808214493e-05,0.0017574692442882249,0.06869077080944046,0.007528614171059594,1310145,11,60.15336,24.88507,Vattuniemenkuja
11.0,2.9113382808214493e-05,0.0017574692442882249,0.06869077080944046,0.007528614171059594,1320199,11,60.153323,24.884999,Vattuniemenkuja
16.0,0.00045319737260823313,0.0026362038664323375,0.07947482366087018,0.016472816565095288,1310104,16,60.16085,24.88663,Koillisväylä
16.0,0.00045319737260823313,0.0026362038664323375,0.07947482366087018,0.016472816565095288,1310141,16,60.159713,24.887872,Pajalahdentie
6.0,2.273030410289732e-06,0.0017574692442882249,0.06055446176767945,0.0012222423164176684,1310129,6,60.15365,24.87722,Särkiniementie
6.0,2.273030410289732e-06,0.0017574692442882249,0.06055446176767945,0.0012222423164176684,1310130,6,60.1539,24.8764,Särkiniementie
12.0,6.43843073316464e-07,0.0026362038664323375,0.057139987949387426,6.163692026498134e-05,1310131,12,60.15394,24.88144,Kiviaidankatu
12.0,6.43843073316464e-07,0.0026362038664323375,0.057139987949387426,6.163692026498134e-05,1532143,12,60.15414,24.879996,Heikkilänpolku
14.0,1.2246551402586576e-05,0.0035149384885764497,0.06441023318994793,0.005863265403911859,1310109,14,60.15817,24.87228,Lauttasaaren kirkko
14.0,1.2246551402586576e-05,0.0035149384885764497,0.06441023318994793,0.005863265403911859,1310110,14,60.15792,24.87184,Lauttasaaren kirkko
14.0,1.2246551402586576e-05,0.0035149384885764497,0.06441023318994793,0.005863265403911859,1310127,14,60.15759,24.87384,Hevosenkenkäpuisto
14.0,1.2246551402586576e-05,0.0035149384885764497,0.06441023318994793,0.005863265403911859,1310128,14,60.15729,24.87399,Hevosenkenkäpuisto
7.0,5.505034517611839e-06,0.0026362038664323375,0.0643374038896427,0.005796520288917499,1310146,7,60.15126,24.88587,Nahkahousuntie
7.0,5.505034517611839e-06,0.0026362038664323375,0.0643374038896427,0.005796520288917499,1310200,7,60.150452,24.886015,Nahkahousuntie
8.0,1.0842608154666192e-06,0.0017574692442882249,0.060506167588260315,0.0005944164781823953,1310133,8,60.15089,24.88264,Melkonkatu
9.0,2.93852187839793e-07,0.0017574692442882249,0.05710271463696121,1.2365658710910993e-05,1310134,9,60.15206,24.88245,Melkonkatu
10.0,1.0225419967020127e-06,0.0017574692442882249,0.060483656656922666,0.0017342836342052667,1310137,10,60.149985,24.881588,Melkonkuja
13.0,0.0022389205386446356,0.0035149384885764497,0.08608169440242057,0.03797025661612425,1310101,13,60.16126,24.89056,Lauttasaaren silta
13.0,0.0022389205386446356,0.0035149384885764497,0.08608169440242057,0.03797025661612425,1310102,13,60.16113,24.89116,Lauttasaaren silta
13.0,0.0022389205386446356,0.0035149384885764497,0.08608169440242057,0.03797025661612425,1310139,13,60.16131,24.89126,Lauttasaaren silta
17.0,0.0004229000865137742,0.0017574692442882249,0.07934183922470892,0.005469794560037792,1310140,17,60.158869,24.886624,Pajalahdentie
18.0,0.0004250547121424726,0.0017574692442882249,0.07941381716678297,0.01094095817514715,1310103,18,60.16068,24.88418,Koillisväylä
995.0,0.011397428508574448,0.004393673110720562,0.09384019130865012,0.04136725027423424,1201131,995,60.16338,24.9044,Salmisaari
995.0,0.011397428508574448,0.004393673110720562,0.09384019130865012,0.04136725027423424,1201132,995,60.16338,24.90505,Salmisaari
22.0,3.245677803173601e-05,0.0017574692442882249,0.06875717479306387,0.003771982258518372,1310205,22,60.159182,24.8747,Lahnalahden p.
24.0,2.2657072264684722e-06,0.0017574692442882249,0.060548018089917534,0.001190194650925219,1310111,24,60.1568,24.86791,Kuikkarinne
24.0,2.2657072264684722e-06,0.0017574692442882249,0.060548018089917534,0.001190194650925219,1310112,24,60.15688,24.86863,Kuikkarinne
15.0,3.134102423807464e-05,0.0017574692442882249,0.06873640976081179,0.007558508887044343,1310124,15,60.16161,24.8697,Lahnalahdentie
15.0,3.134102423807464e-05,0.0017574692442882249,0.06873640976081179,0.007558508887044343,1310225,15,60.1614,24.87051,Lahnalahdentie
20.0,0.00017182628993003352,0.004393673110720562,0.07375721044785793,0.020286312106429536,1310105,20,60.16055,24.87946,Lauttasaarentie
20.0,0.00017182628993003352,0.004393673110720562,0.07375721044785793,0.020286312106429536,1310106,20,60.160291,24.881229,Lauttasaarentie
19.0,0.007399591905850171,0.0008787346221441124,0.09343952705476641,0.0,1310601,19,60.159362,24.87857,Lauttasaari
19.0,0.007399591905850171,0.0008787346221441124,0.09343952705476641,0.0,1310602,19,60.159443,24.8785,Lauttasaari
1000.0,0.04196992776712219,0.005272407732864675,0.10306103966672704,0.04879221882075764,1201107,1000,60.162674,24.916438,Selkämerenkatu
1000.0,0.04196992776712219,0.005272407732864675,0.10306103966672704,0.04879221882075764,1201130,1000,60.16431,24.91405,Länsiväylä
1000.0,0.04196992776712219,0.005272407732864675,0.10306103966672704,0.04879221882075764,1201135,1000,60.16338,24.91418,Ruoholaht
1000.0,0.04196992776712219,0.005272407732864675,0.10306103966672704,0.04879221882075764,1201136,1000,60.16335,24.91484,Ruoholaht
1000.0,0.04196992776712219,0.005272407732864675,0.10306103966672704,0.04879221882075764,1201431,1000,60.16335,24.91484,Ruoholaht
1000.0,0.04196992776712219,0.005272407732864675,0.10306103966672704,0.04879221882075764,1201432,1000,60.16338,24.91418,Ruoholaht
1000.0,0.04196992776712219,0.005272407732864675,0.10306103966672704,0.04879221882075764,1201601,1000,60.162714,24.913852,Ruoholahti
1000.0,0.04196992776712219,0.005272407732864675,0.10306103966672704,0.04879221882075764,1201602,1000,60.162714,24.913852,Ruoholahti
1000.0,0.04196992776712219,0.005272407732864675,0.10306103966672704,0.04879221882075764,1201113,1000,60.163335,24.915131,Ruoholahti
21.0,3.245677803173601e-05,0.0017574692442882249,0.06875717479306387,0.003771982258518372,1310126,21,60.16071,24.87498,Lahnalahden puisto
25.0,6.02316774974041e-07,0.0017574692442882249,0.057122778837466116,2.5632980036159242e-05,1310113,25,60.15688,24.86445,Takaniementie
25.0,6.02316774974041e-07,0.0017574692442882249,0.057122778837466116,2.5632980036159242e-05,1310114,25,60.15665,24.86538,Takaniementie
26.0,1.1499534328070952e-06,0.0017574692442882249,0.060515820260568995,0.0005971582685810948,1310115,26,60.15934,24.86085,Viklakuja
26.0,1.1499534328070952e-06,0.0017574692442882249,0.060515820260568995,0.0005971582685810948,1310116,26,60.1583,24.86154,Viklakuja
28.0,5.919085821869683e-06,0.0026362038664323375,0.06435559576994854,0.005832082598478068,1310117,28,60.16207,24.85976,Vaskiniementie
28.0,5.919085821869683e-06,0.0026362038664323375,0.06435559576994854,0.005832082598478068,1310118,28,60.16182,24.85971,Vaskiniementie
28.0,5.919085821869683e-06,0.0026362038664323375,0.06435559576994854,0.005832082598478068,1310299,28,60.16235,24.86092,Katajaharju
27.0,1.0772362533410414e-06,0.0017574692442882249,0.06047401424168349,0.0017574692442882249,1310119,27,60.16521,24.85843,Koivusaarentie
27.0,1.0772362533410414e-06,0.0017574692442882249,0.06047401424168349,0.0017574692442882249,1310120,27,60.16492,24.85843,Koivusaarentie
29.0,1.8995894671510365e-07,0.0008787346221441124,0.057028313705838135,0.0,1310121,29,60.16819,24.85737,Katajaharju
32.0,8.99289114518126e-05,0.0026362038664323375,0.06191175670529351,0.0017706077566685674,1303100,32,60.180423,24.850458,Lehtisaarentie
32.0,8.99289114518126e-05,0.0026362038664323375,0.06191175670529351,0.0017706077566685674,1303102,32,60.1804,24.8493,Lehtisaarentie
32.0,8.99289114518126e-05,0.0026362038664323375,0.06191175670529351,0.0017706077566685674,1303103,32,60.177205,24.853608,Kalkkipaadenpuisto
32.0,8.99289114518126e-05,0.0026362038664323375,0.06191175670529351,0.0017706077566685674,1303104,32,60.177125,24.853385,Kalkkipaadenpuisto
32.0,8.99289114518126e-05,0.0026362038664323375,0.06191175670529351,0.0017706077566685674,1303105,32,60.17854,24.8528,Hiidenkiukaantie
32.0,8.99289114518126e-05,0.0026362038664323375,0.06191175670529351,0.0017706077566685674,1303107,32,60.179735,24.85213,Hiidenkiukaantie
32.0,8.99289114518126e-05,0.0026362038664323375,0.06191175670529351,0.0017706077566685674,1303108,32,60.179217,24.851467,Hiidenkiukaantie
32.0,8.99289114518126e-05,0.0026362038664323375,0.06191175670529351,0.0017706077566685674,1303112,32,60.1807,24.85085,Papinpöydänkuja
32.0,8.99289114518126e-05,0.0026362038664323375,0.06191175670529351,0.0017706077566685674,1303113,32,60.1807,24.85064,Papinpöydänkuja
32.0,8.99289114518126e-05,0.0026362038664323375,0.06191175670529351,0.0017706077566685674,1303114,32,60.18153,24.849633,Lehtisaarentie
31.0,0.00023999488856370977,0.0017574692442882249,0.0658869847151459,0.0017383024732863126,1302219,31,60.18488,24.85935,Kuusisaarenkuja
35.0,1.584787440699325e-05,0.0008787346221441124,0.05830515421662055,0.0,1303111,35,60.180475,24.846967,Lehdesniityntie
39.0,5.709827511286158e-14,0.0017574692442882249,0.0427867804639621,0.0017574692442882249,1492126,39,60.161187,25.08553,Jollaksentie 62
45.0,3.133132340019925e-13,0.0035149384885764497,0.04469405388421962,0.005266224903509219,1492122,45,60.164225,25.077224,Jollaksentie
45.0,3.133132340019925e-13,0.0035149384885764497,0.04469405388421962,0.005266224903509219,1492123,45,60.164216,25.077242,Jollaksentie
40.0,1.0082214471407374e-14,0.0008787346221441124,0.04103266748395471,0.0,1492103,40,60.160887,25.092593,Meri Perttilän Polku
44.0,1.3575330549373255e-12,0.0026362038664323375,0.046763920279432915,0.013973194343329422,1492143,44,60.16404,25.07081,Rannikkolaivurintie
44.0,1.3575330549373255e-12,0.0026362038664323375,0.046763920279432915,0.013973194343329422,1492144,44,60.164,25.06984,Rannikkolaivurintie
46.0,3.0478686176214143e-13,0.0026362038664323375,0.04469405388421962,0.0052631334888314915,1492121,46,60.165093,25.075415,Puuskaniementie
46.0,3.0478686176214143e-13,0.0026362038664323375,0.04469405388421962,0.0052631334888314915,1492145,46,60.16544,25.07604,Hämeenapajantie
46.0,3.0478686176214143e-13,0.0026362038664323375,0.04469405388421962,0.0052631334888314915,1492146,46,60.16546,25.0758,Hämeenapajantie
296.0,7.072482848724415e-12,0.0026362038664323375,0.04902214181097613,0.016557926155377593,1492141,296,60.16448,25.06189,Takilatie
296.0,7.072482848724415e-12,0.0026362038664323375,0.04902214181097613,0.016557926155377593,1492142,296,60.16455,25.06189,Takilatie
38.0,5.531780213359384e-14,0.0008787346221441124,0.04278356329185308,0.0,1492100,38,60.161556,25.083062,Jollas Instituutti
48.0,5.560173020666868e-14,0.0017574692442882249,0.04278999811994736,0.003511847073898722,1492151,48,60.16611,25.08049,Kellaripellonpolku
48.0,5.560173020666868e-14,0.0017574692442882249,0.04278999811994736,0.003511847073898722,1492152,48,60.1661,25.07956,Kellaripellonpolku
47.0,1.0133982306124378e-14,0.0017574692442882249,0.04103858636855391,0.0017574692442882249,1492147,47,60.16808,25.08038,Puuskakuja
47.0,1.0133982306124378e-14,0.0017574692442882249,0.04103858636855391,0.0017574692442882249,1492148,47,60.16778,25.0805,Puuskakuja
49.0,1.7896183076114637e-15,0.0008787346221441124,0.03942217757300724,0.0,1492149,49,60.17061,25.07991,Puuskarinne
50.0,0.0018237429042270296,0.0026362038664323375,0.11063581567178689,0.006962000472198733,1370103,50,60.23991,24.97993,Isonpellontie
50.0,0.0018237429042270296,0.0026362038664323375,0.11063581567178689,0.006962000472198733,1370104,50,60.2399,24.97954,Isonpellontie
231.0,0.00950643491077511,0.01054481546572935,0.12401918047079337,0.15874255496638154,1370107,231,60.242171,24.993044,Pukinmäen asema
231.0,0.00950643491077511,0.01054481546572935,0.12401918047079337,0.15874255496638154,1370108,231,60.24167,24.9931,Pukinmäen asema
231.0,0.00950643491077511,0.01054481546572935,0.12401918047079337,0.15874255496638154,1370109,231,60.24398,24.99386,Eskolantie
231.0,0.00950643491077511,0.01054481546572935,0.12401918047079337,0.15874255496638154,1370110,231,60.24324,24.99451,Eskolantie
231.0,0.00950643491077511,0.01054481546572935,0.12401918047079337,0.15874255496638154,1370124,231,60.24372,24.994087,Pukinmäen asema
231.0,0.00950643491077511,0.01054481546572935,0.12401918047079337,0.15874255496638154,1370501,231,60.242475,24.993742,Pukinmäki
231.0,0.00950643491077511,0.01054481546572935,0.12401918047079337,0.15874255496638154,1370551,231,60.242475,24.993742,Pukinmäki
231.0,0.00950643491077511,0.01054481546572935,0.12401918047079337,0.15874255496638154,1382119,231,60.24318,24.99639,Eskolantie
231.0,0.00950643491077511,0.01054481546572935,0.12401918047079337,0.15874255496638154,1382120,231,60.24328,24.99679,Eskolantie
1121.0,0.0003599962429596505,0.0017574692442882249,0.09977204979835175,0.0009186378617774719,1284178,1121,60.23699,24.97454,Oulunkylän rantap.
51.0,1.619296834589165e-12,0.0017574692442882249,0.046752393081631816,0.007011328489086533,1510101,51,60.1551,25.04894,Hevossalmen silta
51.0,1.619296834589165e-12,0.0017574692442882249,0.046752393081631816,0.007011328489086533,1510102,51,60.15495,25.04905,Hevossalmen silta
52.0,3.052010509357833e-13,0.0026362038664323375,0.04467650753768844,0.005266224903509219,1510103,52,60.15202,25.04565,Kadettikoulu
52.0,3.052010509357833e-13,0.0026362038664323375,0.04467650753768844,0.005266224903509219,1510104,52,60.15213,25.04598,Kadettikoulu
267.0,8.868183495682488e-12,0.0017574692442882249,0.0490263656729278,0.008756432074663846,1495154,267,60.15902,25.04939,Hevossalmi
267.0,8.868183495682488e-12,0.0017574692442882249,0.0490263656729278,0.008756432074663846,1495155,267,60.15924,25.04944,Hevossalmi
53.0,5.388500812772531e-14,0.0008787346221441124,0.042767484685632684,0.0,1510105,53,60.14938,25.04102,Kasarmit
54.0,5.561932635155039e-14,0.0017574692442882249,0.04277069943999699,0.0017574692442882249,1510106,54,60.15038,25.04175,Kasarmit
55.0,9.820964451875611e-15,0.0008787346221441124,0.04101787773933103,0.0,1510107,55,60.14598,25.03965,Santahamina
59.0,1.7553115948257878e-05,0.0017574692442882249,0.10281893747741236,0.01313535064804788,1454120,59,60.21841,25.04887,Myllärintie
59.0,1.7553115948257878e-05,0.0017574692442882249,0.10281893747741236,0.01313535064804788,1454121,59,60.21847,25.0477,Myllärintie
238.0,9.433167896246583e-05,0.004393673110720562,0.10935998462425524,0.023253851152519153,1362112,238,60.22423,25.0203,Latokartano
238.0,9.433167896246583e-05,0.004393673110720562,0.10935998462425524,0.023253851152519153,1362113,238,60.22367,25.02229,Latokartano
238.0,9.433167896246583e-05,0.004393673110720562,0.10935998462425524,0.023253851152519153,1362118,238,60.22445,25.02165,Latokartano
401.0,5.1754208041462e-06,0.0017574692442882249,0.09887054735013032,0.012478864819571202,1456122,401,60.214928,25.058645,Holkkitie
401.0,5.1754208041462e-06,0.0017574692442882249,0.09887054735013032,0.012478864819571202,1456123,401,60.214696,25.058765,Holkkitie
60.0,7.607822178555331e-05,0.0026362038664323375,0.10580141316474526,0.007858346917521224,1362131,60,60.23078,25.02139,Ylioppilaskylä
60.0,7.607822178555331e-05,0.0026362038664323375,0.10580141316474526,0.007858346917521224,1362132,60,60.2306,25.02125,Ylioppilaskylä
87.0,1.724199167256715e-05,0.0026362038664323375,0.09587194608256108,0.0015041442053141526,1362119,87,60.233,25.03099,Latokartanonkaari
87.0,1.724199167256715e-05,0.0026362038664323375,0.09587194608256108,0.0015041442053141526,1362133,87,60.23366,25.0309,Latokartanonkaari
88.0,1.797397962534414e-05,0.0035149384885764497,0.09622864874006426,0.003362687568186271,1362104,88,60.234826,25.033872,Agronominkatu kp
88.0,1.797397962534414e-05,0.0035149384885764497,0.09622864874006426,0.003362687568186271,1362143,88,60.23446,25.03309,Agronominkatu
88.0,1.797397962534414e-05,0.0035149384885764497,0.09622864874006426,0.003362687568186271,1362144,88,60.23451,25.03253,Agronominkatu
242.0,0.00039611111906316904,0.009666080843585237,0.11804979253112033,0.16659558576511985,1362105,242,60.22862,25.01202,Viikki
242.0,0.00039611111906316904,0.009666080843585237,0.11804979253112033,0.16659558576511985,1362107,242,60.22769,25.01156,Viikin tiedepuisto
242.0,0.00039611111906316904,0.009666080843585237,0.11804979253112033,0.16659558576511985,1362108,242,60.22768,25.01111,Viikin tiedepuisto
242.0,0.00039611111906316904,0.009666080843585237,0.11804979253112033,0.16659558576511985,1362125,242,60.2285,25.01423,Viikki
242.0,0.00039611111906316904,0.009666080843585237,0.11804979253112033,0.16659558576511985,1362139,242,60.22709,25.01242,Viikin tiedepuisto
242.0,0.00039611111906316904,0.009666080843585237,0.11804979253112033,0.16659558576511985,1362140,242,60.22724,25.01184,Viikin tiedepuisto
242.0,0.00039611111906316904,0.009666080843585237,0.11804979253112033,0.16659558576511985,1362141,242,60.22872,25.01358,Viikki
242.0,0.00039611111906316904,0.009666080843585237,0.11804979253112033,0.16659558576511985,1362142,242,60.22916,25.0124,Viikki
61.0,2.6463519252759834e-07,0.0017574692442882249,0.08242195987542551,0.004499516851248124,1473162,61,60.22755,25.12199,Uussillantie
61.0,2.6463519252759834e-07,0.0017574692442882249,0.08242195987542551,0.004499516851248124,1473163,61,60.22763,25.12171,Uussillantie
397.0,1.2653516038962598e-06,0.0017574692442882249,0.08683045933160384,0.00571113795009441,1473164,397,60.23008,25.12675,Mellunmäentie
397.0,1.2653516038962598e-06,0.0017574692442882249,0.08683045933160384,0.00571113795009441,1473165,397,60.230417,25.126925,Mellunmäentie
410.0,2.2385767031347433e-07,0.0026362038664323375,0.08054926387315968,0.013582381051469566,1451192,410,60.22345,25.11436,Linnanherrantie
410.0,2.2385767031347433e-07,0.0026362038664323375,0.08054926387315968,0.013582381051469566,1451193,410,60.22338,25.11381,Linnanherrantie
62.0,3.6125720013423715e-06,0.0017574692442882249,0.09162640901771336,1.545707338863874e-06,1473122,62,60.229243,25.115878,Uussillanrinne
64.0,4.267690202856126e-06,0.0017574692442882249,0.09225032425421531,0.00011163081082425153,1473123,64,60.22898,25.110548,Rekikuja
63.0,1.611522317648153e-05,0.0017574692442882249,0.10036158391392538,0.0016442927261251115,1473121,63,60.22934,25.118306,Ojapuisto
519.0,2.0461776936414353e-05,0.005272407732864675,0.10158900196393501,0.02639759435583576,1451103,519,60.22724,25.10316,Huntutie
519.0,2.0461776936414353e-05,0.005272407732864675,0.10158900196393501,0.02639759435583576,1451104,519,60.22734,25.10319,Huntutie
65.0,0.00010483143400148009,0.0035149384885764497,0.11409665129336274,0.13517383481485518,1414145,65,60.25679,25.08238,Louhikkotie
65.0,0.00010483143400148009,0.0035149384885764497,0.11409665129336274,0.13517383481485518,1414146,65,60.25619,25.08183,Louhikkotie
72.0,9.130778780512829e-05,0.0026362038664323375,0.10963391136801541,0.005590274720504742,1414143,72,60.2539,25.07806,Maratontie
72.0,9.130778780512829e-05,0.0026362038664323375,0.10963391136801541,0.005590274720504742,1414144,72,60.25401,25.07816,Maratontie
79.0,1.915824052254829e-05,0.0017574692442882249,0.10306103966672704,0.019888546661050024,1414147,79,60.25979,25.08457,Somerikkopolku
79.0,1.915824052254829e-05,0.0017574692442882249,0.10306103966672704,0.019888546661050024,1414148,79,60.25976,25.0842,Somerikkopolku
66.0,7.18669574055758e-08,0.0017574692442882249,0.0710628200324716,0.0004847198581799131,1413112,66,60.25305,25.06321,Jarrutie
69.0,7.983273900727348e-08,0.0017574692442882249,0.07321152856407617,0.0012179441425074398,1413119,69,60.256148,25.06408,Hevosmiehenkatu
67.0,7.18669574055758e-08,0.0017574692442882249,0.0710628200324716,0.0004847198581799131,1413113,67,60.25228,25.06229,Jarrutie
90.0,3.2754868581796864e-07,0.0035149384885764497,0.07272494887525563,0.0024304446865068942,1384161,90,60.24761,25.05617,Harkkoraudantie
90.0,3.2754868581796864e-07,0.0035149384885764497,0.07272494887525563,0.0024304446865068942,1385162,90,60.24766,25.05573,Harkkoraudantie
68.0,7.983273900727348e-08,0.0017574692442882249,0.07321152856407617,0.0012179441425074398,1413118,68,60.255113,25.063618,Hevosmiehenkatu
70.0,3.806279465864558e-07,0.0017574692442882249,0.07875432525951558,0.0028470487162724385,1413114,70,60.25933,25.06483,Tattarisuontie
76.0,2.07769954073244e-06,0.006151142355008787,0.08535213380334508,0.017388208746371,1413116,76,60.26241,25.06838,Suurmetsäntie
76.0,2.07769954073244e-06,0.006151142355008787,0.08535213380334508,0.017388208746371,1413117,76,60.26264,25.06834,Suurmetsäntie
76.0,2.07769954073244e-06,0.006151142355008787,0.08535213380334508,0.017388208746371,1413283,76,60.263221,25.067394,Vanha Porvoontie
71.0,3.806279465864558e-07,0.0017574692442882249,0.07875432525951558,0.002847048716272438,1413115,71,60.25822,25.06413,Tattarisuontie
73.0,1.6647012270400765e-05,0.0017574692442882249,0.09934526407682234,0.003910090843159824,1414141,73,60.25368,25.07349,Kaadekuja
73.0,1.6647012270400765e-05,0.0017574692442882249,0.09934526407682234,0.003910090843159824,1414142,73,60.2538,25.07331,Kaadekuja
74.0,3.051190140357713e-06,0.0017574692442882249,0.09090909090909091,0.0022739081013944994,1414139,74,60.25497,25.06971,Jakomäentie 10
74.0,3.051190140357713e-06,0.0017574692442882249,0.09090909090909091,0.0022739081013944994,1414140,74,60.25535,25.06984,Jakomäentie 10
81.0,6.464636890902435e-07,0.0017574692442882249,0.08411560351836796,0.000751506594295473,1414137,81,60.25883,25.07136,Jakomäentie 6
81.0,6.464636890902435e-07,0.0017574692442882249,0.08411560351836796,0.000751506594295473,1414138,81,60.25918,25.07194,Jakomäentie 6
75.0,6.534995345869917e-07,0.0008787346221441124,0.08602963410946478,0.0,1414149,75,60.26448,25.08393,Kalteentie
75.0,6.534995345869917e-07,0.0008787346221441124,0.08602963410946478,0.0,1414154,75,60.26442,25.08409,Kalteentie
80.0,3.701046240544391e-06,0.0026362038664323375,0.09411959308576627,0.018387435320893198,1414155,80,60.26099,25.08622,Kuussillantie
80.0,3.701046240544391e-06,0.0026362038664323375,0.09411959308576627,0.018387435320893198,1414156,80,60.2608,25.086,Kuussillantie
77.0,7.474790903907806e-07,0.004393673110720562,0.08170591614014934,0.004082629481117639,1412130,77,60.26363,25.06959,Suurmetsäntie
77.0,7.474790903907806e-07,0.004393673110720562,0.08170591614014934,0.004082629481117639,1413158,77,60.26291,25.07017,Suurmetsäntie
197.0,7.831877697994418e-06,0.0026362038664323375,0.08627094230915018,0.011115616790515984,1411105,197,60.26443,25.05769,Karhekuja
78.0,1.1519521860502745e-06,0.0026362038664323375,0.08732351135666053,0.01536101969993831,1414152,78,60.2619,25.08012,Huokotie
78.0,1.1519521860502745e-06,0.0026362038664323375,0.08732351135666053,0.01536101969993831,1414153,78,60.26209,25.07929,Huokotie
83.0,6.125308288269834e-07,0.0026362038664323375,0.07952480782669462,0.00029998744542150354,1414135,83,60.261811,25.075388,Jakomäen ostosk.
83.0,6.125308288269834e-07,0.0026362038664323375,0.07952480782669462,0.00029998744542150354,1414136,83,60.261682,25.075156,Jakomäen ostosk.
93.0,1.969133610562383e-07,0.0017574692442882249,0.07619175147295126,0.0007164376248401539,1412132,93,60.26757,25.0718,Kalliotie
84.0,0.000374891660699506,0.0035149384885764497,0.10014960837806917,0.006097632185385084,1370113,84,60.25129,24.98678,Pukinmäenkaari
84.0,0.000374891660699506,0.0035149384885764497,0.10014960837806917,0.006097632185385084,1370114,84,60.25075,24.98685,Pukinmäenkaari
161.0,6.902956113417402e-05,0.0017574692442882249,0.09174459851660755,0.002757141491021685,1391116,161,60.25464,24.9837,Tapaninvainiontie
161.0,6.902956113417402e-05,0.0017574692442882249,0.09174459851660755,0.002757141491021685,1391117,161,60.25443,24.98369,Tapaninvainiontie
224.0,0.001800571319482021,0.0026362038664323375,0.11068962163213696,0.011730769527162769,1370111,224,60.24716,24.99175,Kenttätie
224.0,0.001800571319482021,0.0026362038664323375,0.11068962163213696,0.011730769527162769,1370112,224,60.24732,24.99163,Kenttätie
224.0,0.001800571319482021,0.0026362038664323375,0.11068962163213696,0.011730769527162769,1370118,224,60.2479,24.99219,Kenttätie
229.0,0.0001281437715939923,0.0017574692442882249,0.09106914212548016,1.3531379662304162e-05,1370102,229,60.247101,24.986081,Säveltie
85.0,3.702255675530661e-06,0.0017574692442882249,0.08993203730045836,0.0002844710418521804,1362127,85,60.22806,25.02792,Viikin normaalikoulu
85.0,3.702255675530661e-06,0.0017574692442882249,0.08993203730045836,0.0002844710418521804,1362128,85,60.22822,25.02787,Viikin normaalikoulu
86.0,3.694686379107197e-06,0.0017574692442882249,0.08864999610500895,2.9213868704527217e-05,1362129,86,60.23112,25.03053,Erik Spåren tie
86.0,3.694686379107197e-06,0.0017574692442882249,0.08864999610500895,2.9213868704527217e-05,1362130,86,60.23052,25.02988,Erik Spåren tie
237.0,1.7292544273568983e-05,0.0017574692442882249,0.0986306118911423,0.0020096350027581497,1362115,237,60.22567,25.02402,Tilanhoitajankaari
237.0,1.7292544273568983e-05,0.0017574692442882249,0.0986306118911423,0.0020096350027581497,1362116,237,60.22564,25.02357,Tilanhoitajankaari
552.0,5.4039467155500405e-06,0.0017574692442882249,0.0916411660492833,0.0007592136643242365,1362145,552,60.23508,25.04165,Biologinkatu
552.0,5.4039467155500405e-06,0.0017574692442882249,0.0916411660492833,0.0007592136643242365,1362146,552,60.23531,25.04045,Biologinkatu
89.0,3.170735510232058e-06,0.0008787346221441124,0.08778832060479827,0.0,1362101,89,60.232398,25.035738,Limnologinraitti
148.0,8.565751019460066e-07,0.0017574692442882249,0.07650934516606159,0.001764910835381341,1385152,148,60.24613,25.04853,Kankiraudantie
92.0,3.684777633741126e-07,0.0026362038664323375,0.07659689035471495,0.0017076790422440793,1412118,92,60.26959,25.07277,Heikinlaakso
92.0,3.684777633741126e-07,0.0026362038664323375,0.07659689035471495,0.0017076790422440793,1412134,92,60.27016,25.07203,Heikinlaakso
92.0,3.684777633741126e-07,0.0026362038664323375,0.07659689035471495,0.0017076790422440793,1412298,92,60.270538,25.073418,Heikinlaakso
94.0,1.969133610562383e-07,0.0017574692442882249,0.07619175147295126,0.0007164376248401539,1412133,94,60.26665,25.07134,Kalliotie
194.0,1.6950429406506606e-06,0.004393673110720562,0.07771631496278085,0.003016602700342024,1411111,194,60.26945,25.06115,Puistolan raitti
194.0,1.6950429406506606e-06,0.004393673110720562,0.07771631496278085,0.003016602700342024,1411112,194,60.26956,25.06153,Puistolan raitti
194.0,1.6950429406506606e-06,0.004393673110720562,0.07771631496278085,0.003016602700342024,1411119,194,60.26989,25.06314,Nummitie
194.0,1.6950429406506606e-06,0.004393673110720562,0.07771631496278085,0.003016602700342024,1412120,194,60.26962,25.06454,Nummitie
95.0,0.00012858369698378125,0.0026362038664323375,0.09044666984581147,0.0003913684142387,1385160,95,60.25571,25.03316,Pilvitie
95.0,0.00012858369698378125,0.0026362038664323375,0.09044666984581147,0.0003913684142387,1385161,95,60.25598,25.03172,Pilvitie
98.0,0.000534225583591996,0.004393673110720562,0.09884478415703987,0.0042922239149013035,1382158,98,60.25644,25.02477,Saniaistie
98.0,0.000534225583591996,0.004393673110720562,0.09884478415703987,0.0042922239149013035,1382159,98,60.25643,25.02386,Saniaistie
102.0,9.744740216369773e-05,0.0026362038664323375,0.0921382883977006,0.006394526020665502,1385180,102,60.26301,25.0414,Tasankotie
96.0,8.333873232380844e-05,0.0017574692442882249,0.09123707207568348,0.0001261209600146126,1392101,96,60.258842,25.028559,Saniaiskuja
96.0,8.333873232380844e-05,0.0017574692442882249,0.09123707207568348,0.0001261209600146126,1392102,96,60.258862,25.028527,Saniaiskuja
97.0,0.00010890958363001798,0.0017574692442882249,0.08999604586793199,4.5366510395654715e-05,1382111,97,60.257578,25.026081,Malminkaari
97.0,0.00010890958363001798,0.0017574692442882249,0.08999604586793199,4.5366510395654715e-05,1392100,97,60.257354,25.026002,Malminkaari
104.0,0.00036366329048330686,0.0017574692442882249,0.10022899418707064,0.0018351322792294555,1392103,104,60.261308,25.028908,Fallkullantie
104.0,0.00036366329048330686,0.0017574692442882249,0.10022899418707064,0.0018351322792294555,1392104,104,60.261369,25.029054,Fallkullantie
131.0,0.0001998761153652637,0.0017574692442882249,0.09003876888994382,0.0,1382112,131,60.254287,25.019157,Hela-aukio
136.0,0.0019928588405608016,0.0035149384885764497,0.10889952153110048,0.009463943527461114,1382165,136,60.25315,25.01507,Soidintie
136.0,0.0019928588405608016,0.0035149384885764497,0.10889952153110048,0.009463943527461114,1382166,136,60.2526,25.01394,Soidintie
99.0,4.0647978626163944e-05,0.004393673110720562,0.08780186713988118,0.013139113286878671,1385104,99,60.26529,25.04177,Suurmetsäntie
99.0,4.0647978626163944e-05,0.004393673110720562,0.08780186713988118,0.013139113286878671,1411102,99,60.26595,25.04092,Suurmetsäntie
99.0,4.0647978626163944e-05,0.004393673110720562,0.08780186713988118,0.013139113286878671,1411103,99,60.26548,25.04326,Suurmetsäntie
101.0,9.744740216369773e-05,0.0026362038664323375,0.0921382883977006,0.006394526020665502,1385102,101,60.262717,25.039394,Sointutie
101.0,9.744740216369773e-05,0.0026362038664323375,0.0921382883977006,0.006394526020665502,1385163,101,60.26207,25.04015,Tasankotie
206.0,2.0280310023048377e-05,0.0017574692442882249,0.08645445567119957,0.0008411192516414947,1411100,206,60.267067,25.032918,Kuutie
206.0,2.0280310023048377e-05,0.0017574692442882249,0.08645445567119957,0.0008411192516414947,1411104,206,60.267049,25.032918,Kuutie
100.0,0.00038333740383707015,0.0026362038664323375,0.10071687759978759,0.015415565125713772,1385100,100,60.26374,25.037096,Helluntairaitti
100.0,0.00038333740383707015,0.0026362038664323375,0.10071687759978759,0.015415565125713772,1385101,100,60.26374,25.037096,Helluntairaitti
106.0,0.001978903843581212,0.0035149384885764497,0.11131761713782647,0.020584092566570365,1392105,106,60.262863,25.030925,Fallkulla
106.0,0.001978903843581212,0.0035149384885764497,0.11131761713782647,0.020584092566570365,1392106,106,60.262934,25.030945,Fallkulla
106.0,0.001978903843581212,0.0035149384885764497,0.11131761713782647,0.020584092566570365,1392107,106,60.263859,25.032058,Sammalpolku
106.0,0.001978903843581212,0.0035149384885764497,0.11131761713782647,0.020584092566570365,1392108,106,60.263815,25.031948,Sammalpolku
106.0,0.001978903843581212,0.0035149384885764497,0.11131761713782647,0.020584092566570365,1392501,106,60.26401,25.030021,Tapanila
106.0,0.001978903843581212,0.0035149384885764497,0.11131761713782647,0.020584092566570365,1392551,106,60.26401,25.030021,Tapanila
103.0,4.5969940838087704e-07,0.0017574692442882249,0.07384815055158987,0.002649276027653557,1392138,103,60.26512,25.02579,Tapanilan tori
103.0,4.5969940838087704e-07,0.0017574692442882249,0.07384815055158987,0.002649276027653557,1392155,103,60.265031,25.025645,Tapanilan tori
105.0,9.190672386261015e-08,0.0017574692442882249,0.06884036053475288,0.0009300372782131618,1392150,105,60.26313,25.027,Jukolantie
105.0,9.190672386261015e-08,0.0017574692442882249,0.06884036053475288,0.0009300372782131618,1392151,105,60.26301,25.02684,Jukolantie
210.0,2.5145533735884886e-06,0.0026362038664323375,0.079641682413045,0.009787537478732646,1392136,210,60.26918,25.02404,Päivöläntie
210.0,2.5145533735884886e-06,0.0026362038664323375,0.079641682413045,0.009787537478732646,1402181,210,60.26966,25.0235,Päivöläntie
210.0,2.5145533735884886e-06,0.0026362038664323375,0.079641682413045,0.009787537478732646,1402182,210,60.26934,25.02538,Päivöläntie
122.0,6.137801700798549e-08,0.0017574692442882249,0.0651663517150547,0.00019036152661097328,1392148,122,60.26028,25.02155,Viertolantie
122.0,6.137801700798549e-08,0.0017574692442882249,0.0651663517150547,0.00019036152661097328,1392149,122,60.26063,25.02024,Viertolantie
138.0,0.008273878767301552,0.007029876977152899,0.12167219074093874,0.09555101762112068,1382163,138,60.25152,25.01215,Ala-Malmin tori
138.0,0.008273878767301552,0.007029876977152899,0.12167219074093874,0.09555101762112068,1382164,138,60.250635,25.012082,Ala-Malmin tori
138.0,0.008273878767301552,0.007029876977152899,0.12167219074093874,0.09555101762112068,1382174,138,60.25022,25.01237,Ala-Malmin tori
138.0,0.008273878767301552,0.007029876977152899,0.12167219074093874,0.09555101762112068,1382176,138,60.25049,25.01236,Ala-Malmin tori
138.0,0.008273878767301552,0.007029876977152899,0.12167219074093874,0.09555101762112068,1382185,138,60.24996,25.01192,Ala-Malmin tori
138.0,0.008273878767301552,0.007029876977152899,0.12167219074093874,0.09555101762112068,1382188,138,60.25018,25.01265,Ala-Malmin tori
138.0,0.008273878767301552,0.007029876977152899,0.12167219074093874,0.09555101762112068,1382501,138,60.251355,25.011114,Malmi
138.0,0.008273878767301552,0.007029876977152899,0.12167219074093874,0.09555101762112068,1382551,138,60.251355,25.011114,Malmi
187.0,0.0022013223170618207,0.006151142355008787,0.11442936148818501,0.06793857777051275,1402125,187,60.27528,25.0353,Puistolan asema
187.0,0.0022013223170618207,0.006151142355008787,0.11442936148818501,0.06793857777051275,1402126,187,60.27529,25.03544,Puistolan asema
187.0,0.0022013223170618207,0.006151142355008787,0.11442936148818501,0.06793857777051275,1402154,187,60.27495,25.03572,Puistolan asema
187.0,0.0022013223170618207,0.006151142355008787,0.11442936148818501,0.06793857777051275,1402155,187,60.27502,25.03549,Puistolan asema
187.0,0.0022013223170618207,0.006151142355008787,0.11442936148818501,0.06793857777051275,1411117,187,60.274319,25.037521,Simakuja
187.0,0.0022013223170618207,0.006151142355008787,0.11442936148818501,0.06793857777051275,1411118,187,60.274311,25.037394,Simakuja
187.0,0.0022013223170618207,0.006151142355008787,0.11442936148818501,0.06793857777051275,1411501,187,60.274825,25.035891,Puistola
187.0,0.0022013223170618207,0.006151142355008787,0.11442936148818501,0.06793857777051275,1411551,187,60.274825,25.035891,Puistola
107.0,0.00018677389647773804,0.0017574692442882249,0.10653435686201086,0.0022004987961886163,1364103,107,60.228033,24.989917,Bysantinkuja
107.0,0.00018677389647773804,0.0017574692442882249,0.10653435686201086,0.0022004987961886163,1364104,107,60.227763,24.989564,Bysantinkuja
235.0,7.791072372986136e-05,0.004393673110720562,0.10081502480510277,0.001735560996665598,1361112,235,60.22372,24.98927,Viikinm. ampumarata
235.0,7.791072372986136e-05,0.004393673110720562,0.10081502480510277,0.001735560996665598,1364102,235,60.224166,24.988431,Hernepellontie
235.0,7.791072372986136e-05,0.004393673110720562,0.10081502480510277,0.001735560996665598,1364101,235,60.224023,24.988526,Hernepellontie
248.0,0.0009812641865261078,0.005272407732864675,0.11903765690376569,0.12639138045052858,1383101,248,60.23021,24.99814,Viikinmäki
248.0,0.0009812641865261078,0.005272407732864675,0.11903765690376569,0.12639138045052858,1383102,248,60.22992,24.99835,Viikinmäki
248.0,0.0009812641865261078,0.005272407732864675,0.11903765690376569,0.12639138045052858,1383119,248,60.22944,25.0006,Aulangontie
248.0,0.0009812641865261078,0.005272407732864675,0.11903765690376569,0.12639138045052858,1383159,248,60.22954,25.00021,Aulangontie
248.0,0.0009812641865261078,0.005272407732864675,0.11903765690376569,0.12639138045052858,1364105,248,60.230034,24.99733,Kiviteltankatu
248.0,0.0009812641865261078,0.005272407732864675,0.11903765690376569,0.12639138045052858,1364106,248,60.229955,24.996894,Kiviteltankatu
108.0,1.760034038003492e-05,0.0035149384885764497,0.07934737135685399,0.008647419314379417,1401103,108,60.27145,24.99206,Kytöpolku
108.0,1.760034038003492e-05,0.0035149384885764497,0.07934737135685399,0.008647419314379417,1401104,108,60.27209,24.9922,Kytöpolku
119.0,1.4124744519974328e-05,0.0017574692442882249,0.07852066514869248,2.859558576898167e-05,1401101,119,60.2693,24.98338,Peltokyläntie
119.0,1.4124744519974328e-05,0.0017574692442882249,0.07852066514869248,2.859558576898167e-05,1401102,119,60.26954,24.98362,Peltokyläntie
169.0,4.060115561420736e-06,0.0035149384885764497,0.07452521283562541,0.0035866471645511697,1401105,169,60.27532,24.99112,Siltamäen ostosk.
169.0,4.060115561420736e-06,0.0035149384885764497,0.07452521283562541,0.0035866471645511697,1401107,169,60.27497,24.99117,Siltamäen ostosk.
169.0,4.060115561420736e-06,0.0035149384885764497,0.07452521283562541,0.0035866471645511697,1401117,169,60.274739,24.9919,Riimusauvantie
169.0,4.060115561420736e-06,0.0035149384885764497,0.07452521283562541,0.0035866471645511697,1401145,169,60.274517,24.990394,Siltamäen uimahalli
171.0,3.95684595182233e-06,0.0026362038664323375,0.0759274085935415,0.0034961140598121485,1401109,171,60.27481,24.99796,Suutarilantie
171.0,3.95684595182233e-06,0.0026362038664323375,0.0759274085935415,0.0034961140598121485,1401110,171,60.27481,24.99852,Suutarilantie
171.0,3.95684595182233e-06,0.0026362038664323375,0.0759274085935415,0.0034961140598121485,1401156,171,60.275363,24.99604,Suutarilan palveluk
215.0,7.764580133675108e-05,0.0035149384885764497,0.08454680534918277,0.016208723231565914,1403126,215,60.2669,24.99344,Soinintie
215.0,7.764580133675108e-05,0.0035149384885764497,0.08454680534918277,0.016208723231565914,1403127,215,60.26665,24.99296,Soinintie
109.0,0.001468558338442422,0.0035149384885764497,0.11159050794273387,0.0002934525382833065,1382101,109,60.24123,25.03104,Tattariharjuntie
109.0,0.001468558338442422,0.0035149384885764497,0.11159050794273387,0.0002934525382833065,1382102,109,60.241,25.03099,Tattariharjuntie
114.0,0.0037841206329703655,0.009666080843585237,0.12042328042328042,0.13903246414832918,1382128,114,60.24175,25.019695,Latokartanontie
114.0,0.0037841206329703655,0.009666080843585237,0.12042328042328042,0.13903246414832918,1382143,114,60.24253,25.02026,Latokartanontie
114.0,0.0037841206329703655,0.009666080843585237,0.12042328042328042,0.13903246414832918,1382144,114,60.24263,25.01998,Latokartanontie
114.0,0.0037841206329703655,0.009666080843585237,0.12042328042328042,0.13903246414832918,1382150,114,60.242531,25.01917,Vanha Helsingintie
114.0,0.0037841206329703655,0.009666080843585237,0.12042328042328042,0.13903246414832918,1382151,114,60.24244,25.018422,Vanha Helsingintie
553.0,0.0009708128726429815,0.0026362038664323375,0.11593317033414834,0.057082950012072566,1474122,553,60.236676,25.0418,Kivikonlaita
110.0,0.0006905183141689029,0.0017574692442882249,0.1077957753149569,0.014012182658276775,1382145,110,60.24243,25.02813,Raetie
110.0,0.0006905183141689029,0.0017574692442882249,0.1077957753149569,0.014012182658276775,1382146,110,60.2426,25.02771,Raetie
144.0,0.00013133680809879303,0.0026362038664323375,0.09774952757258203,0.012452584250530233,1382147,144,60.24359,25.03355,Usvatie
144.0,0.00013133680809879303,0.0026362038664323375,0.09774952757258203,0.012452584250530233,1382148,144,60.24396,25.0344,Usvatie
144.0,0.00013133680809879303,0.0026362038664323375,0.09774952757258203,0.012452584250530233,1382173,144,60.24484,25.03503,Tullivuorenkuja
144.0,0.00013133680809879303,0.0026362038664323375,0.09774952757258203,0.012452584250530233,1385172,144,60.24514,25.03494,Tullivuorenkuja
111.0,0.00015502874550778518,0.0017574692442882249,0.09778312424815261,0.003410924919245893,1383106,111,60.237071,25.01858,Liuskekuja
111.0,0.00015502874550778518,0.0017574692442882249,0.09778312424815261,0.003410924919245893,1383113,111,60.237275,25.018725,Liuskekuja
115.0,0.0008479394787648919,0.0026362038664323375,0.10820576209945802,0.005097162817001474,1383115,115,60.239347,25.019102,Hiekkakiventie
115.0,0.0008479394787648919,0.0026362038664323375,0.10820576209945802,0.005097162817001474,1383116,115,60.239169,25.018953,Hiekkakiventie
254.0,3.1082126190328855e-05,0.0026362038664323375,0.09098904613416486,0.002058049477912719,1383104,254,60.23482,25.014985,Kivijalka
254.0,3.1082126190328855e-05,0.0026362038664323375,0.09098904613416486,0.002058049477912719,1383105,254,60.234625,25.014551,Kivijalka
112.0,0.00029479461808809934,0.0026362038664323375,0.10221862930027845,0.0024125600655566055,1383111,112,60.23676,25.02225,Malmin hautausmaa
112.0,0.00029479461808809934,0.0026362038664323375,0.10221862930027845,0.0024125600655566055,1383112,112,60.23595,25.02177,Malmin hautausmaa
117.0,0.0008688942961403391,0.0026362038664323375,0.10892036753445636,0.0017562569531407357,1382113,117,60.240179,25.021039,Seppämestarintie
256.0,8.325800801670202e-05,0.0026362038664323375,0.09971959341044515,0.007545300594528606,1383109,256,60.23295,25.01284,Meripihkatie
256.0,8.325800801670202e-05,0.0026362038664323375,0.09971959341044515,0.007545300594528606,1383110,256,60.23296,25.01233,Meripihkatie
256.0,8.325800801670202e-05,0.0026362038664323375,0.09971959341044515,0.007545300594528606,1383124,256,60.23317,25.01162,Meripihkatie
256.0,8.325800801670202e-05,0.0026362038664323375,0.09971959341044515,0.007545300594528606,1383125,256,60.23297,25.01148,Meripihkatie
113.0,0.0009890523583606695,0.0017574692442882249,0.10799013095464034,0.0,1382115,113,60.24349,25.01545,Riihenkulma
113.0,0.0009890523583606695,0.0017574692442882249,0.10799013095464034,0.0,1382116,113,60.24336,25.0153,Riihenkulma
139.0,0.0018241177210979623,0.0035149384885764497,0.10942307692307693,0.016849684302238804,1382123,139,60.24755,25.01138,Ala-Malmi
139.0,0.0018241177210979623,0.0035149384885764497,0.10942307692307693,0.016849684302238804,1382124,139,60.24725,25.01131,Ala-Malmi
116.0,0.0007193478431233176,0.0017574692442882249,0.10887868350554918,0.0016091828998478124,1383114,116,60.23859,25.02095,Seppämestarintie
118.0,0.0026027034885392473,0.0026362038664323375,0.11475244529595643,0.0004938019711890456,1382104,118,60.24164,25.02326,Latokartanontie
127.0,6.248309635924653e-05,0.0017574692442882249,0.08426508700481303,0.0015431777765363053,1401114,127,60.26722,24.98012,Niemitie
127.0,6.248309635924653e-05,0.0017574692442882249,0.08426508700481303,0.0015431777765363053,1403115,127,60.26636,24.98058,Niemitie
120.0,2.023173645637481e-05,0.0026362038664323375,0.08419650784255697,0.007858339414787105,1392157,120,60.25743,25.0132,Huhtakuja
120.0,2.023173645637481e-05,0.0026362038664323375,0.08419650784255697,0.007858339414787105,1392158,120,60.25751,25.01293,Huhtakuja
125.0,3.813458199457342e-06,0.0017574692442882249,0.07780132631435017,0.002203902699331731,1392188,125,60.25978,25.01236,Huhtapuisto
141.0,0.00010709052538044647,0.0017574692442882249,0.09176679300056446,0.0095815970033084,1381155,141,60.2556,25.01035,Malmin raitti 15
141.0,0.00010709052538044647,0.0017574692442882249,0.09176679300056446,0.0095815970033084,1381156,141,60.25554,25.01028,Malmin raitti 15
121.0,2.560628161675231e-07,0.0017574692442882249,0.06766962002735327,0.0010896688839432138,1392146,121,60.2608,25.01763,Halmetie
121.0,2.560628161675231e-07,0.0017574692442882249,0.06766962002735327,0.0010896688839432138,1392147,121,60.2612,25.01662,Halmetie
123.0,1.3903647065133157e-06,0.0026362038664323375,0.07235503560528993,0.0027256121017777885,1392143,123,60.26215,25.01222,Kotinummentie
123.0,1.3903647065133157e-06,0.0026362038664323375,0.07235503560528993,0.0027256121017777885,1392144,123,60.26226,25.01209,Kotinummentie
124.0,3.813458199457342e-06,0.0017574692442882249,0.07780132631435017,0.002203902699331731,1391187,124,60.26077,25.01166,Huhtapuisto
126.0,0.0003401556419103558,0.007029876977152899,0.09186309331611237,0.02383628966919564,1391112,126,60.26381,24.98384,Santerlantie
126.0,0.0003401556419103558,0.007029876977152899,0.09186309331611237,0.02383628966919564,1391113,126,60.26397,24.98368,Santerlantie
126.0,0.0003401556419103558,0.007029876977152899,0.09186309331611237,0.02383628966919564,1403134,126,60.26459,24.98221,Kirkonkyläntie
126.0,0.0003401556419103558,0.007029876977152899,0.09186309331611237,0.02383628966919564,1403135,126,60.26514,24.98307,Peltohiirenkuja
154.0,0.00011900047097882002,0.0026362038664323375,0.08739728131479917,0.0030634472789853526,1391110,154,60.26129,24.98636,Valakkatie
154.0,0.00011900047097882002,0.0026362038664323375,0.08739728131479917,0.0030634472789853526,1391111,154,60.26071,24.9871,Valakkatie
154.0,0.00011900047097882002,0.0026362038664323375,0.08739728131479917,0.0030634472789853526,1391122,154,60.26134,24.98419,Immolantie
154.0,0.00011900047097882002,0.0026362038664323375,0.08739728131479917,0.0030634472789853526,1391123,154,60.2612,24.98378,Immolantie
156.0,0.00030981857469404204,0.005272407732864675,0.09422089749958602,0.012311618894774681,1391108,156,60.25877,24.9934,Vanha Tapanilantie
156.0,0.00030981857469404204,0.005272407732864675,0.09422089749958602,0.012311618894774681,1391109,156,60.2585,24.99375,Vanha Tapanilantie
647.0,0.00016671153532560475,0.0017574692442882249,0.08938810776843924,0.0,1353123,647,60.25601,24.95801,Tuomarinkyläntie
653.0,0.0006051519042318944,0.005272407732864675,0.0970741277829907,0.02044134149978886,1353121,653,60.254992,24.952652,Yhdyskunnantie
128.0,3.995708468712448e-05,0.0017574692442882249,0.08638226810384089,0.000275405122588765,1382175,128,60.24988,25.02981,Pyrytie
128.0,3.995708468712448e-05,0.0017574692442882249,0.08638226810384089,0.000275405122588765,1385174,128,60.24993,25.02996,Pyrytie
129.0,0.0001963534163859327,0.0026362038664323375,0.08997469955724226,0.001246816370155638,1382186,129,60.25097,25.02561,Teerisuonkuja
129.0,0.0001963534163859327,0.0026362038664323375,0.08997469955724226,0.001246816370155638,1382187,129,60.25091,25.02557,Teerisuonkuja
143.0,3.0211012135053663e-05,0.0017574692442882249,0.08932496075353218,0.0008603549961427498,1382179,143,60.24752,25.03338,Nallenmäentie
143.0,3.0211012135053663e-05,0.0017574692442882249,0.08932496075353218,0.0008603549961427498,1385178,143,60.24759,25.03346,Nallenmäentie
130.0,0.0005991607561277449,0.004393673110720562,0.09865626354573039,0.0023954137697251446,1382141,130,60.25316,25.02167,Teerisuontie
130.0,0.0005991607561277449,0.004393673110720562,0.09865626354573039,0.0023954137697251446,1382142,130,60.25247,25.02227,Teerisuontie
134.0,0.000474294362986793,0.0026362038664323375,0.09840885506745072,0.001351421955229102,1382139,134,60.25005,25.02018,Lallintie
134.0,0.000474294362986793,0.0026362038664323375,0.09840885506745072,0.001351421955229102,1382140,134,60.25008,25.01998,Lallintie
132.0,0.0007461909162309855,0.004393673110720562,0.10184356541972436,0.0303131324352946,1381123,132,60.253412,25.002922,Malmin sairaala
132.0,0.0007461909162309855,0.004393673110720562,0.10184356541972436,0.0303131324352946,1381126,132,60.253761,25.00345,Malmin sairaala
133.0,0.00021678449412171954,0.0026362038664323375,0.092573009029529,6.4919708232282716e-06,1381124,133,60.253848,25.000627,Malmin sairaala
137.0,0.0032216113782593033,0.006151142355008787,0.11201889949798209,0.04471864152683034,1381101,137,60.25004,25.00946,Malmin asema
137.0,0.0032216113782593033,0.006151142355008787,0.11201889949798209,0.04471864152683034,1381102,137,60.2502,25.00917,Malmin asema
137.0,0.0032216113782593033,0.006151142355008787,0.11201889949798209,0.04471864152683034,1381103,137,60.25015,25.00951,Malmin asema
137.0,0.0032216113782593033,0.006151142355008787,0.11201889949798209,0.04471864152683034,1381104,137,60.24999,25.00914,Malmin asema
137.0,0.0032216113782593033,0.006151142355008787,0.11201889949798209,0.04471864152683034,1381105,137,60.250516,25.009336,Malmin asema
137.0,0.0032216113782593033,0.006151142355008787,0.11201889949798209,0.04471864152683034,1381106,137,60.25027,25.0093,Malmin asema
137.0,0.0032216113782593033,0.006151142355008787,0.11201889949798209,0.04471864152683034,1381120,137,60.25147,25.00839,Malmin tori
137.0,0.0032216113782593033,0.006151142355008787,0.11201889949798209,0.04471864152683034,1381121,137,60.25192,25.00724,Malmin tori
137.0,0.0032216113782593033,0.006151142355008787,0.11201889949798209,0.04471864152683034,1382133,137,60.250684,25.009103,Malmin asema
137.0,0.0032216113782593033,0.006151142355008787,0.11201889949798209,0.04471864152683034,1382135,137,60.249973,25.008759,Malmin asema
137.0,0.0032216113782593033,0.006151142355008787,0.11201889949798209,0.04471864152683034,1382177,137,60.24926,25.0077,Malmin asematie
137.0,0.0032216113782593033,0.006151142355008787,0.11201889949798209,0.04471864152683034,1382178,137,60.24924,25.00818,Malmin asematie
157.0,0.0002322161845441591,0.0035149384885764497,0.09333989501312336,0.004500140809655158,1391106,157,60.25733,24.99789,Syystie
157.0,0.0002322161845441591,0.0035149384885764497,0.09333989501312336,0.004500140809655158,1391139,157,60.25731,24.99923,Syystie
158.0,0.0002507758307877846,0.005272407732864675,0.09346254927726676,0.010679383151261851,1381107,158,60.25636,24.99936,Syystie
158.0,0.0002507758307877846,0.005272407732864675,0.09346254927726676,0.010679383151261851,1391105,158,60.25639,24.9975,Syystie
135.0,0.0018940508523913522,0.0026362038664323375,0.10862924780450553,0.0030352124830315234,1382167,135,60.251471,25.017874,Pekanraitti
135.0,0.0018940508523913522,0.0026362038664323375,0.10862924780450553,0.0030352124830315234,1382168,135,60.25127,25.01796,Pekanraitti
140.0,0.0023488053026069055,0.0026362038664323375,0.1113285071414596,0.000347557393321053,1382169,140,60.24882,25.01278,Paavolantie
140.0,0.0023488053026069055,0.0026362038664323375,0.1113285071414596,0.000347557393321053,1382170,140,60.24865,25.01101,Paavolantie
142.0,0.0005870130800067794,0.0017574692442882249,0.10088652482269504,0.011311552656964803,1381153,142,60.25366,25.00895,Viljakuja
142.0,0.0005870130800067794,0.0017574692442882249,0.10088652482269504,0.011311552656964803,1381154,142,60.25391,25.00898,Viljakuja
221.0,0.0022444750734746757,0.0017574692442882249,0.11131761713782647,0.0006595600558002365,1370121,221,60.24617,25.00154,Ruotutorpankuja
1124.0,0.02377833671658209,0.005272407732864675,0.13057946069994264,0.2953209571595043,1285103,1124,60.228546,24.967892,Oulunkylän asema
1124.0,0.02377833671658209,0.005272407732864675,0.13057946069994264,0.2953209571595043,1285104,1124,60.228763,24.968268,Oulunkylän asema
1124.0,0.02377833671658209,0.005272407732864675,0.13057946069994264,0.2953209571595043,1285501,1124,60.228824,24.967973,Oulunkylä
1124.0,0.02377833671658209,0.005272407732864675,0.13057946069994264,0.2953209571595043,1285551,1124,60.228824,24.967973,Oulunkylä
145.0,2.3962700002294206e-05,0.0017574692442882249,0.08940215256500904,0.008374730916764427,1384147,145,60.24429,25.04056,Valuraudantie
145.0,2.3962700002294206e-05,0.0017574692442882249,0.08940215256500904,0.008374730916764427,1385148,145,60.2444,25.04001,Valuraudantie
146.0,4.528672250724024e-06,0.0026362038664323375,0.082427929885557,0.00671137807488704,1384149,146,60.24534,25.04537,Malmin lentokenttä
146.0,4.528672250724024e-06,0.0026362038664323375,0.082427929885557,0.00671137807488704,1385150,146,60.24536,25.04458,Malmin lentokenttä
147.0,8.565751019460066e-07,0.0017574692442882249,0.07650934516606159,0.001764910835381341,1384151,147,60.24642,25.05051,Kankiraudantie
149.0,1.653909826563212e-05,0.0017574692442882249,0.08499514526850399,0.001264897224804672,1391118,149,60.25723,24.98163,Uimarannantie
149.0,1.653909826563212e-05,0.0017574692442882249,0.08499514526850399,0.001264897224804672,1391119,149,60.257,24.98152,Uimarannantie
152.0,2.4748565586227078e-05,0.0026362038664323375,0.08059490084985836,0.00238188175700638,1391120,152,60.25975,24.98156,Pohjanpellontie
152.0,2.4748565586227078e-05,0.0026362038664323375,0.08059490084985836,0.00238188175700638,1391121,152,60.25907,24.98039,Pohjanpellontie
152.0,2.4748565586227078e-05,0.0026362038664323375,0.08059490084985836,0.00238188175700638,1391125,152,60.259985,24.981934,Karhusuontie
150.0,2.338057492653515e-06,0.0017574692442882249,0.07369034514019297,2.1098905175491877e-05,1391134,150,60.259102,24.987201,Tapaninvainiontie
150.0,2.338057492653515e-06,0.0017574692442882249,0.07369034514019297,2.1098905175491877e-05,1391135,150,60.259128,24.987292,Tapaninvainiontie
151.0,4.777645842029383e-06,0.0017574692442882249,0.0746180578322733,0.00025610959840339744,1391124,151,60.258496,24.984184,Uimarannantie
151.0,4.777645842029383e-06,0.0017574692442882249,0.0746180578322733,0.00025610959840339744,1391136,151,60.258468,24.984023,Uimarannantie
163.0,8.477459239991035e-06,0.0017574692442882249,0.07885801399764396,0.0015216856973908855,1391103,163,60.255687,24.988976,Haapatori
163.0,8.477459239991035e-06,0.0017574692442882249,0.07885801399764396,0.0015216856973908855,1391107,163,60.25554,24.988177,Haapatori
153.0,6.833833863959707e-05,0.0017574692442882249,0.08648073561820807,0.002068781276779294,1391190,153,60.26154,24.99091,Laukkipäänpolku
153.0,6.833833863959707e-05,0.0017574692442882249,0.08648073561820807,0.002068781276779294,1391191,153,60.26109,24.99015,Laukkipäänpolku
155.0,1.6591772090276944e-05,0.0026362038664323375,0.07919276270006959,0.003947934600136179,1391142,155,60.26103,25.00335,Kotikaivontie
155.0,1.6591772090276944e-05,0.0026362038664323375,0.07919276270006959,0.003947934600136179,1391143,155,60.26131,25.00392,Kotikaivontie
160.0,4.715659487366812e-05,0.0017574692442882249,0.08566051938276252,0.002863231467963026,1391141,160,60.25832,25.00074,Laulurastaantie
212.0,3.0285319528786003e-06,0.0017574692442882249,0.07367603262980707,0.0022771022521913317,1391192,212,60.26397,25.00455,Leivosentie
212.0,3.0285319528786003e-06,0.0017574692442882249,0.07367603262980707,0.0022771022521913317,1391193,212,60.2638,25.00456,Leivosentie
159.0,4.388294140033471e-05,0.0017574692442882249,0.08555747688143749,0.002750460407688824,1391140,159,60.25929,25.00169,Laulurastaantie
162.0,4.5725332775509175e-05,0.0017574692442882249,0.08551889982715864,0.0032599881706772012,1391100,162,60.256121,24.992204,Haapatie
162.0,4.5725332775509175e-05,0.0017574692442882249,0.08551889982715864,0.0032599881706772012,1391102,162,60.256056,24.992401,Haapatie
165.0,5.622726829518451e-05,0.0017574692442882249,0.08579613992762364,0.00022471791058535368,1391101,165,60.25397,24.9941,Suvitie
165.0,5.622726829518451e-05,0.0017574692442882249,0.08579613992762364,0.00022471791058535368,1391104,165,60.25324,24.99371,Suvitie
164.0,6.802739668902552e-05,0.0017574692442882249,0.09197446051887173,0.0008755818055334392,1370128,164,60.25133,24.99443,Leppätie
164.0,6.802739668902552e-05,0.0017574692442882249,0.09197446051887173,0.0008755818055334392,1381113,164,60.25161,24.99378,Leppätie
223.0,0.00032951713827291084,0.0017574692442882249,0.10026431718061674,0.0024558099416319493,1370119,223,60.24868,24.99755,Ukkostie
223.0,0.00032951713827291084,0.0017574692442882249,0.10026431718061674,0.0024558099416319493,1370120,223,60.24855,24.99734,Ukkostie
166.0,7.446978117672657e-07,0.0017574692442882249,0.0725210298241142,0.0011463358534864632,1401106,166,60.2774,24.9909,Siltamäki
166.0,7.446978117672657e-07,0.0017574692442882249,0.0725210298241142,0.0011463358534864632,1401130,166,60.27739,24.98963,Siltamäki
166.0,7.446978117672657e-07,0.0017574692442882249,0.0725210298241142,0.0011463358534864632,1401132,166,60.276818,24.990048,Siltamäki
168.0,1.6161175822628633e-07,0.0017574692442882249,0.07243793761935073,0.0012577698457344598,1401131,168,60.27863,24.99518,Kiertotähdenkuja
168.0,1.6161175822628633e-07,0.0017574692442882249,0.07243793761935073,0.0012577698457344598,1401133,168,60.27835,24.99422,Kiertotähdenkuja
167.0,1.7144024718734786e-07,0.0035149384885764497,0.07657627346746518,0.003015483532587238,1401134,167,60.27931,24.99788,Pohjantähdentie
167.0,1.7144024718734786e-07,0.0035149384885764497,0.07657627346746518,0.003015483532587238,1401135,167,60.27953,24.99857,Pohjantähdentie
181.0,7.525838364008374e-08,0.0017574692442882249,0.07177999243093226,2.2762380692554896e-05,1401124,181,60.27925,25.00451,Revontulentie
181.0,7.525838364008374e-08,0.0017574692442882249,0.07177999243093226,2.2762380692554896e-05,1401136,181,60.27982,25.00405,Revontulentie
188.0,5.990908457882457e-07,0.004393673110720562,0.08240405503258508,0.018227346620085707,1401113,188,60.28044,25.01124,Hannukselanpolku
188.0,5.990908457882457e-07,0.004393673110720562,0.08240405503258508,0.018227346620085707,1401148,188,60.27972,25.01144,Hannukselanpolku
188.0,5.990908457882457e-07,0.004393673110720562,0.08240405503258508,0.018227346620085707,1401180,188,60.27948,25.00944,Hannukselanpolku
172.0,7.161872078844239e-07,0.0008787346221441124,0.0693606387517523,0.0,1401151,172,60.273883,24.986218,Jousimiehentie 10
170.0,7.721930256112899e-07,0.0026362038664323375,0.07518498942917548,0.005760605986856614,1403169,170,60.27504,25.0013,Yläkaskentie
170.0,7.721930256112899e-07,0.0026362038664323375,0.07518498942917548,0.005760605986856614,1403170,170,60.27426,25.00182,Yläkaskentie
182.0,2.5517148484558077e-07,0.0026362038664323375,0.07728878022276556,0.006097579719791883,1401111,182,60.27818,25.00693,Vaskipellontie
182.0,2.5517148484558077e-07,0.0026362038664323375,0.07728878022276556,0.006097579719791883,1401112,182,60.27823,25.00574,Vaskipellontie
182.0,2.5517148484558077e-07,0.0026362038664323375,0.07728878022276556,0.006097579719791883,1401119,182,60.27763,25.0053,Vaskipellontie
202.0,1.655686676882858e-07,0.0017574692442882249,0.07012138763941093,0.0019514924619427599,1403167,202,60.27149,25.00543,Yläkaskenkuja
202.0,1.655686676882858e-07,0.0017574692442882249,0.07012138763941093,0.0019514924619427599,1403168,202,60.27189,25.00451,Yläkaskenkuja
173.0,1.990265236444077e-05,0.0035149384885764497,0.1040599853694221,0.03808766472826585,1401123,173,60.28254,25.02771,Tikkuritie
173.0,1.990265236444077e-05,0.0035149384885764497,0.1040599853694221,0.03808766472826585,1401224,173,60.28274,25.02989,Tikkuritie
173.0,1.990265236444077e-05,0.0035149384885764497,0.1040599853694221,0.03808766472826585,1402120,173,60.28326,25.02772,Tikkuritie
174.0,1.7893895477224578e-05,0.0017574692442882249,0.1048558002395651,0.034740048378377464,1402119,174,60.28053,25.02847,Arttolantie
174.0,1.7893895477224578e-05,0.0017574692442882249,0.1048558002395651,0.034740048378377464,1402153,174,60.28064,25.02876,Arttolantie
177.0,3.524626853790675e-06,0.0008787346221441124,0.09425991882713493,0.0,1401127,177,60.28597,25.0151,Suutarilantie
185.0,8.147478087780878e-05,0.0026362038664323375,0.10666416721342206,0.04490197120863673,1402121,185,60.27863,25.03001,Tapulikaupungintie
185.0,8.147478087780878e-05,0.0026362038664323375,0.10666416721342206,0.04490197120863673,1402122,185,60.27838,25.03171,Tapulikaupungintie
175.0,0.00015129190134911076,0.0017574692442882249,0.09860497357248071,0.0007521993314691909,1411130,175,60.27665,25.03995,Terrintie
175.0,0.00015129190134911076,0.0017574692442882249,0.09860497357248071,0.0007521993314691909,1411131,175,60.27618,25.04124,Terrintie
176.0,0.0004286639246249528,0.0026362038664323375,0.10292122637243376,0.009957256836017917,1411101,176,60.2738,25.04459,Puistolan tori
176.0,0.0004286639246249528,0.0026362038664323375,0.10292122637243376,0.009957256836017917,1411128,176,60.27443,25.0443,Puistolan tori
186.0,0.0004292405920727013,0.0026362038664323375,0.10911880333684917,0.03316338519954751,1402150,186,60.27665,25.03432,Hatuntekijänkuja
186.0,0.0004292405920727013,0.0026362038664323375,0.10911880333684917,0.03316338519954751,1402152,186,60.27697,25.03463,Hatuntekijänkuja
192.0,7.820874129243754e-05,0.0017574692442882249,0.09372426288914512,0.00771564746239907,1411109,192,60.27147,25.0461,Karrintie
192.0,7.820874129243754e-05,0.0017574692442882249,0.09372426288914512,0.00771564746239907,1411110,192,60.27135,25.04662,Karrintie
178.0,3.6389298850744664e-06,0.0017574692442882249,0.09427553640957667,0.0017574692442882249,1401128,178,60.28426,25.01348,Suutarilantie
180.0,6.447627651727148e-07,0.0008787346221441124,0.08615990308903694,0.0,1401129,180,60.28693,25.01495,Ala-Tikkurila
183.0,2.7247738059584134e-06,0.0017574692442882249,0.08892014377246445,0.01927521999755638,1401154,183,60.279247,25.016582,Lyhtytie
183.0,2.7247738059584134e-06,0.0017574692442882249,0.08892014377246445,0.01927521999755638,1401155,183,60.278987,25.017328,Lyhtytie
184.0,1.4849864039172468e-05,0.0017574692442882249,0.09683458134785568,0.02089914012776678,1402127,184,60.2787,25.02038,Henrik Forsiuksen t.
184.0,1.4849864039172468e-05,0.0017574692442882249,0.09683458134785568,0.02089914012776678,1402128,184,60.27815,25.02228,Henrik Forsiuksen t.
184.0,1.4849864039172468e-05,0.0017574692442882249,0.09683458134785568,0.02089914012776678,1402144,184,60.27802,25.02659,Kämnerintie
184.0,1.4849864039172468e-05,0.0017574692442882249,0.09683458134785568,0.02089914012776678,1402145,184,60.27802,25.02428,Kämnerintie
203.0,0.000401301451991575,0.0017574692442882249,0.10311707140268213,0.003928540852077166,1411115,203,60.271442,25.036978,Raidepolku
203.0,0.000401301451991575,0.0017574692442882249,0.10311707140268213,0.003928540852077166,1411116,203,60.271522,25.037053,Raidepolku
204.0,0.00040107834909503784,0.0017574692442882249,0.10296778863554108,0.014496052773101842,1402156,204,60.2721,25.03447,Porvarintie
204.0,0.00040107834909503784,0.0017574692442882249,0.10296778863554108,0.014496052773101842,1402157,204,60.27136,25.03385,Porvarintie
841.0,0.0005703855416172153,0.0017574692442882249,0.10656428504541623,0.026309226938398354,1333502,841,60.249288,24.861202,Malminkartano
841.0,0.0005703855416172153,0.0017574692442882249,0.10656428504541623,0.026309226938398354,1333552,841,60.249288,24.861202,Malminkartano
189.0,1.0918255453908064e-07,0.0017574692442882249,0.07615605969350198,0.003511847073898722,1401138,189,60.2822,25.0134,Kynttiläkuja
189.0,1.0918255453908064e-07,0.0017574692442882249,0.07615605969350198,0.003511847073898722,1401152,189,60.281967,25.0119,Böstaksentie
259.0,1.359193683190443e-07,0.0017574692442882249,0.07616625393213305,0.0,1401115,259,60.282497,25.001177,Revontulentie
190.0,3.5068637544314555e-09,0.0008787346221441124,0.06610514086552426,0.0,1401147,190,60.28125,25.01717,Lampputie
191.0,1.9878778512051124e-08,0.0017574692442882249,0.07077994775469586,0.0017574692442882249,1401149,191,60.28278,25.01751,Hehkulanka
193.0,1.4820033354494331e-05,0.0026362038664323375,0.08608169440242057,0.006055021801421119,1411124,193,60.27112,25.05116,Puistolan kirkko
193.0,1.4820033354494331e-05,0.0026362038664323375,0.08608169440242057,0.006055021801421119,1411125,193,60.27072,25.05336,Puistolan kirkko
195.0,2.9126888047632065e-06,0.0017574692442882249,0.07965283124518793,0.001647999193483364,1411123,195,60.2701,25.05879,Puistolan VPK
196.0,2.9126888047632065e-06,0.0017574692442882249,0.07965283124518793,0.001647999193483364,1411122,196,60.26998,25.0564,Puistolan VPK
201.0,1.7360889088957837e-06,0.0026362038664323375,0.07954704319865791,0.0012214713756073146,1411108,201,60.26653,25.05805,Koudantie
200.0,1.680338702372336e-06,0.0017574692442882249,0.07953592395862455,0.00042850569295572094,1411107,200,60.26764,25.05906,Koudantie
198.0,6.727633945166845e-07,0.0017574692442882249,0.0787488755103453,0.0013737692987217073,1413256,198,60.263526,25.0596,Karhekuja
199.0,7.475169830085786e-06,0.0017574692442882249,0.08082386363636364,0.0014423142042627823,1411106,199,60.26365,25.05666,Karhekuja
217.0,1.6636711252942514e-07,0.0026362038664323375,0.06842231842231843,0.0013316169794420185,1403133,217,60.26892,25.00956,Yrttimaantie 65
217.0,1.6636711252942514e-07,0.0026362038664323375,0.06842231842231843,0.0013316169794420185,1403166,217,60.26941,25.00959,Yrttimaantie 65
205.0,7.434608122180723e-05,0.0017574692442882249,0.0939719240297275,0.0022695846888525404,1411113,205,60.269661,25.03515,Hyttyspolku
205.0,7.434608122180723e-05,0.0017574692442882249,0.0939719240297275,0.0022695846888525404,1411114,205,60.269822,25.0353,Hyttyspolku
208.0,7.308118684062548e-05,0.0017574692442882249,0.09364713627386438,0.012796805171910869,1402173,208,60.26816,25.03245,Tapanilankaari
208.0,7.308118684062548e-05,0.0017574692442882249,0.09364713627386438,0.012796805171910869,1411174,208,60.2688,25.03293,Tapanilankaari
207.0,1.3331746802112021e-05,0.0017574692442882249,0.08597763674826231,0.011120227945023216,1392180,207,60.26817,25.02945,Moisiontie
207.0,1.3331746802112021e-05,0.0017574692442882249,0.08597763674826231,0.011120227945023216,1402179,207,60.26814,25.02993,Moisiontie
209.0,4.664214546282729e-07,0.0017574692442882249,0.0743693634818978,0.004115597627630654,1392184,209,60.26934,25.01931,Rintamasotilaantie
209.0,4.664214546282729e-07,0.0017574692442882249,0.0743693634818978,0.004115597627630654,1402183,209,60.26948,25.019827,Rintamasotilaantie
216.0,1.3000765151540739e-07,0.0026362038664323375,0.06994038473357507,0.0028294145509620487,1392165,216,60.26788,25.01539,Kotinummentie
216.0,1.3000765151540739e-07,0.0026362038664323375,0.06994038473357507,0.0028294145509620487,1392185,216,60.26738,25.01464,Kotinummentie
216.0,1.3000765151540739e-07,0.0026362038664323375,0.06994038473357507,0.0028294145509620487,1403164,216,60.26767,25.01355,Kotinummentie
211.0,5.779169622704276e-07,0.0017574692442882249,0.06933950767730929,0.0008581155803983134,1403194,211,60.26568,25.00316,Kottaraistie
211.0,5.779169622704276e-07,0.0017574692442882249,0.06933950767730929,0.0008581155803983134,1403195,211,60.26568,25.00295,Kottaraistie
219.0,2.4769249938389426e-07,0.0035149384885764497,0.06789165970647894,0.0014729763838140682,1391196,219,60.26709,25.00979,Sidetie
219.0,2.4769249938389426e-07,0.0035149384885764497,0.06789165970647894,0.0014729763838140682,1403175,219,60.26745,25.00825,Sidetie
219.0,2.4769249938389426e-07,0.0035149384885764497,0.06789165970647894,0.0014729763838140682,1403197,219,60.26694,25.00747,Sidetie
213.0,2.5895658276503743e-06,0.0017574692442882249,0.07314094736165563,0.003057994743108969,1403130,213,60.26832,25.00157,Korsitie
213.0,2.5895658276503743e-06,0.0017574692442882249,0.07314094736165563,0.003057994743108969,1403131,213,60.26821,25.00048,Korsitie
214.0,1.4151606441237174e-05,0.0017574692442882249,0.07812714540711245,0.004584758925983826,1403128,214,60.26765,24.99661,Vallesmannintie
214.0,1.4151606441237174e-05,0.0017574692442882249,0.07812714540711245,0.004584758925983826,1403129,214,60.26765,24.996492,Vallesmannintie
218.0,5.298225488173969e-07,0.0026362038664323375,0.06976886763533811,0.001946660931472623,1403171,218,60.26855,25.00607,Sidekuja
218.0,5.298225488173969e-07,0.0026362038664323375,0.06976886763533811,0.001946660931472623,1403172,218,60.26859,25.00582,Sidekuja
220.0,2.2933041111747016e-08,0.0008787346221441124,0.06537224264705882,0.0,1392154,220,60.26573,25.01614,Tapanilan urheiluk.
222.0,0.0022444750734746757,0.0017574692442882249,0.11131761713782647,0.0006595600558002365,1382122,222,60.24685,25.00326,Ruotutorpankuja
225.0,0.00031620719784156343,0.0017574692442882249,0.10120053357047577,0.005081780964688995,1383130,225,60.23986,25.00259,Rapakivenkuja
225.0,0.00031620719784156343,0.0017574692442882249,0.10120053357047577,0.005081780964688995,1383131,225,60.24007,25.0027,Rapakivenkuja
226.0,0.001732111363855483,0.0017574692442882249,0.11052836052836053,0.00653289898830147,1383180,226,60.2408,24.99779,Rapakivenkaari
226.0,0.001732111363855483,0.0017574692442882249,0.11052836052836053,0.00653289898830147,1383181,226,60.24095,24.99877,Rapakivenkaari
252.0,6.1016477009361155e-05,0.0017574692442882249,0.09588810246039771,0.004206498688207561,1383128,252,60.23739,25.00643,Vuolukiventie
252.0,6.1016477009361155e-05,0.0017574692442882249,0.09588810246039771,0.004206498688207561,1383129,252,60.23702,25.00686,Vuolukiventie
227.0,0.0003517499268832432,0.0026362038664323375,0.09958869344534874,0.0016977865397302357,1370115,227,60.244228,24.987497,Kilpisenpolku
227.0,0.0003517499268832432,0.0026362038664323375,0.09958869344534874,0.0016977865397302357,1370116,227,60.244934,24.986522,Kilpisenpolku
228.0,0.0001281437715939923,0.0017574692442882249,0.09106914212548016,1.3531379662304162e-05,1370106,228,60.245953,24.986158,Säveltie
230.0,0.0017383797498814236,0.0017574692442882249,0.11041040069855439,0.0034212373416689645,1370117,230,60.242867,24.990507,Madetojankuja
230.0,0.0017383797498814236,0.0017574692442882249,0.11041040069855439,0.0034212373416689645,1370122,230,60.242963,24.990814,Madetojankuja
1114.0,0.002156863139949919,0.0026362038664323375,0.1127067445775973,0.04491816485086052,1342101,1114,60.24466,24.96128,Klaukkalanpuisto
1114.0,0.002156863139949919,0.0026362038664323375,0.1127067445775973,0.04491816485086052,1342102,1114,60.24438,24.96024,Klaukkalanpuisto
232.0,0.0017319370460559288,0.0017574692442882249,0.11038898050247356,0.003511847073898722,1370127,232,60.240134,24.994556,Ratavallintie
233.0,0.0003152190015059698,0.0017574692442882249,0.09944075498077595,0.0017574692442882249,1370126,233,60.239235,24.991308,Eteläniitynpolku
234.0,5.558851381602739e-05,0.0008787346221441124,0.09045385899372069,0.0,1370125,234,60.237547,24.987565,Savela
240.0,0.00011486606474515511,0.004393673110720562,0.10576208178438662,0.003858445527454404,1361105,240,60.22475,24.99648,Hernepellonkuja
240.0,0.00011486606474515511,0.004393673110720562,0.10576208178438662,0.003858445527454404,1361120,240,60.225478,24.997258,Palkopolku
634.0,3.6760998421167804e-05,0.0026362038664323375,0.0932175622542595,0.0001761478160248427,1361104,634,60.21836,24.98539,Viikinranta
236.0,8.650534416978305e-05,0.0017574692442882249,0.10726741445942124,0.0,1362137,236,60.22536,25.01653,Viikin biokeskus
236.0,8.650534416978305e-05,0.0017574692442882249,0.10726741445942124,0.0,1362138,236,60.225563,25.016455,Viikin biokeskus
316.0,1.73466433965376e-05,0.0017574692442882249,0.1004590395480226,0.0049095863808057355,1431137,316,60.21487,25.04418,Siilitie 13
316.0,1.73466433965376e-05,0.0017574692442882249,0.1004590395480226,0.0049095863808057355,1431138,316,60.21504,25.04395,Siilitie 13
316.0,1.73466433965376e-05,0.0017574692442882249,0.1004590395480226,0.0049095863808057355,1454184,316,60.21495,25.04414,Siilitie 13
239.0,5.222093084587739e-05,0.0026362038664323375,0.09641616538168263,0.00045390493394444233,1361114,239,60.22495,24.99355,Viikinm. puhdistamo
239.0,5.222093084587739e-05,0.0026362038664323375,0.09641616538168263,0.00045390493394444233,1361115,239,60.22507,24.99407,Viikinm. puhdistamo
244.0,0.00018224219265428003,0.0017574692442882249,0.10645463049579046,0.0016514894282949112,1361116,244,60.22742,24.99892,Harjulankatu
244.0,0.00018224219265428003,0.0017574692442882249,0.10645463049579046,0.0016514894282949112,1361117,244,60.22757,24.99957,Harjulankatu
241.0,3.5955660399720475e-05,0.0026362038664323375,0.09575094657130837,0.00041753849898790906,1361106,241,60.223823,24.995055,Hernepellonkuja
245.0,9.012729757062802e-05,0.0017574692442882249,0.10565407111688795,0.0,1361107,245,60.22709,25.00447,Maaherrantie
245.0,9.012729757062802e-05,0.0017574692442882249,0.10565407111688795,0.0,1361108,245,60.22744,25.00263,Maaherrantie
243.0,0.00014746513292474817,0.0035149384885764497,0.10693478669423041,0.008872542894447426,1383107,243,60.23092,25.01018,Pihlajistontie
243.0,0.00014746513292474817,0.0035149384885764497,0.10693478669423041,0.008872542894447426,1383108,243,60.23069,25.00975,Pihlajistontie
243.0,0.00014746513292474817,0.0035149384885764497,0.10693478669423041,0.008872542894447426,1383133,243,60.23021,25.008567,Pihlajistontie
243.0,0.00014746513292474817,0.0035149384885764497,0.10693478669423041,0.008872542894447426,1383179,243,60.23017,25.00861,Pihlajistontie
243.0,0.00014746513292474817,0.0035149384885764497,0.10693478669423041,0.008872542894447426,1363101,243,60.229313,25.010037,Viikki
662.0,0.0002915522930124326,0.005272407732864675,0.10750047232193463,0.02238879511087974,1240122,662,60.21218,24.97028,Koskelan varikko
662.0,0.0002915522930124326,0.005272407732864675,0.10750047232193463,0.02238879511087974,1240123,662,60.21279,24.9702,Koskelan varikko
1132.0,0.00016755631584088022,0.005272407732864675,0.10672418643908843,0.020622662684735844,1240101,1132,60.2149,24.96463,Valtimontie
1132.0,0.00016755631584088022,0.005272407732864675,0.10672418643908843,0.020622662684735844,1260102,1132,60.21515,24.96438,Valtimontie
246.0,6.514809398951034e-05,0.0017574692442882249,0.10156180276662205,6.66222982604544e-05,1383134,246,60.230748,25.004888,Salpausselänpolku
246.0,6.514809398951034e-05,0.0017574692442882249,0.10156180276662205,6.66222982604544e-05,1383135,246,60.23112,25.00417,Salpausselänpolku
247.0,0.0002219367986933219,0.0026362038664323375,0.10654433105514464,0.000905848905046683,1383136,247,60.23112,25.0003,Pihlajiston ostosk.
247.0,0.0002219367986933219,0.0026362038664323375,0.10654433105514464,0.000905848905046683,1383138,247,60.23116,25.00068,Pihlajiston ostosk.
247.0,0.0002219367986933219,0.0026362038664323375,0.10654433105514464,0.000905848905046683,1386100,247,60.231738,25.000287,Salpausseläntie
247.0,0.0002219367986933219,0.0026362038664323375,0.10654433105514464,0.000905848905046683,1386101,247,60.231462,25.000737,Salpausseläntie
249.0,0.00021216948411328205,0.0017574692442882249,0.10640486208508648,0.0,1383192,249,60.233412,24.997172,Pihlajisto
1116.0,0.004365645884704152,0.0017574692442882249,0.12293399589499839,0.12361635810875743,1285101,1116,60.2313,24.975489,Veräjämäki
1116.0,0.004365645884704152,0.0017574692442882249,0.12293399589499839,0.12361635810875743,1285102,1116,60.231251,24.975103,Veräjämäki
250.0,7.0417512668323176e-06,0.0026362038664323375,0.08667174409748667,0.0019975018440000444,1383117,250,60.236923,25.002798,Vuolukiventie
250.0,7.0417512668323176e-06,0.0026362038664323375,0.08667174409748667,0.0019975018440000444,1383118,250,60.23685,25.002575,Vuolukiventie
251.0,1.2421194768161241e-06,0.0008787346221441124,0.07976449148384383,0.0,1383120,251,60.235035,25.002602,Kinttupolku
257.0,2.9785436212477496e-05,0.004393673110720562,0.09483333333333334,0.00801588430087291,1383121,257,60.234543,25.009002,Meripihkatie
257.0,2.9785436212477496e-05,0.004393673110720562,0.09483333333333334,0.00801588430087291,1383122,257,60.234577,25.009153,Meripihkatie
257.0,2.9785436212477496e-05,0.004393673110720562,0.09483333333333334,0.00801588430087291,1383126,257,60.23438,25.010248,Pihlajamäki
257.0,2.9785436212477496e-05,0.004393673110720562,0.09483333333333334,0.00801588430087291,1383127,257,60.23419,25.01042,Pihlajamäki
258.0,8.894889546558648e-06,0.0026362038664323375,0.08505231689088191,7.860382695321612e-05,1383100,258,60.235524,25.010897,Liusketie
253.0,1.2304931642771356e-05,0.0026362038664323375,0.08728332566344531,0.0006343216870744397,1383103,253,60.237582,25.00916,Maasälväntie
255.0,5.253645393779361e-06,0.0008787346221441124,0.08662556139148969,0.0,1383123,255,60.233468,25.007725,Kiilletie
255.0,5.253645393779361e-06,0.0008787346221441124,0.08662556139148969,0.0,1383132,255,60.233629,25.007956,Kiilletie
255.0,5.253645393779361e-06,0.0008787346221441124,0.08662556139148969,0.0,1383191,255,60.233335,25.00938,Graniittitie
261.0,1.832101170321966e-13,0.0008787346221441124,0.04451224282249863,0.0,1494167,261,60.17374,25.022781,Kaitalahti
265.0,1.0378564121624634e-12,0.0017574692442882249,0.04658397805886447,0.0017574692442882249,1494102,265,60.170748,25.02075,Hopealaakso
265.0,1.0378564121624634e-12,0.0017574692442882249,0.04658397805886447,0.0017574692442882249,1494103,265,60.170677,25.01994,Hopealaakso
262.0,7.779010091871994e-12,0.0017574692442882249,0.04880349944249078,0.0017574692442882249,1493163,262,60.17661,25.02645,Tullisaari 2
260.0,1.3731537345834015e-12,0.0008787346221441124,0.04653445103250869,0.0,1494165,260,60.17507,25.02428,Kaitalahti 1
263.0,3.1237905834123746e-11,0.0017574692442882249,0.0513514733089662,0.0052631334888314915,1494107,263,60.168898,25.025654,Stansvikintie
263.0,3.1237905834123746e-11,0.0017574692442882249,0.0513514733089662,0.0052631334888314915,1494157,263,60.168892,25.026066,Stansvikintie
264.0,5.6965835665121616e-12,0.0017574692442882249,0.048853782089808534,0.003511847073898722,1494104,264,60.1689,25.020529,Haakoninlahdenkatu
264.0,5.6965835665121616e-12,0.0017574692442882249,0.048853782089808534,0.003511847073898722,1494105,264,60.168987,25.020211,Haakoninlahdenkatu
284.0,1.713057891815501e-10,0.0026362038664323375,0.054113171659534,0.009579701565131727,1491166,284,60.17124,25.0326,Gunillantie
284.0,1.713057891815501e-10,0.0026362038664323375,0.054113171659534,0.009579701565131727,1491167,284,60.172308,25.033506,Gunillantie
284.0,1.713057891815501e-10,0.0026362038664323375,0.054113171659534,0.009579701565131727,1493102,284,60.17215,25.033079,Gunillantie
266.0,8.63882866457165e-10,0.0026362038664323375,0.05717730995327337,0.04207953797777304,1491133,266,60.17203,25.04925,Willebrandintie
266.0,8.63882866457165e-10,0.0026362038664323375,0.05717730995327337,0.04207953797777304,1491134,266,60.17222,25.04957,Willebrandintie
274.0,4.488055826447345e-09,0.0017574692442882249,0.0604483161585042,0.04374168860283133,1491131,274,60.17559,25.05111,Sarvastonkaari
274.0,4.488055826447345e-09,0.0017574692442882249,0.0604483161585042,0.04374168860283133,1491132,274,60.176,25.05177,Sarvastonkaari
293.0,1.961226291578959e-10,0.0026362038664323375,0.05421112804878049,0.019859557031190828,1491136,293,60.16864,25.04855,Sarpapolku
293.0,1.961226291578959e-10,0.0026362038664323375,0.05421112804878049,0.019859557031190828,1495135,293,60.16803,25.0489,Sarpapolku
294.0,2.1161967106404719e-10,0.004393673110720562,0.05425506555423123,0.019887920760858258,1495150,294,60.16595,25.04848,Kutteritie
294.0,2.1161967106404719e-10,0.004393673110720562,0.05425506555423123,0.019887920760858258,1495151,294,60.16595,25.04883,Kutteritie
297.0,4.862383462559165e-11,0.0035149384885764497,0.051528186551958344,0.013116563336131062,1495101,297,60.161967,25.048352,Hevossalmentie
297.0,4.862383462559165e-11,0.0035149384885764497,0.051528186551958344,0.013116563336131062,1495152,297,60.16151,25.048,Hevossalmentie
297.0,4.862383462559165e-11,0.0035149384885764497,0.051528186551958344,0.013116563336131062,1495153,297,60.16201,25.04776,Hevossalmentie
268.0,7.009164551867296e-07,0.0035149384885764497,0.07243332696836612,0.004308659207083049,1491124,268,60.18367,25.05709,Marunakuja
268.0,7.009164551867296e-07,0.0035149384885764497,0.07243332696836612,0.004308659207083049,1491125,268,60.18384,25.05705,Marunakuja
269.0,2.2313543633288973e-07,0.0017574692442882249,0.0675531283390716,2.318561008295811e-06,1491152,269,60.184319,25.060905,Humalniementie 15
273.0,1.284160823098764e-07,0.0017574692442882249,0.06794029850746269,0.0018618044896615363,1491126,273,60.18038,25.05966,Kiiltomadonpolku
273.0,1.284160823098764e-07,0.0017574692442882249,0.06794029850746269,0.0018618044896615363,1491127,273,60.18081,25.0596,Kiiltomadonpolku
279.0,6.481953962140983e-07,0.0017574692442882249,0.07220354038449336,0.0,1491122,279,60.18382,25.05227,Yliskylänkaari
279.0,6.481953962140983e-07,0.0017574692442882249,0.07220354038449336,0.0,1491123,279,60.18389,25.05198,Yliskylänkaari
300.0,5.639084748933257e-07,0.0017574692442882249,0.07219437924252997,0.0008393190850030836,1491199,300,60.18652,25.057775,Kanavamäki 16
270.0,3.586068384962446e-11,0.0017574692442882249,0.051479236406405504,0.018137639055696472,1491138,270,60.16636,25.05391,Isosarvastontie
270.0,3.586068384962446e-11,0.0017574692442882249,0.051479236406405504,0.018137639055696472,1492137,270,60.16596,25.05495,Isosarvastontie
271.0,2.341547346967837e-10,0.004393673110720562,0.05406175771971496,0.008719335098531114,1491159,271,60.1752,25.03817,Borgströminkuja
271.0,2.341547346967837e-10,0.004393673110720562,0.05406175771971496,0.008719335098531114,1491160,271,60.17514,25.03801,Borgströminkuja
272.0,9.068616698782155e-10,0.0035149384885764497,0.05706835163733012,0.029193645700177042,1491111,272,60.174743,25.040362,Lauri Mikonpojan tie
272.0,9.068616698782155e-10,0.0035149384885764497,0.05706835163733012,0.029193645700177042,1491112,272,60.174846,25.041802,Lauri Mikonpojan tie
288.0,9.773426901390201e-11,0.0035149384885764497,0.05142573094129875,0.0018180094483937267,1491143,288,60.170788,25.038448,Rudolfintie
288.0,9.773426901390201e-11,0.0035149384885764497,0.05142573094129875,0.0018180094483937267,1491144,288,60.170772,25.038525,Rudolfintie
301.0,4.269912768662587e-11,0.0017574692442882249,0.05130054546274174,0.003511847073898722,1493161,301,60.17725,25.03567,Tullisaari 1
302.0,4.132597395204246e-11,0.0008787346221441124,0.051291296705277864,0.0,1491135,302,60.178819,25.040292,Orisaarentie
276.0,4.4956420228107695e-09,0.0017574692442882249,0.06039698545801932,0.030775651399714967,1491109,276,60.17566,25.0462,Isosaarentie
276.0,4.4956420228107695e-09,0.0017574692442882249,0.06039698545801932,0.030775651399714967,1491110,276,60.1756,25.04661,Isosaarentie
289.0,2.382069154768708e-10,0.004393673110720562,0.054120892186236745,0.006380525324096367,1491113,289,60.17171,25.04015,Rudolfintie
289.0,2.382069154768708e-10,0.004393673110720562,0.054120892186236745,0.006380525324096367,1491171,289,60.172362,25.039398,Rudolfintie
275.0,2.699172606768422e-08,0.0017574692442882249,0.06397571396447042,0.000257360271920835,1491128,275,60.17809,25.05687,Koulutanhua
275.0,2.699172606768422e-08,0.0017574692442882249,0.06397571396447042,0.000257360271920835,1491129,275,60.17805,25.05738,Koulutanhua
277.0,2.4572779920386517e-08,0.0035149384885764497,0.06413796990362397,0.07777455755415515,1491107,277,60.17722,25.04844,Jussaarenkuja
277.0,2.4572779920386517e-08,0.0035149384885764497,0.06413796990362397,0.07777455755415515,1491108,277,60.17786,25.04901,Jussaarenkuja
277.0,2.4572779920386517e-08,0.0035149384885764497,0.06413796990362397,0.07777455755415515,1491155,277,60.178434,25.049872,Reposalmentien silta
277.0,2.4572779920386517e-08,0.0035149384885764497,0.06413796990362397,0.07777455755415515,1491156,277,60.17938,25.0509,Reposalmentien silta
277.0,2.4572779920386517e-08,0.0035149384885764497,0.06413796990362397,0.07777455755415515,1491157,277,60.17822,25.05075,Reposalmentien silta
277.0,2.4572779920386517e-08,0.0035149384885764497,0.06413796990362397,0.07777455755415515,1491169,277,60.17819,25.05333,Reposalmentie
277.0,2.4572779920386517e-08,0.0035149384885764497,0.06413796990362397,0.07777455755415515,1491170,277,60.178242,25.052565,Reposalmentie
281.0,1.0330280076532983e-07,0.0026362038664323375,0.06812739463601533,0.08061868481945365,1491147,281,60.180887,25.052744,Yliskyläntie
281.0,1.0330280076532983e-07,0.0026362038664323375,0.06812739463601533,0.08061868481945365,1491148,281,60.180897,25.052252,Yliskyläntie
281.0,1.0330280076532983e-07,0.0026362038664323375,0.06812739463601533,0.08061868481945365,1491158,281,60.181037,25.050729,Yliskyläntie
281.0,1.0330280076532983e-07,0.0026362038664323375,0.06812739463601533,0.08061868481945365,1491168,281,60.18142,25.05098,Yliskyläntie
278.0,2.9735160011684722e-06,0.004393673110720562,0.07779600765654908,0.09379042990758216,1491101,278,60.18391,25.04893,Itäniitynpolku
278.0,2.9735160011684722e-06,0.004393673110720562,0.07779600765654908,0.09379042990758216,1491102,278,60.18442,25.04812,Itäniitynpolku
280.0,5.427669090962546e-07,0.0017574692442882249,0.07264138899527639,0.08214738937759002,1491103,280,60.18248,25.05064,Humalniementie
280.0,5.427669090962546e-07,0.0017574692442882249,0.07264138899527639,0.08214738937759002,1491104,280,60.18299,25.05049,Humalniementie
345.0,1.4401226461650508e-05,0.0035149384885764497,0.08365801661398221,0.09539891448832287,1434170,345,60.18775,25.04133,Kaivolahdenkatu
345.0,1.4401226461650508e-05,0.0035149384885764497,0.08365801661398221,0.09539891448832287,1434171,345,60.18881,25.04106,Kaivolahdenkatu
345.0,1.4401226461650508e-05,0.0035149384885764497,0.08365801661398221,0.09539891448832287,1434173,345,60.18668,25.04262,Tuorinniemi
345.0,1.4401226461650508e-05,0.0035149384885764497,0.08365801661398221,0.09539891448832287,1434174,345,60.18706,25.04258,Tuorinniemi
345.0,1.4401226461650508e-05,0.0035149384885764497,0.08365801661398221,0.09539891448832287,1434176,345,60.18833,25.04042,Kaivolahdenkatu
282.0,1.8225189734869827e-08,0.0008787346221441124,0.06378566223866375,0.0,1491150,282,60.181173,25.05473,Etanapolku
283.0,3.2638926903826086e-11,0.0017574692442882249,0.05146294035182924,0.0010607931848732957,1491163,283,60.169129,25.033204,Otonkuja
283.0,3.2638926903826086e-11,0.0017574692442882249,0.05146294035182924,0.0010607931848732957,1491164,283,60.169282,25.033135,Otonkuja
285.0,1.363347330069238e-11,0.0017574692442882249,0.04907287623975852,0.00023950735215695732,1491121,285,60.16737,25.03772,Gunillankuja
285.0,1.363347330069238e-11,0.0017574692442882249,0.04907287623975852,0.00023950735215695732,1491161,285,60.168113,25.037082,Tahvonlahden koulu
285.0,1.363347330069238e-11,0.0017574692442882249,0.04907287623975852,0.00023950735215695732,1491162,285,60.167965,25.036693,Tahvonlahden koulu
291.0,4.460363924394546e-11,0.0026362038664323375,0.051553864274712334,0.0020726904942606128,1491119,291,60.16787,25.04265,Gunillanpolku
291.0,4.460363924394546e-11,0.0026362038664323375,0.051553864274712334,0.0020726904942606128,1491120,291,60.1679,25.04305,Gunillanpolku
286.0,4.6890668489770814e-11,0.0017574692442882249,0.05146992311171416,0.0006493774148457187,1491115,286,60.17027,25.04299,Kasperinkuja
292.0,2.747112470742006e-11,0.0026362038664323375,0.04907922542804157,0.0003762251662794669,1491117,292,60.16854,25.04599,Svanströmintie
292.0,2.747112470742006e-11,0.0026362038664323375,0.04907922542804157,0.0003762251662794669,1491118,292,60.16886,25.04583,Svanströmintie
287.0,6.414154287580129e-11,0.0026362038664323375,0.05147457933779627,0.0007895215469027109,1491116,287,60.17101,25.04185,Kasperinkuja
290.0,1.7250874386030476e-11,0.0008787346221441124,0.048912576291584284,0.0,1491139,290,60.169458,25.037778,Aakenraitti
295.0,4.593011665537646e-11,0.0017574692442882249,0.051486223589557976,0.0,1495157,295,60.16414,25.04695,Suomensuontie
299.0,2.8522404552830594e-12,0.0017574692442882249,0.04680623534734504,0.00013293083114229316,1495104,299,60.163419,25.057043,Kutteritie
299.0,2.8522404552830594e-12,0.0017574692442882249,0.04680623534734504,0.00013293083114229316,1495105,299,60.162854,25.056791,Kutteritie
298.0,9.085834921102362e-12,0.0017574692442882249,0.049053838527522736,0.0010074920434714732,1495102,298,60.162338,25.05292,Hevossalmentie
298.0,9.085834921102362e-12,0.0017574692442882249,0.049053838527522736,0.0010074920434714732,1495103,298,60.162319,25.053027,Hevossalmentie
303.0,2.0727494959656072e-05,0.0017574692442882249,0.07679848832501013,0.003511847073898722,1420121,303,60.18217,24.99317,Mustikkamaa
303.0,2.0727494959656072e-05,0.0017574692442882249,0.07679848832501013,0.003511847073898722,1420122,303,60.18212,24.99321,Mustikkamaa
304.0,3.7731441169567782e-06,0.0017574692442882249,0.07133454522660315,0.0017574692442882249,1420125,304,60.18036,24.99005,Mustikkamaanpolku
304.0,3.7731441169567782e-06,0.0017574692442882249,0.07133454522660315,0.0017574692442882249,1420126,304,60.18032,24.99033,Mustikkamaanpolku
381.0,0.00011375222432455624,0.0035149384885764497,0.08315674095725246,0.018992638573905207,1420103,381,60.18505,25.0021,Marsalkantie
381.0,0.00011375222432455624,0.0035149384885764497,0.08315674095725246,0.018992638573905207,1420104,381,60.18584,25.00085,Marsalkantie
381.0,0.00011375222432455624,0.0035149384885764497,0.08315674095725246,0.018992638573905207,1420113,381,60.18512,25.00073,Kulosaarentie
381.0,0.00011375222432455624,0.0035149384885764497,0.08315674095725246,0.018992638573905207,1420114,381,60.18526,25.00113,Kulosaarentie
305.0,6.655051587734121e-07,0.0008787346221441124,0.0665886483323581,0.0,1420120,305,60.18011,24.98351,Korkeasaari
307.0,4.782021140008311e-09,0.0026362038664323375,0.06718620852520958,0.0006707775385826452,1541139,307,60.201435,25.127873,Halkaisijantie
307.0,4.782021140008311e-09,0.0026362038664323375,0.06718620852520958,0.0006707775385826452,1541140,307,60.20136,25.12732,Halkaisijantie
314.0,1.7951588667000053e-08,0.0026362038664323375,0.07154982709839673,0.007353439671150745,1541143,314,60.20063,25.12295,Harbonkatu
314.0,1.7951588667000053e-08,0.0026362038664323375,0.07154982709839673,0.007353439671150745,1541144,314,60.20061,25.12267,Harbonkatu
579.0,6.9088832785185174e-09,0.0026362038664323375,0.06820497452801919,0.00148027777045628,1541145,579,60.2022,25.1341,Kallvikinniemi
579.0,6.9088832785185174e-09,0.0026362038664323375,0.06820497452801919,0.00148027777045628,1541146,579,60.20222,25.1339,Kallvikinniemi
308.0,6.026146399784374e-10,0.0017574692442882249,0.06262037087987674,0.0017574692442882249,1544102,308,60.196874,25.112749,Verkkotie
308.0,6.026146399784374e-10,0.0017574692442882249,0.06262037087987674,0.0017574692442882249,1544103,308,60.196925,25.11273,Verkkotie
313.0,3.2896723299685275e-09,0.0017574692442882249,0.0667918769808663,0.003511847073898722,1544100,313,60.197792,25.117625,Täkykuja
313.0,3.2896723299685275e-09,0.0017574692442882249,0.0667918769808663,0.003511847073898722,1544101,313,60.197813,25.117414,Täkykuja
309.0,1.0698290904461065e-10,0.0008787346221441124,0.058933195235629204,0.0,1544155,309,60.195764,25.113432,Rantapuisto
310.0,5.085549161428004e-07,0.0017574692442882249,0.08324189891010167,0.010746267279956888,1541141,310,60.20228,25.11712,Fokkatori
310.0,5.085549161428004e-07,0.0017574692442882249,0.08324189891010167,0.010746267279956888,1541142,310,60.20237,25.11725,Fokkatori
315.0,9.323637915536371e-08,0.0017574692442882249,0.07693347755543536,0.009013529353090488,1541137,315,60.2001,25.11964,Ramsinniementie
315.0,9.323637915536371e-08,0.0017574692442882249,0.07693347755543536,0.009013529353090488,1541138,315,60.20029,25.11925,Ramsinniementie
311.0,2.7799061011317935e-06,0.0035149384885764497,0.09068451669455733,0.07190186462755133,1541193,311,60.20562,25.12049,Rastil
311.0,2.7799061011317935e-06,0.0035149384885764497,0.09068451669455733,0.07190186462755133,1541195,311,60.20494,25.11985,Rastil
311.0,2.7799061011317935e-06,0.0035149384885764497,0.09068451669455733,0.07190186462755133,1541196,311,60.2054,25.1199,Rastil
311.0,2.7799061011317935e-06,0.0035149384885764497,0.09068451669455733,0.07190186462755133,1541601,311,60.205573,25.120167,Rastila
311.0,2.7799061011317935e-06,0.0035149384885764497,0.09068451669455733,0.07190186462755133,1541602,311,60.205573,25.120167,Rastila
516.0,1.3911860291640491e-05,0.006151142355008787,0.09771595397561395,0.08590892496385842,1452119,516,60.21498,25.09323,Puotila
516.0,1.3911860291640491e-05,0.006151142355008787,0.09771595397561395,0.08590892496385842,1452601,516,60.214491,25.093754,Puotila
516.0,1.3911860291640491e-05,0.006151142355008787,0.09771595397561395,0.08590892496385842,1452602,516,60.214491,25.093754,Puotila
516.0,1.3911860291640491e-05,0.006151142355008787,0.09771595397561395,0.08590892496385842,1453107,516,60.21557,25.09193,Puotil
516.0,1.3911860291640491e-05,0.006151142355008787,0.09771595397561395,0.08590892496385842,1453134,516,60.21477,25.09232,Puotil
534.0,5.83290893803936e-07,0.004393673110720562,0.08348004694835681,0.019601290047274806,1452139,534,60.208948,25.099878,Puotilantie
534.0,5.83290893803936e-07,0.004393673110720562,0.08348004694835681,0.019601290047274806,1452140,534,60.20889,25.09973,Puotilantie
534.0,5.83290893803936e-07,0.004393673110720562,0.08348004694835681,0.019601290047274806,1452170,534,60.208067,25.098807,Puotilantie
324.0,4.0088716281555075e-06,0.0017574692442882249,0.09526998744244454,0.0039035001949615155,1431135,324,60.21268,25.03878,Siilitie 11
324.0,4.0088716281555075e-06,0.0017574692442882249,0.09526998744244454,0.0039035001949615155,1431136,324,60.2123,25.03822,Siilitie 11
317.0,1.0417582345943506e-05,0.0026362038664323375,0.08836775896878397,0.0006796235523438271,1433103,317,60.20205,25.04454,Mekaanikonkatu 7
317.0,1.0417582345943506e-05,0.0026362038664323375,0.08836775896878397,0.0006796235523438271,1433104,317,60.20248,25.04501,Mekaanikonkatu 10
322.0,2.560671290393431e-05,0.0026362038664323375,0.08918495297805643,0.0008058465043361946,1433106,322,60.198894,25.041099,Asentajanpuisto
322.0,2.560671290393431e-05,0.0026362038664323375,0.08918495297805643,0.0008058465043361946,1433105,322,60.198866,25.040927,Asentajanpuisto
371.0,7.1718751356961425e-06,0.0026362038664323375,0.08841581850672053,0.0021705693926942775,1433118,371,60.20505,25.05101,Sahaajankatu 33
371.0,7.1718751356961425e-06,0.0026362038664323375,0.08841581850672053,0.0021705693926942775,1433119,371,60.20481,25.05045,Sahaajankatu 33
373.0,2.6277097987238775e-05,0.0026362038664323375,0.09544577706952947,0.004184690614122675,1433127,373,60.2052,25.04822,Mekaanikonkatu
373.0,2.6277097987238775e-05,0.0026362038664323375,0.09544577706952947,0.004184690614122675,1433128,373,60.20521,25.04774,Mekaanikonkatu
373.0,2.6277097987238775e-05,0.0026362038664323375,0.09544577706952947,0.004184690614122675,1433183,373,60.20588,25.04745,Siiliti
318.0,9.12773937440424e-07,0.0026362038664323375,0.07260894531997703,0.00662463955502121,1434114,318,60.190465,25.025627,Herttoniemenranta
318.0,9.12773937440424e-07,0.0026362038664323375,0.07260894531997703,0.00662463955502121,1434190,318,60.18993,25.02573,Herttoniemenranta
321.0,1.6617771114408182e-07,0.0017574692442882249,0.06770585435506901,0.0017574692442882249,1431186,321,60.19132,25.01852,Kipparlahti
347.0,3.3855137917050026e-07,0.0017574692442882249,0.07164442205993453,0.004571122320634263,1434185,347,60.18818,25.02984,Suolakivenkuja
347.0,3.3855137917050026e-07,0.0017574692442882249,0.07164442205993453,0.004571122320634263,1434186,347,60.18808,25.02986,Suolakivenkuja
319.0,0.00013723684796916564,0.0017574692442882249,0.09652247667514843,0.0051415712180211985,1431102,319,60.19172,25.02131,Kipparlahti
390.0,0.00024896517264161593,0.0035149384885764497,0.0932404752150758,0.005314049708029304,1420117,390,60.18864,25.01154,Tupasaari
390.0,0.00024896517264161593,0.0035149384885764497,0.0932404752150758,0.005314049708029304,1420118,390,60.18896,25.01072,Tupasaari
320.0,6.313001639502039e-05,0.0017574692442882249,0.08861548045475783,0.000144771551581629,1434101,320,60.19212,25.02393,Kipparlahti
362.0,0.00010897880742053316,0.0026362038664323375,0.09649792249639617,0.0027600104518366356,1433108,362,60.19382,25.03673,Puusepänportti
391.0,2.9313875998055153e-08,0.0008787346221441124,0.06341599331290053,0.0,1420136,391,60.189673,25.013165,Rantatöyry
378.0,2.5785364661062456e-05,0.0017574692442882249,0.08926190289434466,0.0004024114114027908,1433107,378,60.196002,25.03878,Työnjohtajankatu
323.0,0.00011650150047984626,0.0017574692442882249,0.10015842281288506,0.0,1431180,323,60.19873,25.03652,Konemestarinkatu
364.0,0.0005291773440943102,0.007908611599297012,0.1064745508982036,0.19849817652155996,1431104,364,60.19447,25.03007,Herttoniem
364.0,0.0005291773440943102,0.007908611599297012,0.1064745508982036,0.19849817652155996,1431106,364,60.19456,25.03099,Herttoniem
364.0,0.0005291773440943102,0.007908611599297012,0.1064745508982036,0.19849817652155996,1431107,364,60.19473,25.03036,Herttoniem
364.0,0.0005291773440943102,0.007908611599297012,0.1064745508982036,0.19849817652155996,1431108,364,60.19547,25.03161,Herttoniem
364.0,0.0005291773440943102,0.007908611599297012,0.1064745508982036,0.19849817652155996,1431139,364,60.19542,25.03125,Herttoniemi
364.0,0.0005291773440943102,0.007908611599297012,0.1064745508982036,0.19849817652155996,1431140,364,60.19654,25.03189,Hiihtäjäntie
364.0,0.0005291773440943102,0.007908611599297012,0.1064745508982036,0.19849817652155996,1431183,364,60.19472,25.03124,Herttoniem
364.0,0.0005291773440943102,0.007908611599297012,0.1064745508982036,0.19849817652155996,1431185,364,60.19483,25.03145,Herttoniem
364.0,0.0005291773440943102,0.007908611599297012,0.1064745508982036,0.19849817652155996,1431187,364,60.19392,25.02975,Herttoniemi
364.0,0.0005291773440943102,0.007908611599297012,0.1064745508982036,0.19849817652155996,1431188,364,60.19499,25.03171,Herttoniem
364.0,0.0005291773440943102,0.007908611599297012,0.1064745508982036,0.19849817652155996,1431189,364,60.19516,25.03188,Herttoniem
364.0,0.0005291773440943102,0.007908611599297012,0.1064745508982036,0.19849817652155996,1431601,364,60.194914,25.031012,Herttoniemi
364.0,0.0005291773440943102,0.007908611599297012,0.1064745508982036,0.19849817652155996,1431602,364,60.194914,25.031012,Herttoniemi
370.0,5.378495082037415e-06,0.0017574692442882249,0.09306509649983644,0.003534430560736604,1431133,370,60.209329,25.037957,Siilitie 9
370.0,5.378495082037415e-06,0.0017574692442882249,0.09306509649983644,0.003534430560736604,1431134,370,60.209183,25.037994,Siilitie 9
325.0,3.0735054316895403e-07,0.0017574692442882249,0.07137481184144506,0.010498444245563433,1432152,325,60.19461,25.05887,Satumaanpolku
325.0,3.0735054316895403e-07,0.0017574692442882249,0.07137481184144506,0.010498444245563433,1432155,325,60.19456,25.05759,Satumaanpolku
327.0,1.6863072848029652e-06,0.0017574692442882249,0.07679330589108577,0.01223736500178529,1432151,327,60.19416,25.05217,Roihuvuorentie
326.0,1.692877748429157e-06,0.0017574692442882249,0.07725205349263459,0.005419354798590935,1432157,326,60.19536,25.0535,Porolahden koulu
326.0,1.692877748429157e-06,0.0017574692442882249,0.07725205349263459,0.005419354798590935,1432158,326,60.19525,25.05336,Porolahden koulu
328.0,3.4456499033389266e-07,0.0035149384885764497,0.07439367196182257,0.006187690563982127,1432112,328,60.197833,25.054813,Keijukaistenpolku
328.0,3.4456499033389266e-07,0.0035149384885764497,0.07439367196182257,0.006187690563982127,1432159,328,60.19806,25.05587,Keijukaistenpolku
328.0,3.4456499033389266e-07,0.0035149384885764497,0.07439367196182257,0.006187690563982127,1432160,328,60.1975,25.05482,Keijukaistenpolku
343.0,9.252565121829187e-06,0.0035149384885764497,0.08308995327102804,0.020778372684608554,1433156,343,60.19313,25.04621,Porolahti
343.0,9.252565121829187e-06,0.0035149384885764497,0.08308995327102804,0.020778372684608554,1433173,343,60.1931,25.04642,Porolahti
330.0,7.381409846163867e-08,0.0017574692442882249,0.0692508975841295,0.0,1432154,330,60.197495,25.052206,Tuhkimontie
352.0,1.1262818293815071e-07,0.0035149384885764497,0.07460338271928675,0.00470035000668594,1432161,352,60.20088,25.05972,Vuorenpeikontie
352.0,1.1262818293815071e-07,0.0035149384885764497,0.07460338271928675,0.00470035000668594,1432162,352,60.2007,25.05952,Vuorenpeikontie
329.0,7.381409846163867e-08,0.0017574692442882249,0.0692508975841295,0.0,1432116,329,60.19635,25.050907,Jättiläisenpolku
331.0,6.180641749003654e-11,0.0017574692442882249,0.05268762442705681,0.0017574692442882249,1440103,331,60.19022,25.05435,Kummeltie
331.0,6.180641749003654e-11,0.0017574692442882249,0.05268762442705681,0.0017574692442882249,1440104,331,60.19033,25.05429,Kummeltie
335.0,3.393626366903112e-10,0.0017574692442882249,0.05560985144644253,0.003511847073898722,1440105,335,60.19054,25.05932,Leppisaarenkuja
335.0,3.393626366903112e-10,0.0017574692442882249,0.05560985144644253,0.003511847073898722,1440106,335,60.19055,25.05834,Leppisaarenkuja
332.0,5.602158347863138e-08,0.0017574692442882249,0.0666627614082362,0.008756432074663846,1432110,332,60.19561,25.06393,Ruonasalmi
332.0,5.602158347863138e-08,0.0017574692442882249,0.0666627614082362,0.008756432074663846,1432111,332,60.1959,25.06273,Ruonasalmi
333.0,1.0211802395985326e-08,0.0017574692442882249,0.06252747252747252,0.007011328489086533,1440109,333,60.19371,25.06513,Mäntypaadentie
334.0,1.8615563500382658e-09,0.0017574692442882249,0.05886917386581139,0.0052631334888314915,1440107,334,60.19178,25.06243,Pellonperäntie
334.0,1.8615563500382658e-09,0.0017574692442882249,0.05886917386581139,0.0052631334888314915,1440108,334,60.19187,25.0624,Pellonperäntie
336.0,4.824409147898641e-09,0.0017574692442882249,0.06696875183899252,0.0017574692442882249,1456197,336,60.2124,25.04932,Levytie
337.0,2.6434303438574292e-08,0.0017574692442882249,0.07176188674486064,0.003511847073898722,1456198,337,60.2107,25.04788,Laippatie
340.0,1.4473362095807743e-07,0.0017574692442882249,0.07728353140916808,0.0052631334888314915,1456194,340,60.20997,25.05373,Pulttitie
340.0,1.4473362095807743e-07,0.0017574692442882249,0.07728353140916808,0.0052631334888314915,1456195,340,60.209516,25.053738,Putkitie
